[{"lat": -16.66503, "lng": 28.38975, "price": 0.847, "name": "TGAS - SANTA CATALINA"}, {"lat": -16.65064, "lng": 28.37411, "price": 0.847, "name": "PCAN"}, {"lat": -16.61897, "lng": 28.37911, "price": 0.847, "name": "DISA"}, {"lat": -16.59006, "lng": 28.37364, "price": 0.849, "name": "PCAN LA AZADILLA"}, {"lat": -16.28406, "lng": 28.44208, "price": 0.854, "name": "TGAS-TU TREBOL"}, {"lat": -16.73989, "lng": 28.12011, "price": 0.854, "name": "TGAS-TU TREBOL"}, {"lat": -16.41178, "lng": 28.47747, "price": 0.858, "name": "TGAS"}, {"lat": -16.296, "lng": 28.47022, "price": 0.862, "name": "PCAN"}, {"lat": -16.31361, "lng": 28.4815, "price": 0.863, "name": "SHELL LA LAGUNA"}, {"lat": -16.31378, "lng": 28.48464, "price": 0.863, "name": "TGAS"}, {"lat": -16.30431, "lng": 28.45811, "price": 0.863, "name": "DISA LAS CHUMBERAS"}, {"lat": -16.61822, "lng": 28.39308, "price": 0.865, "name": "ESTACION DE SERVICIOS EL"}, {"lat": -16.48467, "lng": 28.42872, "price": 0.869, "name": "REPSOL"}, {"lat": -16.66264, "lng": 28.01186, "price": 0.879, "name": "TGAS"}, {"lat": -16.55136, "lng": 28.10353, "price": 0.881, "name": "PCAN"}, {"lat": -16.30189, "lng": 28.51522, "price": 0.883, "name": "TGAS"}, {"lat": -16.32981, "lng": 28.45686, "price": 0.883, "name": "TGAS"}, {"lat": -16.64233, "lng": 28.39397, "price": 0.889, "name": "REPSOL"}, {"lat": -16.31689, "lng": 28.45608, "price": 0.889, "name": "REPSOL"}, {"lat": -16.55325, "lng": 28.06889, "price": 0.889, "name": "TGAS"}, {"lat": -16.35089, "lng": 28.39947, "price": 0.889, "name": "PCAN"}, {"lat": -16.43864, "lng": 28.46444, "price": 0.889, "name": "REPSOL"}, {"lat": -16.50997, "lng": 28.37703, "price": 0.89, "name": "REPSOL BARROSO"}, {"lat": -16.46481, "lng": 28.13081, "price": 0.895, "name": "PCAN"}, {"lat": -16.36192, "lng": 28.38236, "price": 0.898, "name": "DISA LAS CALETILLAS"}, {"lat": -16.33667, "lng": 28.47397, "price": 0.898, "name": "PCAN"}, {"lat": -16.36214, "lng": 28.456, "price": 0.899, "name": "PCAN"}, {"lat": -16.53739, "lng": 28.37961, "price": 0.899, "name": "REPSOL"}, {"lat": -15.47433, "lng": 27.805, "price": 0.899, "name": "CANARY OIL JUAN GRANDE"}, {"lat": -16.67794, "lng": 28.05208, "price": 0.899, "name": "REPSOL"}, {"lat": -16.33503, "lng": 28.51997, "price": 0.899, "name": "TGAS"}, {"lat": -16.57247, "lng": 28.39439, "price": 0.902, "name": "TGAS LA GORVORANA"}, {"lat": -16.71019, "lng": 28.37225, "price": 0.909, "name": "DISA ICOD DE LOS VINOS"}, {"lat": -16.71969, "lng": 28.36853, "price": 0.909, "name": "SHELL ICOD DE LOS VINOS"}, {"lat": -16.69406, "lng": 28.37922, "price": 0.909, "name": "CEPSA ICOD DE LOS VINOS"}, {"lat": -16.56983, "lng": 28.36269, "price": 0.909, "name": "REPSOL"}, {"lat": -16.77714, "lng": 28.35633, "price": 0.909, "name": "REPSOL"}, {"lat": -16.37822, "lng": 28.49589, "price": 0.911, "name": "PCAN"}, {"lat": -16.58189, "lng": 28.39003, "price": 0.913, "name": "PCAN"}, {"lat": -16.58217, "lng": 28.39008, "price": 0.913, "name": "DISA LOS BARROS"}, {"lat": -16.33658, "lng": 28.48356, "price": 0.915, "name": "ES TAXLAGUNA"}, {"lat": -16.61169, "lng": 28.04947, "price": 0.919, "name": "PCAN"}, {"lat": -16.61456, "lng": 28.05606, "price": 0.919, "name": "OCEANO"}, {"lat": -16.37483, "lng": 28.32519, "price": 0.919, "name": "OCEANO"}, {"lat": -16.61269, "lng": 28.05, "price": 0.919, "name": "DISA LAS CHAFIRAS"}, {"lat": -13.84469, "lng": 28.52217, "price": 0.919, "name": "REPSOL"}, {"lat": -13.84653, "lng": 28.52078, "price": 0.919, "name": "REPSOL"}, {"lat": -16.30486, "lng": 28.46469, "price": 0.919, "name": "REPSOL"}, {"lat": -13.86472, "lng": 28.38781, "price": 0.919, "name": "REPSOL"}, {"lat": -16.57139, "lng": 28.37708, "price": 0.919, "name": "REPSOL"}, {"lat": -16.54642, "lng": 28.05622, "price": 0.919, "name": "CEPSA"}, {"lat": -13.85225, "lng": 28.50075, "price": 0.923, "name": "PCAN GASOLINERA GIL"}, {"lat": -13.86258, "lng": 28.49744, "price": 0.923, "name": "MERCASOSA"}, {"lat": -13.8775, "lng": 28.51683, "price": 0.923, "name": "DISA"}, {"lat": -13.87631, "lng": 28.51683, "price": 0.923, "name": "DISA"}, {"lat": -16.49433, "lng": 28.42522, "price": 0.927, "name": "SHELL SANTA URSULA"}, {"lat": -16.7925, "lng": 28.37008, "price": 0.929, "name": "E.S. CEPSA LA CALETA"}, {"lat": -16.81953, "lng": 28.36569, "price": 0.929, "name": "DISA RED"}, {"lat": -16.84825, "lng": 28.36989, "price": 0.929, "name": "DISA"}, {"lat": -16.70072, "lng": 28.37897, "price": 0.929, "name": "CEPSA"}, {"lat": -16.50967, "lng": 28.15708, "price": 0.929, "name": "REPSOL"}, {"lat": -15.40289, "lng": 27.92603, "price": 0.934, "name": "SANTANA DOMINGUEZ, S.L."}, {"lat": -16.20864, "lng": 28.49644, "price": 0.939, "name": "REPSOL"}, {"lat": -16.43328, "lng": 28.16908, "price": 0.939, "name": "CEPSA"}, {"lat": -13.46486, "lng": 29.13172, "price": 0.939, "name": "PCAN ARRIETA"}, {"lat": -16.42331, "lng": 28.2135, "price": 0.939, "name": "CEPSA"}, {"lat": -16.46353, "lng": 28.13097, "price": 0.939, "name": "REPSOL"}, {"lat": -16.53472, "lng": 28.07333, "price": 0.939, "name": "REPSOL"}, {"lat": -16.535, "lng": 28.07258, "price": 0.939, "name": "REPSOL"}, {"lat": -16.41414, "lng": 28.22269, "price": 0.939, "name": "REPSOL"}, {"lat": -16.43492, "lng": 28.47594, "price": 0.939, "name": "CEPSA"}, {"lat": -16.3545, "lng": 28.49067, "price": 0.943, "name": "REPSOL"}, {"lat": -16.389, "lng": 28.51817, "price": 0.943, "name": "REPSOL"}, {"lat": -15.59111, "lng": 28.10742, "price": 0.949, "name": "REPSOL"}, {"lat": -16.396, "lng": 28.46953, "price": 0.949, "name": "CEPSA AGUA GARCIA"}, {"lat": -16.46678, "lng": 28.43608, "price": 0.949, "name": "SHELL"}, {"lat": -16.51519, "lng": 28.38825, "price": 0.949, "name": "CEPSA LA CANADA"}, {"lat": -16.51986, "lng": 28.39436, "price": 0.949, "name": "DISA"}, {"lat": -16.39858, "lng": 28.51056, "price": 0.952, "name": "REPSOL"}, {"lat": -16.46047, "lng": 28.44953, "price": 0.954, "name": "DISA EL BOHIO"}, {"lat": -15.49542, "lng": 27.99181, "price": 0.959, "name": "DISA"}, {"lat": -15.43725, "lng": 28.10203, "price": 0.959, "name": "DISA MILLER BAJO"}, {"lat": -15.41533, "lng": 28.09622, "price": 0.959, "name": "DISA VEGUETA"}, {"lat": -15.42844, "lng": 28.11331, "price": 0.959, "name": "SHELL SCHAMANN"}, {"lat": -16.301, "lng": 28.42747, "price": 0.959, "name": "REPSOL"}, {"lat": -15.47264, "lng": 27.99556, "price": 0.959, "name": "CEPSA LOS ALMENDROS"}, {"lat": -16.41194, "lng": 28.31303, "price": 0.959, "name": "CEPSA"}, {"lat": -16.27231, "lng": 28.45842, "price": 0.96, "name": "DISA TIO PINO"}, {"lat": -15.42511, "lng": 28.12669, "price": 0.961, "name": "CEPSA LA MARINA"}, {"lat": -14.02069, "lng": 28.21503, "price": 0.963, "name": "CEPSA GRAN TARAJAL"}, {"lat": -14.01522, "lng": 28.40944, "price": 0.963, "name": "CEPSA ANTIGUA"}, {"lat": -5.30086, "lng": 35.89472, "price": 0.963, "name": "ON365"}, {"lat": -15.41606, "lng": 28.15222, "price": 0.963, "name": "DISA PUERTO DE LA LUZ"}, {"lat": -15.425, "lng": 28.11494, "price": 0.967, "name": "SHELL TOMAS MORALES"}, {"lat": -15.42111, "lng": 28.10756, "price": 0.967, "name": "CEPSA PLAZA DEL PINO"}, {"lat": -15.43231, "lng": 27.86469, "price": 0.968, "name": "CEPSA"}, {"lat": -15.43258, "lng": 27.86481, "price": 0.968, "name": "CEPSA"}, {"lat": -15.43575, "lng": 27.86311, "price": 0.968, "name": "CEPSA"}, {"lat": -15.79497, "lng": 27.98903, "price": 0.968, "name": "DISA"}, {"lat": -15.79575, "lng": 27.98939, "price": 0.969, "name": "CEPSA SAN NICOLAS"}, {"lat": -15.41475, "lng": 28.0065, "price": 0.969, "name": "CEPSA EL CUBILLO"}, {"lat": -15.63394, "lng": 28.14133, "price": 0.969, "name": "CEPSA"}, {"lat": -13.86328, "lng": 28.50133, "price": 0.969, "name": "CEPSA PUERTO ROSARIO"}, {"lat": -15.41764, "lng": 28.04053, "price": 0.969, "name": "SHELL MERCALASPALMAS"}, {"lat": -5.32867, "lng": 35.89322, "price": 0.969, "name": "ON365"}, {"lat": -15.54553, "lng": 28.06192, "price": 0.971, "name": "CEPSA"}, {"lat": -15.43275, "lng": 27.86294, "price": 0.971, "name": "DISA BALOS"}, {"lat": -5.32056, "lng": 35.89233, "price": 0.973, "name": "SHELL MUELLE DATO"}, {"lat": -5.32092, "lng": 35.89256, "price": 0.973, "name": "DISA"}, {"lat": -5.33678, "lng": 35.8795, "price": 0.973, "name": "SHELL CATENA"}, {"lat": -15.42917, "lng": 27.91789, "price": 0.975, "name": "CEPSA INGENIO"}, {"lat": -15.43256, "lng": 27.91828, "price": 0.975, "name": "SHELL INGENIO"}, {"lat": -15.44481, "lng": 27.90406, "price": 0.975, "name": "DISA AGUIMES"}, {"lat": -15.65225, "lng": 28.14533, "price": 0.977, "name": "CEPSA"}, {"lat": -15.42997, "lng": 27.87961, "price": 0.977, "name": "REPSOL"}, {"lat": -16.78489, "lng": 28.14097, "price": 0.978, "name": "CEPSA ARMENIME"}, {"lat": -15.48781, "lng": 28.13619, "price": 0.979, "name": "CEPSA - ALEXIS MANUEL JIM"}, {"lat": -15.54225, "lng": 28.08678, "price": 0.979, "name": "PCAN"}, {"lat": -16.76808, "lng": 28.13403, "price": 0.979, "name": "REPSOL"}, {"lat": -15.41883, "lng": 28.14736, "price": 0.979, "name": "CEPSA MUELLE GRANDE"}, {"lat": -5.31944, "lng": 35.88997, "price": 0.979, "name": "CEPSA"}, {"lat": -5.32292, "lng": 35.89406, "price": 0.979, "name": "CEPSA"}, {"lat": -15.39094, "lng": 27.96719, "price": 0.979, "name": "ESTACION REPSOL"}, {"lat": -13.83161, "lng": 28.86783, "price": 0.979, "name": "ESTACION PLAYA BLANCA"}, {"lat": -16.383, "lng": 28.48739, "price": 0.979, "name": "CEPSA EL PENON"}, {"lat": -16.37194, "lng": 28.35683, "price": 0.979, "name": "DISA CANDELARIA"}, {"lat": -15.42633, "lng": 27.87633, "price": 0.979, "name": "ESTACION REPSOL"}, {"lat": -15.39897, "lng": 27.91722, "price": 0.979, "name": "CEPSA"}, {"lat": -16.39558, "lng": 28.33392, "price": 0.979, "name": "REPSOL"}, {"lat": -15.40472, "lng": 27.89917, "price": 0.979, "name": "DISA AUTOPISTA KM 21"}, {"lat": -16.575, "lng": 28.37256, "price": 0.979, "name": "CEPSA"}, {"lat": -13.73697, "lng": 28.9395, "price": 0.979, "name": "COMBUSTIBLES CANARIOS"}, {"lat": -5.31956, "lng": 35.89156, "price": 0.979, "name": "CEPSA"}, {"lat": -16.37233, "lng": 28.33122, "price": 0.979, "name": "REPSOL"}, {"lat": -15.4135, "lng": 28.03414, "price": 0.979, "name": "DISA JINAMAR"}, {"lat": -5.32292, "lng": 35.88525, "price": 0.979, "name": "CEPSA"}, {"lat": -16.57847, "lng": 28.10469, "price": 0.98, "name": "CEPSA LOS LLANOS - GRANAD"}, {"lat": -16.61039, "lng": 28.08444, "price": 0.98, "name": "REPSOL"}, {"lat": -16.30725, "lng": 28.44744, "price": 0.981, "name": "CEPSA LOS ANDENES"}, {"lat": -15.44972, "lng": 28.05372, "price": 0.982, "name": "CEPSA HOYA PARRADO"}, {"lat": -16.46236, "lng": 28.43947, "price": 0.984, "name": "SHELL ACENTEJO"}, {"lat": -13.81564, "lng": 28.85917, "price": 0.985, "name": "MARINA RUBICON-DISA RED"}, {"lat": -16.26814, "lng": 28.45503, "price": 0.986, "name": "CEPSA"}, {"lat": -15.40481, "lng": 27.96078, "price": 0.988, "name": "DISA"}, {"lat": -17.27772, "lng": 28.10678, "price": 0.989, "name": "DISA CHIPUDE"}, {"lat": -15.43989, "lng": 28.11064, "price": 0.989, "name": "REPSOL"}, {"lat": -15.44272, "lng": 28.09797, "price": 0.989, "name": "BP COOPERATIVA TAXIS S. C"}, {"lat": -15.60781, "lng": 27.76628, "price": 0.989, "name": "PCAN"}, {"lat": -15.59008, "lng": 27.76839, "price": 0.989, "name": "CEPSA TAXISTAS S.AGUSTIN"}, {"lat": -15.38997, "lng": 27.94072, "price": 0.989, "name": "CEPSA"}, {"lat": -16.52956, "lng": 28.41172, "price": 0.989, "name": "SHELL EL AGUILA"}, {"lat": -16.81272, "lng": 28.28083, "price": 0.989, "name": "CEPSA"}, {"lat": -15.53839, "lng": 28.09756, "price": 0.989, "name": "CEPSA LOS PORTALES (TEXAC"}, {"lat": -15.41886, "lng": 28.03881, "price": 0.989, "name": "REPSOL"}, {"lat": -15.44711, "lng": 28.10142, "price": 0.989, "name": "REPSOL"}, {"lat": -15.39158, "lng": 27.97894, "price": 0.989, "name": "REPSOL"}, {"lat": -16.54378, "lng": 28.41253, "price": 0.989, "name": "CEPSA PUERTO DE LA CRUZ"}, {"lat": -15.48889, "lng": 28.13619, "price": 0.989, "name": "CEPSA"}, {"lat": -15.41481, "lng": 27.99239, "price": 0.989, "name": "REPSOL"}, {"lat": -15.44, "lng": 27.8295, "price": 0.99, "name": "POZO IZQUIERDO"}, {"lat": -15.61406, "lng": 28.14336, "price": 0.99, "name": "REPSOL"}, {"lat": -17.83522, "lng": 28.50092, "price": 0.992, "name": "PCAN"}, {"lat": -15.52761, "lng": 28.01275, "price": 0.993, "name": "SHELL SAN MATEO"}, {"lat": -15.58419, "lng": 28.11356, "price": 0.993, "name": "SHELL"}, {"lat": -15.38942, "lng": 27.94472, "price": 0.993, "name": "CEPSA"}, {"lat": -16.82989, "lng": 28.20506, "price": 0.993, "name": "PCAN"}, {"lat": -15.45389, "lng": 28.11842, "price": 0.994, "name": "CEPSA LAS TORRES (TEXACO)"}, {"lat": -15.44039, "lng": 27.85183, "price": 0.994, "name": "SHELL"}, {"lat": -15.56033, "lng": 28.14494, "price": 0.994, "name": "BP KM 13 - 2 (SAN ANDRES)"}, {"lat": -15.54706, "lng": 28.06175, "price": 0.994, "name": "BP TEROR"}, {"lat": -15.62853, "lng": 28.14144, "price": 0.994, "name": "BP GUIA"}, {"lat": -15.70208, "lng": 28.10186, "price": 0.994, "name": "BP AGAETE"}, {"lat": -15.41703, "lng": 28.03553, "price": 0.994, "name": "BP JINAMAR"}, {"lat": -15.57614, "lng": 28.04911, "price": 0.994, "name": "BP VALLESECO"}, {"lat": -15.44156, "lng": 28.12989, "price": 0.994, "name": "BP GUANARTEME"}, {"lat": -15.38758, "lng": 28.01433, "price": 0.994, "name": "BP LA GARITA"}, {"lat": -15.41486, "lng": 28.10808, "price": 0.994, "name": "BP CIDELMAR"}, {"lat": -15.53572, "lng": 28.00903, "price": 0.994, "name": "BP SAN MATEO"}, {"lat": -15.47519, "lng": 28.04469, "price": 0.994, "name": "DISA"}, {"lat": -15.41664, "lng": 28.14753, "price": 0.994, "name": "BP"}, {"lat": -15.56083, "lng": 28.14547, "price": 0.994, "name": "BP KM 13 - 1 (SAN ANDRES)"}, {"lat": -15.42111, "lng": 28.04794, "price": 0.994, "name": "CEPSA"}, {"lat": -15.39194, "lng": 28.02619, "price": 0.994, "name": "BP LAS TERRAZAS"}, {"lat": -16.55092, "lng": 28.39406, "price": 0.995, "name": "BP"}, {"lat": -15.44117, "lng": 28.12331, "price": 0.995, "name": "REPSOL"}, {"lat": -15.44175, "lng": 28.10372, "price": 0.996, "name": "CEPSA"}, {"lat": -15.45714, "lng": 28.09389, "price": 0.997, "name": "CEPSA"}, {"lat": -15.45, "lng": 28.11244, "price": 0.997, "name": "CEPSA"}, {"lat": -13.68628, "lng": 28.94831, "price": 0.998, "name": "A800-02"}, {"lat": -16.73839, "lng": 28.12589, "price": 0.998, "name": "REPSOL"}, {"lat": -16.35972, "lng": 28.53083, "price": 0.998, "name": "TEJINA"}, {"lat": -17.76831, "lng": 28.67992, "price": 0.998, "name": "BAJAMAR"}, {"lat": -16.74078, "lng": 28.12544, "price": 0.998, "name": "BP LA ATALAYA"}, {"lat": -17.91322, "lng": 28.65717, "price": 0.998, "name": "BP"}, {"lat": -15.55861, "lng": 28.11878, "price": 0.998, "name": "CEPSA"}, {"lat": -16.65933, "lng": 28.09117, "price": 0.999, "name": "CEPSA"}, {"lat": -15.48936, "lng": 28.10781, "price": 0.999, "name": "CEPSA LA CAZUELA"}, {"lat": -15.44067, "lng": 28.10125, "price": 0.999, "name": "REPSOL"}, {"lat": -15.46389, "lng": 28.07656, "price": 0.999, "name": "REPSOL"}, {"lat": -15.39211, "lng": 27.98058, "price": 0.999, "name": "REPSOL"}, {"lat": -15.45967, "lng": 28.09083, "price": 0.999, "name": "DISA"}, {"lat": -16.42358, "lng": 28.47286, "price": 0.999, "name": "BP"}, {"lat": -16.54556, "lng": 28.39822, "price": 0.999, "name": "LAS ARENAS-COOP.TAXI PTO."}, {"lat": -16.54617, "lng": 28.41375, "price": 0.999, "name": "BP"}, {"lat": -16.29458, "lng": 28.4495, "price": 0.999, "name": "BP TACO NORTE"}, {"lat": -15.44239, "lng": 27.84894, "price": 0.999, "name": "REPSOL"}, {"lat": -13.54372, "lng": 28.96825, "price": 0.999, "name": "PCAN"}, {"lat": -15.51033, "lng": 28.11236, "price": 0.999, "name": "BP CRUCE SANTIDAD-ARUCAS"}, {"lat": -15.40344, "lng": 27.99817, "price": 0.999, "name": "BP EL CALERO"}, {"lat": -15.45525, "lng": 28.11708, "price": 0.999, "name": "REPSOL"}, {"lat": -16.66733, "lng": 28.06075, "price": 0.999, "name": "BP CABO BLANCO"}, {"lat": -16.63656, "lng": 28.05233, "price": 0.999, "name": "OROTIANDA"}, {"lat": -16.39314, "lng": 28.33553, "price": 0.999, "name": "BP LA HIDALGA"}, {"lat": -16.73828, "lng": 28.11836, "price": 0.999, "name": "BP SAN SEBASTIAN"}, {"lat": -16.37636, "lng": 28.33161, "price": 0.999, "name": "BP"}, {"lat": -16.72244, "lng": 28.069, "price": 0.999, "name": "BP SIAM MALL"}, {"lat": -16.57617, "lng": 28.06106, "price": 0.999, "name": "BP"}, {"lat": -15.41778, "lng": 27.86222, "price": 0.999, "name": "REPSOL"}, {"lat": -17.91453, "lng": 28.80819, "price": 1.0, "name": "TGAS"}, {"lat": -13.63128, "lng": 28.95506, "price": 1.0, "name": "SPL"}, {"lat": -13.63228, "lng": 28.95456, "price": 1.0, "name": "SPL"}, {"lat": -17.97775, "lng": 28.7635, "price": 1.0, "name": "REPSOL"}, {"lat": -17.77447, "lng": 28.80519, "price": 1.001, "name": "CEPSA"}, {"lat": -17.76989, "lng": 28.67111, "price": 1.001, "name": "CEPSA"}, {"lat": -16.28378, "lng": 28.46611, "price": 1.002, "name": "DISA VISTABELLA"}, {"lat": -16.55806, "lng": 28.07828, "price": 1.002, "name": "DISA SAN ISIDRO"}, {"lat": -16.41511, "lng": 28.461, "price": 1.002, "name": "DISA RAVELO"}, {"lat": -16.30517, "lng": 28.43853, "price": 1.002, "name": "DISA BARRANCO GRANDE"}, {"lat": -16.3005, "lng": 28.44503, "price": 1.002, "name": "DISA TACO"}, {"lat": -16.54742, "lng": 28.398, "price": 1.003, "name": "SHELL"}, {"lat": -15.49961, "lng": 28.03033, "price": 1.004, "name": "BP SANTA BRIGIDA"}, {"lat": -15.47744, "lng": 28.09356, "price": 1.004, "name": "BP SAN LORENZO"}, {"lat": -15.44594, "lng": 28.09864, "price": 1.004, "name": "BP LA PATERNA"}, {"lat": -15.58303, "lng": 28.10825, "price": 1.004, "name": "BP MOYA"}, {"lat": -15.47928, "lng": 28.09794, "price": 1.004, "name": "BP TAMARACEITE I"}, {"lat": -15.41728, "lng": 28.07556, "price": 1.004, "name": "BP SAN JOSE"}, {"lat": -15.44331, "lng": 27.85608, "price": 1.004, "name": "BP SARDINA SUR"}, {"lat": -15.42994, "lng": 28.12661, "price": 1.004, "name": "BP CIUDAD JARDIN"}, {"lat": -15.42072, "lng": 28.15028, "price": 1.004, "name": "BP PUERTO DE LA LUZ"}, {"lat": -15.70839, "lng": 27.79008, "price": 1.004, "name": "BP ARGUINEGUIN"}, {"lat": -15.43433, "lng": 28.11394, "price": 1.004, "name": "BP ALTAVISTA"}, {"lat": -15.45697, "lng": 27.83842, "price": 1.004, "name": "BP EL TARO"}, {"lat": -15.52814, "lng": 28.11586, "price": 1.004, "name": "BP LAS VEGAS"}, {"lat": -13.64928, "lng": 28.95139, "price": 1.005, "name": "PCAN"}, {"lat": -16.78203, "lng": 28.21242, "price": 1.005, "name": "SHELL"}, {"lat": -16.31367, "lng": 28.44181, "price": 1.005, "name": "SHELL LOS MAJUELOS"}, {"lat": -15.53314, "lng": 28.14667, "price": 1.006, "name": "DISA BANADEROS"}, {"lat": -17.77283, "lng": 28.80103, "price": 1.008, "name": "DISA"}, {"lat": -17.80319, "lng": 28.83158, "price": 1.008, "name": "SHELL"}, {"lat": -17.77125, "lng": 28.66156, "price": 1.008, "name": "SHELL"}, {"lat": -16.27706, "lng": 28.46308, "price": 1.008, "name": "CEPSA"}, {"lat": -17.76867, "lng": 28.67861, "price": 1.008, "name": "DISA"}, {"lat": -16.68786, "lng": 28.07569, "price": 1.008, "name": "CEPSA"}, {"lat": -16.28217, "lng": 28.43653, "price": 1.008, "name": "CEPSA"}, {"lat": -15.39008, "lng": 28.00983, "price": 1.009, "name": "CEPSA"}, {"lat": -15.44083, "lng": 27.84125, "price": 1.009, "name": "REPSOL"}, {"lat": -16.64536, "lng": 28.03361, "price": 1.009, "name": "BP"}, {"lat": -16.55839, "lng": 28.37644, "price": 1.009, "name": "SHELL"}, {"lat": -15.64969, "lng": 28.14481, "price": 1.009, "name": "SHELL GALDAR"}, {"lat": -15.45097, "lng": 27.83497, "price": 1.009, "name": "BP DOCTORAL"}, {"lat": -15.47108, "lng": 28.09969, "price": 1.009, "name": "LOMO LOS FRAILES"}, {"lat": -15.55856, "lng": 27.76539, "price": 1.01, "name": "BP EL VERIL"}, {"lat": -13.86514, "lng": 28.42169, "price": 1.011, "name": "DISA EL MATORRAL"}, {"lat": -13.86681, "lng": 28.46872, "price": 1.011, "name": "DISA RIO CABRAS"}, {"lat": -13.85056, "lng": 28.50619, "price": 1.011, "name": "DISA  EL CHARCO"}, {"lat": -13.86181, "lng": 28.49842, "price": 1.011, "name": "DISA SECUNDINO ALONSO"}, {"lat": -17.881, "lng": 28.59947, "price": 1.012, "name": "PCAN"}, {"lat": -16.82428, "lng": 28.26081, "price": 1.014, "name": "DISA BAJADA A LOS GIGANTE"}, {"lat": -16.71461, "lng": 28.05358, "price": 1.014, "name": "BP"}, {"lat": -16.38606, "lng": 28.30639, "price": 1.014, "name": "DISA PUERTITO"}, {"lat": -16.72408, "lng": 28.06636, "price": 1.014, "name": "BP LAS AMERICAS"}, {"lat": -16.68206, "lng": 28.09939, "price": 1.014, "name": "BP.ARONA"}, {"lat": -16.52308, "lng": 28.39783, "price": 1.014, "name": "BP"}, {"lat": -16.39797, "lng": 28.48069, "price": 1.014, "name": "BP"}, {"lat": -16.26142, "lng": 28.45772, "price": 1.014, "name": "BP AVENIDA 3 DE MAYO"}, {"lat": -16.27017, "lng": 28.46481, "price": 1.014, "name": "BP CRUZ DEL SENOR"}, {"lat": -16.32406, "lng": 28.48608, "price": 1.014, "name": "BP SAN BENITO"}, {"lat": -16.30353, "lng": 28.44022, "price": 1.014, "name": "BP TACO"}, {"lat": -16.76289, "lng": 28.15897, "price": 1.014, "name": "DISA TIJOCO"}, {"lat": -16.23189, "lng": 28.48911, "price": 1.014, "name": "DISA BALNEARIO I"}, {"lat": -16.40797, "lng": 28.31906, "price": 1.014, "name": "DISA GUIMAR"}, {"lat": -16.54833, "lng": 28.41439, "price": 1.014, "name": "DISA"}, {"lat": -16.27103, "lng": 28.46739, "price": 1.014, "name": "DISA ARACAYU"}, {"lat": -16.28344, "lng": 28.45244, "price": 1.014, "name": "DISA LAS DELICIAS"}, {"lat": -16.43958, "lng": 28.23642, "price": 1.014, "name": "DISA"}, {"lat": -16.73189, "lng": 28.10481, "price": 1.014, "name": "DISA FANABE"}, {"lat": -16.48003, "lng": 28.18253, "price": 1.014, "name": "DISA"}, {"lat": -16.55833, "lng": 28.39483, "price": 1.014, "name": "DISA"}, {"lat": -16.82225, "lng": 28.19386, "price": 1.014, "name": "DISA PLAYA SAN JUAN"}, {"lat": -16.42122, "lng": 28.47383, "price": 1.014, "name": "DISA EL SAUZAL"}, {"lat": -16.45056, "lng": 28.45664, "price": 1.014, "name": "DISA LA MATANZA"}, {"lat": -16.42642, "lng": 28.26425, "price": 1.014, "name": "EL ESCOBONAL"}, {"lat": -16.3045, "lng": 28.42731, "price": 1.014, "name": "DISA CUEVAS BLANCAS"}, {"lat": -16.34736, "lng": 28.55225, "price": 1.014, "name": "DISA BAJAMAR"}, {"lat": -16.26142, "lng": 28.4515, "price": 1.014, "name": "DISA VIA PENETRACION"}, {"lat": -16.29672, "lng": 28.45467, "price": 1.014, "name": "DISA LOS MAJUELOS"}, {"lat": -16.31856, "lng": 28.48156, "price": 1.014, "name": "DISA PADRE ANCHIETA"}, {"lat": -16.36306, "lng": 28.53325, "price": 1.014, "name": "DISA TEJINA"}, {"lat": -15.42386, "lng": 27.99178, "price": 1.014, "name": "DISA"}, {"lat": -16.64017, "lng": 28.15303, "price": 1.014, "name": "DISA"}, {"lat": -15.39356, "lng": 27.99433, "price": 1.014, "name": "DISA"}, {"lat": -16.81903, "lng": 28.27019, "price": 1.014, "name": "DISA"}, {"lat": -16.67883, "lng": 28.04567, "price": 1.014, "name": "BP OIL ESPANA"}, {"lat": -16.78803, "lng": 28.22514, "price": 1.014, "name": "DISA"}, {"lat": -16.28581, "lng": 28.46767, "price": 1.014, "name": "DISA OFRA"}, {"lat": -16.68089, "lng": 28.07819, "price": 1.014, "name": "DISA"}, {"lat": -16.2535, "lng": 28.45836, "price": 1.014, "name": "DISA FOMENTO"}, {"lat": -16.71539, "lng": 28.05281, "price": 1.014, "name": "DISA LOS CRISTIANOS"}, {"lat": -16.57678, "lng": 28.11625, "price": 1.014, "name": "DISA"}, {"lat": -16.79939, "lng": 28.24458, "price": 1.014, "name": "E.S. CEPSA CHIO"}, {"lat": -16.69214, "lng": 28.06133, "price": 1.014, "name": "DISA LLANO AZUL"}, {"lat": -16.61569, "lng": 28.09967, "price": 1.014, "name": "ESTACION  SAN MIGUEL"}, {"lat": -16.52233, "lng": 28.39833, "price": 1.014, "name": "DISA"}, {"lat": -16.81558, "lng": 28.29383, "price": 1.014, "name": "DISA"}, {"lat": -16.23161, "lng": 28.48861, "price": 1.014, "name": "DISA BALNEARIO II"}, {"lat": -16.30808, "lng": 28.50964, "price": 1.014, "name": "E.S. LAS CANTERAS S.L."}, {"lat": -16.66111, "lng": 28.00708, "price": 1.014, "name": "MARINA DEL SUR"}, {"lat": -16.57464, "lng": 28.05, "price": 1.014, "name": "DISA AEROPUERTO TFS"}, {"lat": -15.43361, "lng": 28.08664, "price": 1.015, "name": "CEPSA"}, {"lat": -15.42906, "lng": 27.85644, "price": 1.015, "name": "SHELL SANTA LUCIA"}, {"lat": -13.48961, "lng": 29.06017, "price": 1.015, "name": "CEPSA"}, {"lat": -13.763, "lng": 28.95461, "price": 1.015, "name": "E.S.YAIZA"}, {"lat": -16.26517, "lng": 28.45725, "price": 1.016, "name": "DISA TRES DE MAYO"}, {"lat": -16.24289, "lng": 28.47917, "price": 1.016, "name": "DISA NAUTICO"}, {"lat": -16.32022, "lng": 28.41933, "price": 1.016, "name": "DISA"}, {"lat": -16.317, "lng": 28.42542, "price": 1.016, "name": "SHELL EL CHORRILLO"}, {"lat": -16.23961, "lng": 28.48283, "price": 1.016, "name": "ESTACION DE SERVICIO CEPS"}, {"lat": -13.93547, "lng": 28.61117, "price": 1.016, "name": "DISA LA OLIVA"}, {"lat": -16.73956, "lng": 28.12364, "price": 1.017, "name": "SHELL"}, {"lat": -16.64553, "lng": 28.05256, "price": 1.017, "name": "SHELL ARONA"}, {"lat": -16.25683, "lng": 28.45917, "price": 1.017, "name": "SHELL LA SALLE"}, {"lat": -16.65253, "lng": 28.01389, "price": 1.017, "name": "SHELL"}, {"lat": -16.69092, "lng": 28.0585, "price": 1.017, "name": "SHELL LOS CRISTIANOS"}, {"lat": -16.41097, "lng": 28.313, "price": 1.017, "name": "SHELL GUIMAR"}, {"lat": -16.57717, "lng": 28.38419, "price": 1.017, "name": "SHELL LOS REALEJOS"}, {"lat": -16.57431, "lng": 28.40019, "price": 1.017, "name": "SHELL LAS DEHESAS"}, {"lat": -16.27831, "lng": 28.45428, "price": 1.017, "name": "E.S.SHELL OFRA"}, {"lat": -16.27942, "lng": 28.46406, "price": 1.017, "name": "SHELL EL RAMONAL"}, {"lat": -16.75792, "lng": 28.12808, "price": 1.017, "name": "SHELL ARMENIME"}, {"lat": -15.41417, "lng": 27.99831, "price": 1.018, "name": "SHELL TELDE"}, {"lat": -15.42997, "lng": 28.13333, "price": 1.018, "name": "DISA ALCARAVANERAS"}, {"lat": -15.70039, "lng": 28.10406, "price": 1.018, "name": "DISA"}, {"lat": -15.42019, "lng": 27.99856, "price": 1.018, "name": "DISA EL ROQUE"}, {"lat": -15.43539, "lng": 28.10131, "price": 1.018, "name": "DISA EL DRAGON"}, {"lat": -15.43503, "lng": 28.13256, "price": 1.018, "name": "DISA CHIL"}, {"lat": -15.41775, "lng": 28.15367, "price": 1.018, "name": "DISA EL SEBADAL"}, {"lat": -15.41753, "lng": 28.07364, "price": 1.018, "name": "DISA"}, {"lat": -15.43686, "lng": 28.11608, "price": 1.018, "name": "ESCALERITAS"}, {"lat": -15.42967, "lng": 28.11817, "price": 1.018, "name": "DISA JUAN XXIII"}, {"lat": -15.62803, "lng": 28.14242, "price": 1.018, "name": "DISA GUIA"}, {"lat": -15.4515, "lng": 28.09539, "price": 1.018, "name": "DISA TARAHALES I"}, {"lat": -15.41617, "lng": 27.87278, "price": 1.018, "name": "DISA"}, {"lat": -15.46853, "lng": 28.09614, "price": 1.018, "name": "DISA TAMARACEITE"}, {"lat": -13.56861, "lng": 28.96494, "price": 1.019, "name": "REPSOL"}, {"lat": -15.64458, "lng": 28.0195, "price": 1.019, "name": "(SIN ROTULO)"}, {"lat": -13.56825, "lng": 28.96517, "price": 1.019, "name": "REPSOL"}, {"lat": -15.38667, "lng": 28.01172, "price": 1.019, "name": "REPSOL"}, {"lat": -15.54897, "lng": 27.91525, "price": 1.02, "name": "DISA"}, {"lat": -15.43028, "lng": 28.13569, "price": 1.02, "name": "DISA"}, {"lat": -15.56883, "lng": 27.76489, "price": 1.021, "name": "DISA MASPALOMAS"}, {"lat": -15.41264, "lng": 28.09581, "price": 1.021, "name": "SHELL VEGUETA"}, {"lat": -15.43283, "lng": 28.10503, "price": 1.021, "name": "SHELL REHOYAS"}, {"lat": -15.52458, "lng": 28.11789, "price": 1.021, "name": "SHELL ARUCAS"}, {"lat": -15.51764, "lng": 28.11747, "price": 1.021, "name": "SHELL AUTOVIA ARUCAS"}, {"lat": -17.74786, "lng": 28.72544, "price": 1.021, "name": "SHELL PUNTALLANA"}, {"lat": -15.39928, "lng": 27.85983, "price": 1.021, "name": "SHELL"}, {"lat": -17.93472, "lng": 28.64169, "price": 1.021, "name": "SHELL"}, {"lat": -15.45047, "lng": 28.09647, "price": 1.021, "name": "SHELL TARAHALES II"}, {"lat": -15.70325, "lng": 27.79547, "price": 1.023, "name": "SHELL PUERTO RICO"}, {"lat": -14.04872, "lng": 28.32711, "price": 1.023, "name": "SHELL"}, {"lat": -14.10378, "lng": 28.23131, "price": 1.023, "name": "DISA EL CARACOL"}, {"lat": -13.54278, "lng": 28.98822, "price": 1.023, "name": "TGAS TAHICHE I"}, {"lat": -13.54381, "lng": 28.98767, "price": 1.023, "name": "TGAS TAHICHE II"}, {"lat": -15.61475, "lng": 27.99128, "price": 1.024, "name": "DISA"}, {"lat": -17.91642, "lng": 28.65886, "price": 1.024, "name": "DISA"}, {"lat": -17.88147, "lng": 28.65056, "price": 1.024, "name": "DISA"}, {"lat": -17.90803, "lng": 28.63136, "price": 1.024, "name": "DISA"}, {"lat": -17.78703, "lng": 28.66567, "price": 1.024, "name": "DISA"}, {"lat": -15.57644, "lng": 27.76403, "price": 1.024, "name": "SHELL MASPALOMAS"}, {"lat": -17.86728, "lng": 28.65103, "price": 1.024, "name": "SHELL"}, {"lat": -17.90769, "lng": 28.65633, "price": 1.024, "name": "SHELL"}, {"lat": -15.48228, "lng": 27.80397, "price": 1.024, "name": "SHELL JUAN GRANDE"}, {"lat": -15.40761, "lng": 27.90969, "price": 1.025, "name": "DISA"}, {"lat": -13.67325, "lng": 28.92064, "price": 1.025, "name": "CEPSA"}, {"lat": -13.85989, "lng": 28.49564, "price": 1.025, "name": "BP MUELLE CHICO"}, {"lat": -13.49767, "lng": 29.14889, "price": 1.026, "name": "TEXACO"}, {"lat": -13.56489, "lng": 29.05678, "price": 1.026, "name": "CEPSA"}, {"lat": -13.56244, "lng": 29.05042, "price": 1.026, "name": "CEPSA"}, {"lat": -13.55847, "lng": 28.97792, "price": 1.026, "name": "DISA"}, {"lat": -13.53439, "lng": 28.97431, "price": 1.026, "name": "DISA LOS MARMOLES"}, {"lat": -13.53628, "lng": 28.97931, "price": 1.026, "name": "DISA CIRCUNVALACION I"}, {"lat": -13.53581, "lng": 28.97981, "price": 1.026, "name": "DISA CIRCUNVALACION II"}, {"lat": -13.61411, "lng": 29.01247, "price": 1.027, "name": "DISA"}, {"lat": -17.75267, "lng": 28.61906, "price": 1.028, "name": "DISA"}, {"lat": -13.57078, "lng": 28.97631, "price": 1.029, "name": "CEPSA"}, {"lat": -13.66636, "lng": 28.92386, "price": 1.029, "name": "DISA PUERTO DEL CARMEN"}, {"lat": -15.56336, "lng": 27.886, "price": 1.029, "name": "DISA"}, {"lat": -13.57175, "lng": 28.95803, "price": 1.029, "name": "DISA AEROPUERTO"}, {"lat": -13.54611, "lng": 28.96536, "price": 1.029, "name": "DISA VALTERRA"}, {"lat": -13.50386, "lng": 29.00044, "price": 1.029, "name": "DISA TEGUISE GOLF"}, {"lat": -13.57539, "lng": 28.95842, "price": 1.029, "name": "DISA NUEVA AEROPUERTO"}, {"lat": -13.55242, "lng": 28.96225, "price": 1.029, "name": "DISA ARRECIFE"}, {"lat": -13.51594, "lng": 28.98689, "price": 1.029, "name": "DISA COSTA TEGUISE"}, {"lat": -13.87011, "lng": 28.73156, "price": 1.029, "name": "DISA CORRALEJO"}, {"lat": -13.54653, "lng": 28.97214, "price": 1.029, "name": "SHELL ARRECIFE II"}, {"lat": -13.55739, "lng": 28.96517, "price": 1.029, "name": "SHELL FLICK LANZAROTE"}, {"lat": -13.54608, "lng": 28.97239, "price": 1.029, "name": "SHELL ARRECIFE I"}, {"lat": -13.60781, "lng": 28.95381, "price": 1.029, "name": "CEPSA"}, {"lat": -13.5925, "lng": 28.95828, "price": 1.029, "name": "REPSOL"}, {"lat": -13.56453, "lng": 28.97167, "price": 1.029, "name": "REPSOL"}, {"lat": -13.61639, "lng": 28.94944, "price": 1.029, "name": "SPL"}, {"lat": -13.61564, "lng": 28.94972, "price": 1.029, "name": "SPL"}, {"lat": -13.86828, "lng": 28.73853, "price": 1.03, "name": "SHELL CORRALEJO"}, {"lat": -13.67075, "lng": 29.06503, "price": 1.031, "name": "CEPSA TINAJO"}, {"lat": -14.23089, "lng": 28.16039, "price": 1.032, "name": "DISA COSTA CALMA"}, {"lat": -14.35875, "lng": 28.04872, "price": 1.032, "name": "DISA MUELLE MORRO JABLE"}, {"lat": -14.34536, "lng": 28.04972, "price": 1.034, "name": "SHELL"}, {"lat": -15.75533, "lng": 27.83014, "price": 1.038, "name": "DISA"}, {"lat": -17.26497, "lng": 28.17903, "price": 1.047, "name": "DISA VALLEHERMOSO"}, {"lat": -17.33561, "lng": 28.0945, "price": 1.047, "name": "DISA VALLE GRAN REY"}, {"lat": -17.18867, "lng": 28.17231, "price": 1.05, "name": "DISA"}, {"lat": -18.01194, "lng": 27.75194, "price": 1.05, "name": "DISA FRONTERA"}, {"lat": -17.91422, "lng": 27.81167, "price": 1.05, "name": "DISA VALVERDER"}, {"lat": -17.97936, "lng": 27.70533, "price": 1.05, "name": "DISA EL PINAR"}, {"lat": -17.11333, "lng": 28.09086, "price": 1.051, "name": "SAN SEBASTIAN"}, {"lat": -17.20597, "lng": 28.03511, "price": 1.051, "name": "LA JUNTA"}, {"lat": -17.10756, "lng": 28.08967, "price": 1.051, "name": "DISA"}, {"lat": 2.05444, "lng": 41.33156, "price": 1.086, "name": "E.S. ALCAMPO SANT BOI"}, {"lat": 2.009, "lng": 41.3, "price": 1.092, "name": "BONAREA"}, {"lat": 2.04222, "lng": 41.33178, "price": 1.092, "name": "GALP"}, {"lat": 1.54075, "lng": 41.60231, "price": 1.094, "name": "BONAREA"}, {"lat": 1.27818, "lng": 41.78192, "price": 1.096, "name": "BONAREA"}, {"lat": 1.31292, "lng": 42.06433, "price": 1.098, "name": "ESTACIO SERVEI OLIANA"}, {"lat": 0.6045, "lng": 41.66403, "price": 1.098, "name": "BONAREA"}, {"lat": 2.10794, "lng": 41.35831, "price": 1.099, "name": "TAMOIL"}, {"lat": -2.48519, "lng": 41.77267, "price": 1.109, "name": "E. LECLERC"}, {"lat": -2.49742, "lng": 41.77325, "price": 1.109, "name": "SIMPLY"}, {"lat": -0.44444, "lng": 39.19875, "price": 1.115, "name": "COPAL LOGISTICA"}, {"lat": -4.16425, "lng": 40.94769, "price": 1.118, "name": "MEROIL"}, {"lat": 0.49856, "lng": 40.95933, "price": 1.119, "name": "TAMOIL"}, {"lat": -5.575, "lng": 42.54036, "price": 1.119, "name": "GASOLEOS ARIAS MARTINEZ,"}, {"lat": -5.49781, "lng": 42.45575, "price": 1.12, "name": "ES ESLA"}, {"lat": -2.95175, "lng": 42.6955, "price": 1.12, "name": "E.LECLERC"}, {"lat": -4.47119, "lng": 41.97347, "price": 1.126, "name": "AVIA"}, {"lat": -5.68278, "lng": 40.97119, "price": 1.128, "name": "RONDA OESTE"}, {"lat": -5.64222, "lng": 40.94631, "price": 1.128, "name": "E.LECLERC"}, {"lat": 1.21708, "lng": 41.114, "price": 1.129, "name": "TAMOIL"}, {"lat": -1.76475, "lng": 42.58653, "price": 1.13, "name": "E.E.S.S  NTRA. SRA. JERUS"}, {"lat": -2.91764, "lng": 42.70464, "price": 1.13, "name": "EROSKI"}, {"lat": -5.6805, "lng": 40.94206, "price": 1.138, "name": "SNOIL"}, {"lat": -6.22244, "lng": 41.0305, "price": 1.139, "name": "ESTACION DE SERVICIO PRIE"}, {"lat": -2.47792, "lng": 42.75319, "price": 1.14, "name": "(SIN ROTULO)"}, {"lat": 0.49989, "lng": 42.10619, "price": 1.144, "name": "PREMIRA"}, {"lat": -5.97008, "lng": 41.01208, "price": 1.145, "name": "EUMOGAS, SL"}, {"lat": 2.10217, "lng": 41.34983, "price": 1.146, "name": "EVOLUTION"}, {"lat": -1.19464, "lng": 37.94578, "price": 1.146, "name": "FROET-GAS"}, {"lat": 1.87108, "lng": 41.75411, "price": 1.148, "name": "PETRO-PINTO,S.L."}, {"lat": -0.85794, "lng": 39.78919, "price": 1.149, "name": "ES HIGUERUELAS"}, {"lat": -0.50564, "lng": 39.36878, "price": 1.149, "name": "TAMOIL"}, {"lat": -4.47025, "lng": 41.97306, "price": 1.15, "name": "AVIA"}, {"lat": -4.11202, "lng": 40.92264, "price": 1.154, "name": "EROSKI"}, {"lat": -3.64742, "lng": 38.08975, "price": 1.157, "name": "ALCAMPO"}, {"lat": 1.42194, "lng": 41.655, "price": 1.158, "name": "E.S.SANT GUIM"}, {"lat": -0.81392, "lng": 37.82489, "price": 1.159, "name": "EROSKI"}, {"lat": -5.73361, "lng": 41.44494, "price": 1.159, "name": "REPOSTAR - ANSELMO MONTER"}, {"lat": -5.58978, "lng": 42.63683, "price": 1.159, "name": "ALTO LEON"}, {"lat": -3.69044, "lng": 40.23953, "price": 1.159, "name": "E.LECLERC"}, {"lat": -3.66328, "lng": 40.10528, "price": 1.159, "name": "E.LECLERC"}, {"lat": -3.61914, "lng": 40.02325, "price": 1.159, "name": "E.LECLERC"}, {"lat": -3.73775, "lng": 40.36531, "price": 1.159, "name": "E.LECLERC"}, {"lat": -3.67669, "lng": 40.19894, "price": 1.159, "name": "E. LECLERC"}, {"lat": -0.52206, "lng": 39.06917, "price": 1.159, "name": "TOSCANA LOW COST"}, {"lat": -6.39017, "lng": 38.67239, "price": 1.16, "name": "E.LECLERC"}, {"lat": -3.39006, "lng": 42.80622, "price": 1.163, "name": "E.S. BASURTO, S.L."}, {"lat": 1.14286, "lng": 41.39225, "price": 1.168, "name": "PETRO7 - PETROLIS INDEPEN"}, {"lat": -1.00131, "lng": 41.70189, "price": 1.169, "name": "ALCAMPO"}, {"lat": 2.03294, "lng": 41.58156, "price": 1.169, "name": "PETRO VALLES"}, {"lat": -0.93603, "lng": 41.64408, "price": 1.169, "name": "ALCAMPO"}, {"lat": 2.11378, "lng": 41.36611, "price": 1.169, "name": "SARAS"}, {"lat": 0.47517, "lng": 40.48378, "price": 1.169, "name": "SIMPLY"}, {"lat": 2.01703, "lng": 41.57619, "price": 1.169, "name": "PETRONIEVES, S.L."}, {"lat": -3.53208, "lng": 40.25644, "price": 1.169, "name": "REPSOL"}, {"lat": 0.65806, "lng": 41.74983, "price": 1.173, "name": "COOPERATIVA SANT ROC"}, {"lat": 2.22761, "lng": 41.42936, "price": 1.175, "name": "GALP"}, {"lat": 2.22856, "lng": 41.42781, "price": 1.175, "name": "ALCAMPO"}, {"lat": -2.61811, "lng": 43.17189, "price": 1.175, "name": "EROSKI"}, {"lat": -2.62033, "lng": 43.16494, "price": 1.175, "name": "SIMPLY"}, {"lat": 2.19308, "lng": 41.39739, "price": 1.176, "name": "EVOLUTION"}, {"lat": -0.78811, "lng": 37.84236, "price": 1.178, "name": "CAMPSA EXPRESS"}, {"lat": -6.46453, "lng": 42.04297, "price": 1.179, "name": "E.S. EL PINO"}, {"lat": -8.20719, "lng": 43.49067, "price": 1.179, "name": "ALCAMPO FERROL"}, {"lat": 2.51708, "lng": 41.87122, "price": 1.179, "name": "E.S.GUILLERIES,S.L."}, {"lat": -6.34522, "lng": 42.94483, "price": 1.179, "name": "VILLAGER"}, {"lat": -3.62133, "lng": 37.15183, "price": 1.179, "name": "ASC SAN CRISTOBAL"}, {"lat": -0.98111, "lng": 41.65144, "price": 1.179, "name": "EROSKI"}, {"lat": 2.09097, "lng": 41.52864, "price": 1.179, "name": "ALCAMPO"}, {"lat": 2.10806, "lng": 41.80406, "price": 1.179, "name": "SERVIAUTO ECOLOGIC"}, {"lat": -2.29114, "lng": 43.17808, "price": 1.18, "name": "URKIDE"}, {"lat": -3.32883, "lng": 40.50511, "price": 1.18, "name": "ALCAMPO"}, {"lat": -3.61108, "lng": 37.19822, "price": 1.181, "name": "ALCAMPO"}, {"lat": 2.95875, "lng": 42.07069, "price": 1.181, "name": "ENCO SANT JORDI"}, {"lat": -2.46786, "lng": 42.45353, "price": 1.182, "name": "ALCAMPO"}, {"lat": -5.58675, "lng": 40.89417, "price": 1.183, "name": "EL TREBOL"}, {"lat": -2.47922, "lng": 41.76636, "price": 1.184, "name": "CEPSA"}, {"lat": -5.65683, "lng": 40.94736, "price": 1.184, "name": "CEPSA"}, {"lat": 2.23842, "lng": 41.43689, "price": 1.185, "name": "EVOLUTION"}, {"lat": 2.10872, "lng": 41.35464, "price": 1.188, "name": "OILPRIX"}, {"lat": -1.22883, "lng": 38.05403, "price": 1.188, "name": "E L   P U E N T E,  S.L."}, {"lat": -4.90769, "lng": 41.30039, "price": 1.188, "name": "SARAS ENERGIA"}, {"lat": -3.36381, "lng": 38.01628, "price": 1.188, "name": "E.S. SAN MIGUEL LOW COST"}, {"lat": -1.21889, "lng": 38.06333, "price": 1.188, "name": "EROSKI"}, {"lat": -1.22833, "lng": 38.05469, "price": 1.188, "name": "E L   P U E N T E,  S.L."}, {"lat": -4.84539, "lng": 36.88486, "price": 1.188, "name": "AGLA"}, {"lat": -6.15781, "lng": 36.69497, "price": 1.189, "name": "ALCAMPO"}, {"lat": -3.63681, "lng": 40.53519, "price": 1.189, "name": "ALCAMPO"}, {"lat": 1.88547, "lng": 41.39047, "price": 1.189, "name": "PETRONIEVES, S.L."}, {"lat": -5.55567, "lng": 42.58592, "price": 1.189, "name": "CARREFOUR"}, {"lat": -0.819, "lng": 37.81692, "price": 1.189, "name": "RHR"}, {"lat": -5.55652, "lng": 42.60825, "price": 1.189, "name": "GASOLINERAS PECAFER S.L."}, {"lat": 3.12594, "lng": 42.11308, "price": 1.189, "name": "EMPURIES OILS"}, {"lat": -0.06539, "lng": 39.97947, "price": 1.189, "name": "ALCAMPO"}, {"lat": -3.69894, "lng": 43.44667, "price": 1.189, "name": "AVIA"}, {"lat": -0.28197, "lng": 39.65669, "price": 1.189, "name": "CARBURANTES SAGUNTO"}, {"lat": 0.56669, "lng": 40.70336, "price": 1.189, "name": "AMPOSTA-OIL CARBURANTS"}, {"lat": -0.54322, "lng": 39.58939, "price": 1.189, "name": "S2"}, {"lat": -0.87994, "lng": 37.85247, "price": 1.189, "name": "EL PORRAS"}, {"lat": 2.9835, "lng": 42.13111, "price": 1.189, "name": "EMPURIES OILS"}, {"lat": 0.51721, "lng": 41.57575, "price": 1.189, "name": "COOPERATIVA D'ALCARR\u00c0S"}, {"lat": -3.46886, "lng": 41.33231, "price": 1.189, "name": "BUQUERIN"}, {"lat": -3.96672, "lng": 39.67694, "price": 1.189, "name": "PETROLEOS MARTIN CORPORAT"}, {"lat": -4.42708, "lng": 40.49781, "price": 1.189, "name": "LIBRE"}, {"lat": -3.38389, "lng": 41.41747, "price": 1.189, "name": "BUQUERIN"}, {"lat": -3.48514, "lng": 41.27692, "price": 1.189, "name": "BUQUERIN"}, {"lat": 2.09633, "lng": 41.53636, "price": 1.189, "name": "COBASA L-M: 06:00-23:00;"}, {"lat": -8.15506, "lng": 43.43942, "price": 1.189, "name": "E.S. LARAXE"}, {"lat": 2.06592, "lng": 41.36764, "price": 1.189, "name": "GALP"}, {"lat": -0.388, "lng": 39.41044, "price": 1.189, "name": "COOP.+SAN+PEDRO"}, {"lat": -4.60619, "lng": 43.16708, "price": 1.189, "name": "ESTACION DE SERVICIO LIEB"}, {"lat": -0.42539, "lng": 42.12878, "price": 1.189, "name": "SIMPLY"}, {"lat": -4.049, "lng": 43.13139, "price": 1.19, "name": "PETRONOR"}, {"lat": -3.92817, "lng": 42.37986, "price": 1.19, "name": "E.S.SAIZ"}, {"lat": -1.63429, "lng": 42.7852, "price": 1.19, "name": "E.LECLERC"}, {"lat": -4.59875, "lng": 41.34514, "price": 1.193, "name": "E.S.PEDRAJAS"}, {"lat": 1.07128, "lng": 41.16294, "price": 1.193, "name": "ENTREAUTO"}, {"lat": -5.57397, "lng": 42.58222, "price": 1.195, "name": "PASO HONROSO"}, {"lat": -0.45967, "lng": 39.21736, "price": 1.195, "name": "ALGECOM"}, {"lat": -5.59886, "lng": 41.98839, "price": 1.195, "name": "PASO HONROSO"}, {"lat": -6.39101, "lng": 38.68738, "price": 1.195, "name": "E. S. SAN ISIDRO"}, {"lat": -0.46097, "lng": 39.26122, "price": 1.195, "name": "PETROLEOS CN-340"}, {"lat": -5.60406, "lng": 42.60769, "price": 1.195, "name": "PASO HONROSO"}, {"lat": -4.50442, "lng": 41.36828, "price": 1.195, "name": "REPOSTAR"}, {"lat": -5.59792, "lng": 42.61422, "price": 1.195, "name": "PASO HONROSO"}, {"lat": 1.61375, "lng": 41.576, "price": 1.196, "name": "PETROMIRALLES"}, {"lat": -1.21775, "lng": 38.07947, "price": 1.196, "name": "LA CANADA"}, {"lat": 2.06189, "lng": 41.36764, "price": 1.197, "name": "OIL PRIX"}, {"lat": -1.7875, "lng": 42.38778, "price": 1.197, "name": "AN ENERGETICOS FALCES"}, {"lat": -3.69194, "lng": 41.67706, "price": 1.197, "name": "SIMPLY"}, {"lat": -3.58256, "lng": 40.44494, "price": 1.197, "name": "SHELL"}, {"lat": 2.03811, "lng": 41.50567, "price": 1.198, "name": "JULIA-OIL (FINA)"}, {"lat": -0.40181, "lng": 39.40792, "price": 1.198, "name": "BIOMAR OIL"}, {"lat": 1.858, "lng": 41.74475, "price": 1.198, "name": "SARAS"}, {"lat": -1.27481, "lng": 41.59475, "price": 1.198, "name": "E.S.EPILA"}, {"lat": -6.29947, "lng": 37.29247, "price": 1.198, "name": "LOS VENTOLINES (AGLA)"}, {"lat": -5.64011, "lng": 41.79978, "price": 1.199, "name": "REPOSTAR GOMEZ OSORIO"}, {"lat": -6.14517, "lng": 36.67022, "price": 1.199, "name": "TAMOIL"}, {"lat": -3.63267, "lng": 37.19561, "price": 1.199, "name": "TAMOIL"}, {"lat": -6.99103, "lng": 37.27394, "price": 1.199, "name": "TAMOIL"}, {"lat": -3.78292, "lng": 37.78767, "price": 1.199, "name": "TAMOIL"}, {"lat": -5.67275, "lng": 40.95581, "price": 1.199, "name": "EL TREBOL"}, {"lat": -6.64025, "lng": 42.08142, "price": 1.199, "name": "REPOSTAR,  ANTONIO  DEL E"}, {"lat": -5.87753, "lng": 40.77747, "price": 1.199, "name": "EL TREBOL"}, {"lat": -2.79992, "lng": 36.72092, "price": 1.199, "name": "BAHIA DE ALMERIMAR"}, {"lat": -0.51428, "lng": 39.228, "price": 1.199, "name": "GALP"}, {"lat": -0.52911, "lng": 39.23472, "price": 1.199, "name": "GALP"}, {"lat": -1.179, "lng": 37.939, "price": 1.199, "name": "MEROIL, S.A."}, {"lat": -3.60536, "lng": 40.02628, "price": 1.199, "name": "CEPSA"}, {"lat": -3.85375, "lng": 43.44644, "price": 1.199, "name": "CARREFOUR"}, {"lat": -3.86336, "lng": 43.45631, "price": 1.199, "name": "CARREFOUR"}, {"lat": -3.85692, "lng": 43.45708, "price": 1.199, "name": "GALP"}, {"lat": -4.40783, "lng": 43.38836, "price": 1.199, "name": "E.S.SOLBAS"}, {"lat": -4.06467, "lng": 43.24879, "price": 1.199, "name": "E.S. MARJA"}, {"lat": -4.49662, "lng": 43.37482, "price": 1.199, "name": "COMBUSCAN"}, {"lat": 1.922, "lng": 42.42306, "price": 1.199, "name": "MEROIL"}, {"lat": 1.78944, "lng": 41.76964, "price": 1.199, "name": "TAMOIL"}, {"lat": -0.84878, "lng": 38.08981, "price": 1.199, "name": "REVISOIL"}, {"lat": -0.77519, "lng": 38.13128, "price": 1.199, "name": "MAYAYO"}, {"lat": -8.16656, "lng": 43.45089, "price": 1.199, "name": "ORTEGAL OIL"}, {"lat": -8.16897, "lng": 43.40683, "price": 1.199, "name": "COMBUSTIBLES RIO EUME"}, {"lat": -4.07386, "lng": 43.26858, "price": 1.199, "name": "E.S. SOMAHOZ"}, {"lat": 2.12889, "lng": 41.43031, "price": 1.199, "name": "OIL PRIX"}, {"lat": 2.083, "lng": 41.37233, "price": 1.199, "name": "OIL PRIX"}, {"lat": 2.08083, "lng": 41.35381, "price": 1.199, "name": "OIL PRIX"}, {"lat": 1.39314, "lng": 41.53872, "price": 1.199, "name": "QOIL"}, {"lat": -0.02864, "lng": 40.00072, "price": 1.199, "name": "LOW COST GAS"}, {"lat": 2.02314, "lng": 41.58047, "price": 1.199, "name": "OCTOPO"}, {"lat": -6.14014, "lng": 36.43111, "price": 1.199, "name": "EASYFUEL"}, {"lat": -0.72258, "lng": 38.05044, "price": 1.199, "name": "QUESADAGAS"}, {"lat": -0.51281, "lng": 39.228, "price": 1.199, "name": "COOPCARLET"}, {"lat": -3.65567, "lng": 40.10461, "price": 1.199, "name": "E.S. SESENA"}, {"lat": -3.65453, "lng": 40.39381, "price": 1.199, "name": "ALCAMPO"}, {"lat": 2.38457, "lng": 41.51236, "price": 1.199, "name": "BENZINERA   38"}, {"lat": -3.58258, "lng": 40.5905, "price": 1.199, "name": "SETOR"}, {"lat": -2.74822, "lng": 36.75742, "price": 1.199, "name": "ES NORIAS"}, {"lat": -2.82856, "lng": 36.76831, "price": 1.199, "name": "EJIDO OESTE"}, {"lat": -2.86331, "lng": 36.75967, "price": 1.199, "name": "LA TARAMBANA"}, {"lat": 2.02792, "lng": 41.53744, "price": 1.199, "name": "CAMPSA EXPRESS"}, {"lat": -3.48069, "lng": 40.4735, "price": 1.199, "name": "ALCAMPO"}, {"lat": -0.78764, "lng": 37.84333, "price": 1.199, "name": "HERMANOS NAVARRO"}, {"lat": -3.93992, "lng": 37.52106, "price": 1.2, "name": "AGLA"}, {"lat": -0.77119, "lng": 38.698, "price": 1.2, "name": "ESTACIONES DE SERVICIO DI"}, {"lat": -0.32628, "lng": 39.14433, "price": 1.2, "name": "PETROMAR"}, {"lat": -3.93711, "lng": 38.99233, "price": 1.2, "name": "E.LECLERC"}, {"lat": -1.88628, "lng": 39.02178, "price": 1.2, "name": "AB OIL"}, {"lat": -3.24769, "lng": 40.56981, "price": 1.2, "name": "EROSKI"}, {"lat": -2.47114, "lng": 41.76139, "price": 1.2, "name": "REPSOL"}, {"lat": 0.71775, "lng": 41.62561, "price": 1.201, "name": "CEPSA"}, {"lat": -2.41739, "lng": 42.46239, "price": 1.202, "name": "EROSKI"}, {"lat": -5.74742, "lng": 41.51603, "price": 1.203, "name": "EROSKI"}, {"lat": -3.60336, "lng": 37.12903, "price": 1.205, "name": "E.S. OGICANAS"}, {"lat": -2.78744, "lng": 36.78217, "price": 1.207, "name": "BP-COOP STA Ma AGUILA-EL"}, {"lat": -3.68444, "lng": 41.68681, "price": 1.207, "name": "SARAS ENERGIA"}, {"lat": -0.26536, "lng": 39.67833, "price": 1.207, "name": "OCTAPLUS"}, {"lat": -2.968, "lng": 43.138, "price": 1.208, "name": "EROSKI"}, {"lat": -8.23742, "lng": 43.28122, "price": 1.209, "name": "E.S. CORTINAN"}, {"lat": 2.0655, "lng": 41.35756, "price": 1.209, "name": "SOLANAS"}, {"lat": -0.18058, "lng": 39.84144, "price": 1.209, "name": "GALP"}, {"lat": 2.04208, "lng": 41.48492, "price": 1.209, "name": "JULIA-OIL"}, {"lat": -2.42117, "lng": 41.16897, "price": 1.209, "name": "REPSOL"}, {"lat": -3.66039, "lng": 37.13736, "price": 1.209, "name": "LAS GABIAS"}, {"lat": -1.09864, "lng": 38.01678, "price": 1.209, "name": "JUAN LECHUGA S.A."}, {"lat": -3.70714, "lng": 41.67025, "price": 1.209, "name": "DACAR"}, {"lat": -5.07961, "lng": 40.209, "price": 1.209, "name": "FERNANDEZ BERMEJO"}, {"lat": -5.04408, "lng": 40.18292, "price": 1.209, "name": "FERNANDEZ BERMEJO"}, {"lat": -1.11181, "lng": 37.97983, "price": 1.209, "name": "EROSKI"}, {"lat": -1.79789, "lng": 42.11461, "price": 1.209, "name": "SERTELGAS,SL"}, {"lat": -4.01122, "lng": 43.41383, "price": 1.209, "name": "EL CENTRO"}, {"lat": -4.09717, "lng": 36.74017, "price": 1.209, "name": "TORRE DEL MAR"}, {"lat": -3.46736, "lng": 40.45486, "price": 1.209, "name": "PETROKAL"}, {"lat": -1.62786, "lng": 42.80403, "price": 1.209, "name": "ARALAR"}, {"lat": -4.01792, "lng": 39.90242, "price": 1.209, "name": "ALCAMPO"}, {"lat": -4.18789, "lng": 41.2215, "price": 1.209, "name": "ANDRES TEJEDOR E HIJOS"}, {"lat": -0.42528, "lng": 42.14806, "price": 1.209, "name": "EROSKI"}, {"lat": -6.3775, "lng": 38.79361, "price": 1.209, "name": "MORENO"}, {"lat": -4.05292, "lng": 43.26664, "price": 1.21, "name": "AREA DE SERVICIO LA AGUER"}, {"lat": -0.71842, "lng": 38.27781, "price": 1.21, "name": "GASOLINERA D'ELX"}, {"lat": -1.87811, "lng": 39.00964, "price": 1.21, "name": "ALCAMPO"}, {"lat": -3.35769, "lng": 36.73147, "price": 1.21, "name": "EESS GASOLEOS FERRER S.L"}, {"lat": 2.05019, "lng": 41.34581, "price": 1.21, "name": "E.S.OASIS"}, {"lat": -3.9145, "lng": 38.986, "price": 1.21, "name": "EROSKI"}, {"lat": 2.00686, "lng": 41.40031, "price": 1.21, "name": "LLOBREGAT"}, {"lat": -0.72192, "lng": 38.26322, "price": 1.21, "name": "EROSKI"}, {"lat": -3.709, "lng": 43.45633, "price": 1.21, "name": "E.S. TRINIDAD"}, {"lat": 2.07284, "lng": 41.37464, "price": 1.211, "name": "3 PUNT TRES"}, {"lat": -3.45806, "lng": 40.45203, "price": 1.212, "name": "SHELL"}, {"lat": 0.20686, "lng": 41.82942, "price": 1.212, "name": "CENTRO DE SERVICIOS AGRIC"}, {"lat": -1.07572, "lng": 39.13831, "price": 1.212, "name": "E.S. JARAFUEL"}, {"lat": -1.57278, "lng": 43.14003, "price": 1.212, "name": "NAFAR MENDI"}, {"lat": -1.88303, "lng": 43.30272, "price": 1.213, "name": "ALCAMPO"}, {"lat": -1.83472, "lng": 43.32258, "price": 1.213, "name": "ALCAMPO IRUN"}, {"lat": 2.28203, "lng": 41.69425, "price": 1.213, "name": "ELS TREMOLENCS"}, {"lat": -0.48483, "lng": 39.47072, "price": 1.213, "name": "ALCAMPO, S.A."}, {"lat": -4.65944, "lng": 37.57606, "price": 1.214, "name": "EROSKI"}, {"lat": 2.23469, "lng": 41.44061, "price": 1.214, "name": "KANGUROIL"}, {"lat": 0.48881, "lng": 41.55164, "price": 1.214, "name": "RED AHORRO"}, {"lat": -1.14453, "lng": 42.12681, "price": 1.214, "name": "CEPSA"}, {"lat": -1.12792, "lng": 42.13064, "price": 1.214, "name": "SIMPLY"}, {"lat": -3.76897, "lng": 37.78219, "price": 1.214, "name": "CARREFOUR"}, {"lat": -3.579, "lng": 40.60869, "price": 1.215, "name": "GALP"}, {"lat": 1.51367, "lng": 41.72972, "price": 1.217, "name": "(SIN ROTULO)"}, {"lat": -3.59414, "lng": 41.09712, "price": 1.217, "name": "Q8"}, {"lat": -5.59025, "lng": 42.58508, "price": 1.217, "name": "SHELL"}, {"lat": -2.86344, "lng": 36.81125, "price": 1.218, "name": "TRUCK STOP DALIAS"}, {"lat": -4.90986, "lng": 39.92383, "price": 1.218, "name": "C. ORTIZ"}, {"lat": 1.96908, "lng": 41.45261, "price": 1.218, "name": "SARAS ENERGIA"}, {"lat": -3.12489, "lng": 43.20989, "price": 1.218, "name": "EROSKI"}, {"lat": -2.02219, "lng": 43.27689, "price": 1.218, "name": "EROSKI"}, {"lat": 2.25017, "lng": 41.55369, "price": 1.218, "name": "CAMPSA EXPRESS"}, {"lat": -0.43956, "lng": 38.952, "price": 1.218, "name": "CAMPSA EXPRESS"}, {"lat": -4.69864, "lng": 41.04375, "price": 1.218, "name": "REPSOL"}, {"lat": -2.93036, "lng": 36.83439, "price": 1.218, "name": "TRUCKSTOP"}, {"lat": -5.535, "lng": 38.71633, "price": 1.219, "name": "CEPSA"}, {"lat": -5.62267, "lng": 40.93022, "price": 1.219, "name": "GALP"}, {"lat": -1.27347, "lng": 38.11944, "price": 1.219, "name": "HLH"}, {"lat": -0.58844, "lng": 39.62181, "price": 1.219, "name": "EDETAGAS"}, {"lat": -1.43439, "lng": 38.07181, "price": 1.219, "name": "GALP"}, {"lat": -3.38817, "lng": 38.77914, "price": 1.219, "name": "SIMPLY"}, {"lat": -5.13389, "lng": 40.35975, "price": 1.219, "name": "E.S GREDOS"}, {"lat": -4.49358, "lng": 40.40967, "price": 1.219, "name": "SARAS"}, {"lat": -5.90306, "lng": 42.30556, "price": 1.219, "name": "EROSKI"}, {"lat": 2.22972, "lng": 41.79722, "price": 1.219, "name": "SANT ANTONI"}, {"lat": -3.76019, "lng": 40.65453, "price": 1.219, "name": "GALP"}, {"lat": -3.59114, "lng": 40.03847, "price": 1.219, "name": "EMBOCADOR"}, {"lat": -7.81239, "lng": 42.34497, "price": 1.219, "name": "J.L E HIJOS"}, {"lat": -0.78261, "lng": 38.46286, "price": 1.219, "name": "LOW COST  PETRER-ELDA"}, {"lat": -0.41928, "lng": 39.39603, "price": 1.219, "name": "E.S.+AGRICOLA+S.C.J.+DE+A"}, {"lat": 2.035, "lng": 41.57994, "price": 1.219, "name": "CARREFOUR"}, {"lat": 2.38111, "lng": 41.51158, "price": 1.219, "name": "MEROIL"}, {"lat": -4.06928, "lng": 43.31447, "price": 1.219, "name": "MEROIL"}, {"lat": -3.96758, "lng": 43.32817, "price": 1.219, "name": "MEROIL"}, {"lat": -4.04286, "lng": 43.36967, "price": 1.219, "name": "MEROIL"}, {"lat": -3.75717, "lng": 40.65872, "price": 1.219, "name": "ALCAMPO"}, {"lat": -3.83764, "lng": 37.19342, "price": 1.219, "name": "PETROBEB PROMOCIONES"}, {"lat": 2.67456, "lng": 41.62456, "price": 1.219, "name": "ESSER"}, {"lat": -2.92067, "lng": 42.69292, "price": 1.219, "name": "EESS ROMPETROL"}, {"lat": -5.15319, "lng": 36.75436, "price": 1.219, "name": "MEROIL"}, {"lat": -0.15042, "lng": 39.85239, "price": 1.219, "name": "COOPERATIVA SANT JOSEP"}, {"lat": -5.75583, "lng": 41.79833, "price": 1.219, "name": "VALCARCE"}, {"lat": 3.16697, "lng": 41.95139, "price": 1.219, "name": "REGENCOS OIL"}, {"lat": -0.967, "lng": 41.56167, "price": 1.219, "name": "MG"}, {"lat": -0.05633, "lng": 40.00475, "price": 1.219, "name": "BENCINAS MESTRETS"}, {"lat": 2.7785, "lng": 42.10908, "price": 1.219, "name": "POSTE DE MATA"}, {"lat": -4.63361, "lng": 36.535, "price": 1.219, "name": "EROSKI"}, {"lat": -5.53142, "lng": 36.06722, "price": 1.219, "name": "E.S. SALADILLO"}, {"lat": -3.61722, "lng": 41.03497, "price": 1.219, "name": "CEPSA"}, {"lat": -4.63414, "lng": 36.53439, "price": 1.219, "name": "AGLA PETROLEROS MIJAS"}, {"lat": -0.78706, "lng": 37.82272, "price": 1.219, "name": "GASPAGAN"}, {"lat": -8.17011, "lng": 43.44994, "price": 1.219, "name": "ORTEGAL OIL"}, {"lat": 2.19308, "lng": 41.40464, "price": 1.219, "name": "SHELL GLORIAS"}, {"lat": 2.20825, "lng": 41.39903, "price": 1.219, "name": "SHELL VILLA OLIMPICA"}, {"lat": 2.23594, "lng": 41.82125, "price": 1.22, "name": "ESTACIO DE SERVEIS BALENY"}, {"lat": 0.82992, "lng": 41.78558, "price": 1.22, "name": "CAMPSA EXPRESS"}, {"lat": -0.4695, "lng": 39.58289, "price": 1.222, "name": "E.S. SHELL BETERA"}, {"lat": -0.46886, "lng": 39.58483, "price": 1.222, "name": "CEPSA"}, {"lat": -4.07967, "lng": 42.15908, "price": 1.223, "name": "RED AHORRO"}, {"lat": -3.62044, "lng": 39.90444, "price": 1.223, "name": "REPSOL"}, {"lat": -0.96453, "lng": 37.59858, "price": 1.224, "name": "RED AHORRO"}, {"lat": -1.63028, "lng": 41.35308, "price": 1.224, "name": "SARAS"}, {"lat": -3.46506, "lng": 40.45911, "price": 1.224, "name": "CEPSA"}, {"lat": -0.73628, "lng": 37.93044, "price": 1.224, "name": "ALCAMPO"}, {"lat": -1.67578, "lng": 42.51447, "price": 1.225, "name": "AVIA"}, {"lat": -3.85239, "lng": 40.34864, "price": 1.225, "name": "ALCAMPO"}, {"lat": 0.13544, "lng": 41.12525, "price": 1.225, "name": "E.S.MAELLA"}, {"lat": -2.98736, "lng": 43.38258, "price": 1.225, "name": "GALP"}, {"lat": -2.98847, "lng": 43.38222, "price": 1.225, "name": "GALP"}, {"lat": -2.99439, "lng": 43.34039, "price": 1.225, "name": "EROSKI"}, {"lat": -3.83042, "lng": 40.30192, "price": 1.225, "name": "ALCAMPO FUENLABRADA"}, {"lat": -0.44719, "lng": 39.48019, "price": 1.225, "name": "COAR QUART DE POBLET"}, {"lat": -0.16225, "lng": 38.53364, "price": 1.226, "name": "GALP"}, {"lat": -2.15147, "lng": 40.07822, "price": 1.226, "name": "C.C ALCAMPO"}, {"lat": -5.46239, "lng": 36.14306, "price": 1.226, "name": "EROSKI"}, {"lat": -0.51158, "lng": 39.1922, "price": 1.226, "name": "CANSO+CARBURANTS"}, {"lat": -4.51097, "lng": 41.99069, "price": 1.226, "name": "AVIA"}, {"lat": -4.49264, "lng": 36.64342, "price": 1.227, "name": "COLOSO"}, {"lat": -1.94389, "lng": 43.31119, "price": 1.227, "name": "EROSKI"}, {"lat": -3.95886, "lng": 39.86728, "price": 1.227, "name": "SHELL"}, {"lat": -3.62175, "lng": 40.55953, "price": 1.227, "name": "SERVICIOS Y LAVADOS DE S."}, {"lat": -3.84943, "lng": 42.97056, "price": 1.227, "name": "AVIA"}, {"lat": -3.66172, "lng": 40.3945, "price": 1.227, "name": "SPA360"}, {"lat": -1.92647, "lng": 41.85392, "price": 1.228, "name": "REPSOL"}, {"lat": -2.04456, "lng": 41.84089, "price": 1.228, "name": "REPSOL L: 7:00-23:00;"}, {"lat": -5.68789, "lng": 40.98958, "price": 1.228, "name": "REPSOL"}, {"lat": -5.66317, "lng": 40.97839, "price": 1.228, "name": "REPSOL"}, {"lat": -4.25531, "lng": 42.79364, "price": 1.228, "name": "REPSOL"}, {"lat": -2.40478, "lng": 41.76192, "price": 1.228, "name": "REPSOL"}, {"lat": -5.64639, "lng": 40.98825, "price": 1.228, "name": "REPSOL"}, {"lat": 1.86214, "lng": 41.75056, "price": 1.228, "name": "CARREFOUR"}, {"lat": -1.18331, "lng": 37.95264, "price": 1.228, "name": "CAMPSA EXPRESS"}, {"lat": -1.18422, "lng": 37.93664, "price": 1.228, "name": "CAMPSA EXPRESS"}, {"lat": 1.84011, "lng": 41.73381, "price": 1.228, "name": "REPSOL"}, {"lat": -5.34828, "lng": 36.19122, "price": 1.228, "name": "OCTANPLUS S.L. AGLA"}, {"lat": -2.92681, "lng": 40.41783, "price": 1.229, "name": "LOS ANGELES"}, {"lat": -3.80008, "lng": 43.48533, "price": 1.229, "name": "MEROIL"}, {"lat": 2.106, "lng": 41.35897, "price": 1.229, "name": "SHELL"}, {"lat": -5.96881, "lng": 37.32175, "price": 1.229, "name": "(SIN ROTULO)"}, {"lat": -6.69097, "lng": 39.42617, "price": 1.229, "name": "SARAS"}, {"lat": -7.20489, "lng": 37.243, "price": 1.229, "name": "SP"}, {"lat": -7.87828, "lng": 43.73181, "price": 1.229, "name": "ORTEGAL OIL"}, {"lat": -7.84675, "lng": 43.67806, "price": 1.229, "name": "ORTEGAL OIL"}, {"lat": -7.95369, "lng": 43.60358, "price": 1.229, "name": "ORTEGAL OIL"}, {"lat": -6.3485, "lng": 39.44281, "price": 1.229, "name": "GALP"}, {"lat": -6.29672, "lng": 39.46492, "price": 1.229, "name": "GALP"}, {"lat": -4.73375, "lng": 37.89917, "price": 1.229, "name": "AGLA"}, {"lat": -0.85983, "lng": 41.66742, "price": 1.229, "name": "CONFORT AUTO"}, {"lat": -7.84511, "lng": 43.65803, "price": 1.229, "name": "ORTEGAL OIL"}, {"lat": -3.75947, "lng": 40.66256, "price": 1.229, "name": "CLAXON"}, {"lat": -3.8435, "lng": 43.41222, "price": 1.229, "name": "G2"}, {"lat": -1.24578, "lng": 41.89364, "price": 1.229, "name": "LABOIL, S.L."}, {"lat": -1.21678, "lng": 37.95667, "price": 1.229, "name": "E.LECLERC HIPERMERCADO"}, {"lat": 2.14186, "lng": 41.35522, "price": 1.229, "name": "GALP"}, {"lat": 1.70353, "lng": 41.91189, "price": 1.229, "name": "VILALTA"}, {"lat": -0.05753, "lng": 39.99378, "price": 1.229, "name": "BENCINAS BORRIOL"}, {"lat": 1.10822, "lng": 41.14522, "price": 1.229, "name": "ALAS"}, {"lat": 1.59281, "lng": 41.27547, "price": 1.229, "name": "TAMOIL"}, {"lat": 2.26639, "lng": 41.92961, "price": 1.229, "name": "GADCAR"}, {"lat": -0.50428, "lng": 39.19889, "price": 1.229, "name": "E.S. EL SERRALLO"}, {"lat": -0.51683, "lng": 39.65986, "price": 1.229, "name": "LOW COST   ES J NUNEZ"}, {"lat": -2.97319, "lng": 43.31769, "price": 1.229, "name": "EROSKI"}, {"lat": -8.08508, "lng": 43.52714, "price": 1.229, "name": "GALP"}, {"lat": -7.91156, "lng": 43.65553, "price": 1.229, "name": "GALP"}, {"lat": -2.47811, "lng": 41.76142, "price": 1.229, "name": "CEPSA"}, {"lat": -2.47561, "lng": 41.78508, "price": 1.229, "name": "CEPSA"}, {"lat": -4.16017, "lng": 39.79206, "price": 1.229, "name": "BERMUDEZ"}, {"lat": -0.50914, "lng": 39.19031, "price": 1.229, "name": "E.S. LA FLORIDA"}, {"lat": -0.55942, "lng": 39.67372, "price": 1.229, "name": "PETROMAX"}, {"lat": -4.71872, "lng": 41.58708, "price": 1.229, "name": "REPOSTAR--LAGUNA DE DUERO"}, {"lat": -5.92486, "lng": 42.77778, "price": 1.229, "name": "CEPSA"}, {"lat": -3.62519, "lng": 40.39097, "price": 1.229, "name": "CERRO DE LA CABANA"}, {"lat": -3.62508, "lng": 40.39217, "price": 1.229, "name": "CERRO DE LA CABANA"}, {"lat": -3.97297, "lng": 39.86294, "price": 1.229, "name": "EROSKI"}, {"lat": -4.03958, "lng": 38.03936, "price": 1.229, "name": "SARAS"}, {"lat": -3.36447, "lng": 36.93014, "price": 1.23, "name": "E.S MIRADOR DE POQUEIRA"}, {"lat": -1.84736, "lng": 38.98897, "price": 1.23, "name": "EROSKI"}, {"lat": 2.48797, "lng": 41.55222, "price": 1.23, "name": "PETROLIS MIRAMAR"}, {"lat": -1.67764, "lng": 42.83239, "price": 1.23, "name": "EROSKI"}, {"lat": -1.69739, "lng": 42.82175, "price": 1.23, "name": "AVIA"}, {"lat": -2.68631, "lng": 43.26528, "price": 1.23, "name": "SHELL"}, {"lat": -3.58842, "lng": 43.3905, "price": 1.23, "name": "CAMPIEZO -AVIA"}, {"lat": 0.55933, "lng": 41.57947, "price": 1.232, "name": "SHELL"}, {"lat": -5.56378, "lng": 42.62239, "price": 1.232, "name": "SHELL"}, {"lat": 0.5365, "lng": 41.56872, "price": 1.232, "name": "SARAS"}, {"lat": -4.09842, "lng": 40.96592, "price": 1.233, "name": "SARAS ENERGIA"}, {"lat": -7.40097, "lng": 37.21425, "price": 1.233, "name": "GALP"}, {"lat": -3.83694, "lng": 43.42889, "price": 1.234, "name": "EROSKI"}, {"lat": -3.62128, "lng": 37.15322, "price": 1.234, "name": "CEPSA"}, {"lat": -5.67147, "lng": 42.00239, "price": 1.234, "name": "CEPSA"}, {"lat": -4.52839, "lng": 42.02078, "price": 1.234, "name": "CEPSA"}, {"lat": -0.73433, "lng": 38.25869, "price": 1.234, "name": "RED AHORRO"}, {"lat": -1.23383, "lng": 41.54042, "price": 1.234, "name": "RED AHORRO"}, {"lat": -3.84186, "lng": 43.42575, "price": 1.234, "name": "SHELL"}, {"lat": -2.58461, "lng": 43.16661, "price": 1.234, "name": "CEPSA"}, {"lat": -3.46661, "lng": 40.45839, "price": 1.234, "name": "GALP"}, {"lat": 2.67864, "lng": 39.55908, "price": 1.234, "name": "GALP"}, {"lat": 2.05111, "lng": 41.39406, "price": 1.235, "name": "SERVICIOS PETROLIFEROS"}, {"lat": -2.25878, "lng": 43.18967, "price": 1.235, "name": "AVIA"}, {"lat": -5.69117, "lng": 43.51156, "price": 1.235, "name": "ALCAMPO"}, {"lat": -3.79722, "lng": 40.28425, "price": 1.235, "name": "CEPSA"}, {"lat": -2.61194, "lng": 36.77611, "price": 1.235, "name": "EROSKI"}, {"lat": -4.76808, "lng": 41.66181, "price": 1.235, "name": "REPOSTAR--ZARATAN"}, {"lat": -2.49397, "lng": 41.77044, "price": 1.235, "name": "CEPSA"}, {"lat": -6.59614, "lng": 40.02383, "price": 1.235, "name": "GALP"}, {"lat": -6.13433, "lng": 36.65178, "price": 1.235, "name": "A3.81"}, {"lat": -2.65357, "lng": 36.79947, "price": 1.235, "name": "CONSUMOMAR"}, {"lat": -5.54208, "lng": 42.67308, "price": 1.236, "name": "VALCARCE"}, {"lat": -1.23681, "lng": 39.72383, "price": 1.236, "name": "MANCEBO L: 07:00-21:00;"}, {"lat": -0.32447, "lng": 39.50453, "price": 1.236, "name": "ALCAMPO S.A."}, {"lat": -2.11106, "lng": 38.35656, "price": 1.237, "name": "E.S. SIERRA DEL SEGURA"}, {"lat": -3.80103, "lng": 40.34203, "price": 1.237, "name": "REPSOL"}, {"lat": -3.72569, "lng": 40.32928, "price": 1.237, "name": "REPSOL"}, {"lat": -5.62739, "lng": 40.93303, "price": 1.237, "name": "SHELL"}, {"lat": -3.8115, "lng": 40.33631, "price": 1.237, "name": "SHELL"}, {"lat": 1.02225, "lng": 41.06294, "price": 1.237, "name": "SHELL"}, {"lat": -3.89231, "lng": 40.16542, "price": 1.237, "name": "HENERGY"}, {"lat": -3.69247, "lng": 40.26464, "price": 1.237, "name": "SHELL M50 365"}, {"lat": -4.15453, "lng": 42.86725, "price": 1.238, "name": "REPSOL"}, {"lat": -5.55803, "lng": 42.60303, "price": 1.238, "name": "REPSOL"}, {"lat": -2.96147, "lng": 42.68633, "price": 1.238, "name": "AVIA VIA NORTE"}, {"lat": -4.73769, "lng": 42.80306, "price": 1.238, "name": "REPSOL"}, {"lat": -4.60492, "lng": 42.24086, "price": 1.238, "name": "REPSOL"}, {"lat": -5.88856, "lng": 42.38297, "price": 1.238, "name": "REPSOL"}, {"lat": -5.96592, "lng": 42.44767, "price": 1.238, "name": "REPSOL"}, {"lat": -4.33303, "lng": 40.59517, "price": 1.238, "name": "REPSOL"}, {"lat": -5.548, "lng": 42.62642, "price": 1.238, "name": "REPSOL"}, {"lat": -4.97867, "lng": 42.78297, "price": 1.238, "name": "PETRONOR"}, {"lat": -5.54967, "lng": 42.62217, "price": 1.238, "name": "REPSOL"}, {"lat": -5.57919, "lng": 42.60467, "price": 1.238, "name": "REPSOL"}, {"lat": -3.64794, "lng": 42.34458, "price": 1.238, "name": "REPSOL"}, {"lat": -3.62214, "lng": 42.36411, "price": 1.238, "name": "REPSOL"}, {"lat": -2.95294, "lng": 42.68831, "price": 1.238, "name": "REPSOL"}, {"lat": -2.95275, "lng": 42.68883, "price": 1.238, "name": "REPSOL"}, {"lat": -3.29225, "lng": 42.02358, "price": 1.238, "name": "REPSOL"}, {"lat": -5.62819, "lng": 42.79214, "price": 1.238, "name": "CAMPSA"}, {"lat": -5.73942, "lng": 42.35203, "price": 1.238, "name": "REPSOL"}, {"lat": -2.70094, "lng": 36.71447, "price": 1.238, "name": "AGLA"}, {"lat": -2.661, "lng": 36.73769, "price": 1.238, "name": "AGLA"}, {"lat": -4.73606, "lng": 42.51842, "price": 1.238, "name": "REPSOL"}, {"lat": -4.84839, "lng": 42.79864, "price": 1.238, "name": "AVIA"}, {"lat": -5.67475, "lng": 40.955, "price": 1.238, "name": "CAMPSA"}, {"lat": -4.69233, "lng": 42.15678, "price": 1.238, "name": "REPSOL"}, {"lat": -5.27939, "lng": 40.83047, "price": 1.238, "name": "PETRONOR"}, {"lat": -5.72736, "lng": 40.95106, "price": 1.238, "name": "REPSOL"}, {"lat": -4.80483, "lng": 42.68614, "price": 1.238, "name": "REPSOL"}, {"lat": -4.26333, "lng": 41.11775, "price": 1.238, "name": "CAMPSA"}, {"lat": -5.65822, "lng": 40.97894, "price": 1.238, "name": "REPSOL"}, {"lat": -5.69944, "lng": 41.52742, "price": 1.238, "name": "REPSOL"}, {"lat": -4.10569, "lng": 40.94147, "price": 1.238, "name": "REPSOL"}, {"lat": -5.70692, "lng": 40.95533, "price": 1.238, "name": "CAMPSA"}, {"lat": -5.41228, "lng": 41.98742, "price": 1.238, "name": "REPSOL"}, {"lat": -5.69381, "lng": 40.95531, "price": 1.238, "name": "REPSOL"}, {"lat": 0.88694, "lng": 41.62753, "price": 1.238, "name": "PETROLIS"}, {"lat": -2.95136, "lng": 43.14864, "price": 1.238, "name": "PETRONOR"}, {"lat": 2.83086, "lng": 41.71356, "price": 1.238, "name": "ESSER"}, {"lat": 2.25403, "lng": 41.47153, "price": 1.238, "name": "SHELL"}, {"lat": 2.42614, "lng": 41.53439, "price": 1.239, "name": "RED AHORRO"}, {"lat": 2.44072, "lng": 41.53417, "price": 1.239, "name": "RED AHORRO"}, {"lat": -3.66261, "lng": 40.49764, "price": 1.239, "name": "CEPSA"}, {"lat": 0.47189, "lng": 40.53958, "price": 1.239, "name": "TAMOIL"}, {"lat": 1.11458, "lng": 41.15231, "price": 1.239, "name": "CEPSA"}, {"lat": 2.7555, "lng": 41.66775, "price": 1.239, "name": "GALP"}, {"lat": 2.16661, "lng": 41.46939, "price": 1.239, "name": "INURSA IZDA."}, {"lat": 2.16578, "lng": 41.47064, "price": 1.239, "name": "INURSA DCHA."}, {"lat": -3.85269, "lng": 43.42281, "price": 1.239, "name": "CEPSA"}, {"lat": -7.41478, "lng": 42.77242, "price": 1.239, "name": "CEPSA"}, {"lat": -0.80331, "lng": 38.16758, "price": 1.239, "name": "BRIOGAS"}, {"lat": -0.68011, "lng": 37.98469, "price": 1.239, "name": "GRUPO MARMESA"}, {"lat": 2.31006, "lng": 41.98456, "price": 1.239, "name": "FEIXAS AULET"}, {"lat": 2.31003, "lng": 41.98453, "price": 1.239, "name": "FEIXAS AULET"}, {"lat": 2.29608, "lng": 42.00425, "price": 1.239, "name": "FEIXAS AULET"}, {"lat": -3.94581, "lng": 43.40847, "price": 1.239, "name": "CEPSA"}, {"lat": -1.11308, "lng": 41.57944, "price": 1.239, "name": "E.S.LA MUELA"}, {"lat": -5.61028, "lng": 40.94975, "price": 1.239, "name": "REPSOL"}, {"lat": -4.72311, "lng": 41.60064, "price": 1.239, "name": "CEPSA"}, {"lat": -4.18839, "lng": 40.71347, "price": 1.239, "name": "GALP"}, {"lat": -5.72489, "lng": 42.54064, "price": 1.239, "name": "CEPSA"}, {"lat": -5.72514, "lng": 42.54183, "price": 1.239, "name": "CEPSA"}, {"lat": -5.95047, "lng": 41.821, "price": 1.239, "name": "CEPSA"}, {"lat": -4.6995, "lng": 41.53622, "price": 1.239, "name": "CEPSA"}, {"lat": -5.64483, "lng": 40.97406, "price": 1.239, "name": "CEPSA"}, {"lat": -6.43292, "lng": 41.01283, "price": 1.239, "name": "CEPSA"}, {"lat": -5.74158, "lng": 41.495, "price": 1.239, "name": "CEPSA-ELF"}, {"lat": -5.75528, "lng": 41.52106, "price": 1.239, "name": "CEPSA"}, {"lat": -5.43558, "lng": 42.52361, "price": 1.239, "name": "GALP"}, {"lat": -3.88636, "lng": 40.18206, "price": 1.239, "name": "GALP"}, {"lat": -3.82825, "lng": 39.73375, "price": 1.239, "name": "HERMANOS FERNANDEZ GARCIA"}, {"lat": -4.67431, "lng": 40.66203, "price": 1.239, "name": "CEPSA"}, {"lat": -5.75678, "lng": 42.52519, "price": 1.239, "name": "GALP"}, {"lat": -5.75642, "lng": 42.52486, "price": 1.239, "name": "GALP"}, {"lat": -4.75844, "lng": 40.63533, "price": 1.239, "name": "CEPSA"}, {"lat": -5.02422, "lng": 42.36911, "price": 1.239, "name": "CEPSA"}, {"lat": -4.46778, "lng": 40.45178, "price": 1.239, "name": "CEPSA"}, {"lat": -1.09828, "lng": 38.01664, "price": 1.239, "name": "JUAN LECHUGA S.A."}, {"lat": -1.04203, "lng": 38.03233, "price": 1.239, "name": "JUAN LECHUGA S.A."}, {"lat": -0.44836, "lng": 39.48103, "price": 1.239, "name": "CEPSA"}, {"lat": -0.47239, "lng": 39.43692, "price": 1.239, "name": "CEPSA"}, {"lat": -0.39892, "lng": 39.57194, "price": 1.239, "name": "CAMPOL"}, {"lat": -4.72369, "lng": 41.59464, "price": 1.239, "name": "SHELL"}, {"lat": -1.36269, "lng": 38.17753, "price": 1.239, "name": "CAMPER"}, {"lat": -7.19425, "lng": 37.24114, "price": 1.239, "name": "VIBE-CARBURANTES"}, {"lat": -0.95456, "lng": 38.11953, "price": 1.239, "name": "ORIGAS (MONTEPINAR)"}, {"lat": -3.89061, "lng": 43.46781, "price": 1.239, "name": "EXPOMARINA"}, {"lat": -1.15006, "lng": 38.04128, "price": 1.239, "name": "EROSKI"}, {"lat": -1.02158, "lng": 37.72042, "price": 1.239, "name": "TINACAR"}, {"lat": -1.28628, "lng": 40.44681, "price": 1.239, "name": "LA FUENSANTA"}, {"lat": -0.40731, "lng": 39.39233, "price": 1.239, "name": "CEPSA"}, {"lat": -1.41628, "lng": 38.03294, "price": 1.239, "name": "LOS LLANOS II"}, {"lat": -3.90631, "lng": 40.30211, "price": 1.239, "name": "REPSOL"}, {"lat": -6.67633, "lng": 40.173, "price": 1.239, "name": "IBERDOEX"}, {"lat": -1.23161, "lng": 38.10383, "price": 1.239, "name": "EURAGASA"}, {"lat": -3.39031, "lng": 38.78092, "price": 1.239, "name": "E.S LAGUNA"}, {"lat": -3.80319, "lng": 37.19236, "price": 1.239, "name": "HRC"}, {"lat": -1.2735, "lng": 38.08325, "price": 1.239, "name": "LOS TORRAOS"}, {"lat": -3.66947, "lng": 40.16597, "price": 1.239, "name": "REPSOL"}, {"lat": -3.834, "lng": 43.46692, "price": 1.239, "name": "CEPSA"}, {"lat": -4.71611, "lng": 36.74778, "price": 1.239, "name": "AGLA"}, {"lat": -5.69833, "lng": 40.96222, "price": 1.239, "name": "REPSOL"}, {"lat": 2.03189, "lng": 42.00928, "price": 1.24, "name": "ESTACIO SERVEI LLUCAN\u00c8S"}, {"lat": -4.69803, "lng": 40.64317, "price": 1.24, "name": "SIMPLY"}, {"lat": -1.61925, "lng": 42.83078, "price": 1.24, "name": "SIMPLY"}, {"lat": 2.96383, "lng": 42.25311, "price": 1.24, "name": "LA PLANTA 51"}, {"lat": -1.98125, "lng": 42.31258, "price": 1.24, "name": "EROSKI"}, {"lat": -4.58211, "lng": 40.45094, "price": 1.24, "name": "E.S.JUANJO-REPOSTAR"}, {"lat": -4.11125, "lng": 40.93778, "price": 1.24, "name": "CEPSA"}, {"lat": -1.97119, "lng": 42.30656, "price": 1.24, "name": "AVIA"}, {"lat": -4.21897, "lng": 40.12625, "price": 1.241, "name": "BP OIL"}, {"lat": -2.66114, "lng": 42.86528, "price": 1.242, "name": "SHELL"}, {"lat": -3.76433, "lng": 37.78042, "price": 1.242, "name": "SHELL"}, {"lat": -0.50544, "lng": 39.559, "price": 1.242, "name": "SHELL"}, {"lat": -4.50928, "lng": 41.99731, "price": 1.242, "name": "SHELL"}, {"lat": -3.70792, "lng": 40.37253, "price": 1.242, "name": "STAR PETROLEUM"}, {"lat": -3.69261, "lng": 42.37792, "price": 1.243, "name": "GALP"}, {"lat": -5.51553, "lng": 42.29669, "price": 1.243, "name": "SAENZ DE MIERA SL"}, {"lat": -2.07039, "lng": 37.64675, "price": 1.243, "name": "(SIN ROTULO)"}, {"lat": -1.19672, "lng": 37.93489, "price": 1.243, "name": "SHELL"}, {"lat": -0.78775, "lng": 38.46733, "price": 1.243, "name": "SHELL"}, {"lat": -4.87094, "lng": 36.51361, "price": 1.243, "name": "GALP"}, {"lat": -0.38858, "lng": 42.14053, "price": 1.244, "name": "CEPSA"}, {"lat": -0.16975, "lng": 38.53481, "price": 1.244, "name": "CEPSA"}, {"lat": -0.37383, "lng": 39.42478, "price": 1.244, "name": "CEPSA"}, {"lat": -3.77828, "lng": 37.76939, "price": 1.244, "name": "CEPSA"}, {"lat": -6.65106, "lng": 40.06342, "price": 1.244, "name": "RED AHORRO"}, {"lat": -5.16258, "lng": 36.73383, "price": 1.244, "name": "CEPSA"}, {"lat": -5.89803, "lng": 42.30444, "price": 1.244, "name": "CEPSA"}, {"lat": -4.49192, "lng": 37.41167, "price": 1.244, "name": "CEPSA"}, {"lat": -2.135, "lng": 40.06761, "price": 1.244, "name": "CEPSA"}, {"lat": -1.22569, "lng": 37.96186, "price": 1.244, "name": "CEPSA"}, {"lat": -0.44528, "lng": 39.53086, "price": 1.244, "name": "CEPSA"}, {"lat": -0.108, "lng": 39.9315, "price": 1.244, "name": "CEPSA"}, {"lat": -2.47042, "lng": 42.46161, "price": 1.244, "name": "CEPSA"}, {"lat": 1.21244, "lng": 41.12436, "price": 1.244, "name": "CEPSA"}, {"lat": 1.21403, "lng": 41.12464, "price": 1.244, "name": "CEPSA"}, {"lat": 2.18694, "lng": 41.4585, "price": 1.244, "name": "CEPSA"}, {"lat": 2.203, "lng": 41.44308, "price": 1.244, "name": "CEPSA"}, {"lat": 2.80631, "lng": 41.96317, "price": 1.244, "name": "CEPSA"}, {"lat": 3.14403, "lng": 41.89344, "price": 1.244, "name": "CEPSA"}, {"lat": 0.71437, "lng": 42.82045, "price": 1.245, "name": "ESTACION BOYA"}, {"lat": -1.02803, "lng": 42.61372, "price": 1.245, "name": "(SIN ROTULO)"}, {"lat": -3.55464, "lng": 40.35581, "price": 1.245, "name": "SHELL"}, {"lat": -4.67333, "lng": 40.66181, "price": 1.245, "name": "CEPSA"}, {"lat": -5.67825, "lng": 38.91956, "price": 1.245, "name": "PK 11"}, {"lat": -3.71194, "lng": 42.36431, "price": 1.245, "name": "REPOSTAR--LAS TERRAZAS"}, {"lat": -0.30639, "lng": 39.54958, "price": 1.246, "name": "PETROMAX LEVANTE"}, {"lat": -2.57817, "lng": 37.58308, "price": 1.246, "name": "A.AGUAZA"}, {"lat": -6.05828, "lng": 37.29375, "price": 1.247, "name": "E.S. LA ESTRELLA"}, {"lat": -0.18339, "lng": 38.93408, "price": 1.247, "name": "BENIARJO"}, {"lat": -4.07097, "lng": 43.25244, "price": 1.247, "name": "SHELL"}, {"lat": -3.64494, "lng": 40.36978, "price": 1.247, "name": "CEPSA VALLECAS-LA ATALAYU"}, {"lat": 1.63622, "lng": 41.57872, "price": 1.247, "name": "SHELL"}, {"lat": -3.76325, "lng": 40.31883, "price": 1.247, "name": "REPSOL"}, {"lat": -6.05075, "lng": 40.84997, "price": 1.248, "name": "BERNAL"}, {"lat": 2.09289, "lng": 41.35378, "price": 1.248, "name": "PETROPASS"}, {"lat": -5.46236, "lng": 42.54767, "price": 1.248, "name": "REPSOL"}, {"lat": -4.90911, "lng": 41.30181, "price": 1.248, "name": "REPSOL"}, {"lat": -3.85986, "lng": 43.36172, "price": 1.248, "name": "CAMPSA"}, {"lat": -5.74797, "lng": 41.51172, "price": 1.248, "name": "REPSOL"}, {"lat": -3.69478, "lng": 42.36069, "price": 1.248, "name": "CARREFOUR"}, {"lat": -3.45478, "lng": 40.68881, "price": 1.248, "name": "GASOLINERA DEL COTO"}, {"lat": -4.75333, "lng": 41.60544, "price": 1.248, "name": "REPSOL"}, {"lat": -3.81625, "lng": 43.46806, "price": 1.248, "name": "SHELL"}, {"lat": -6.05003, "lng": 40.84683, "price": 1.248, "name": "BERNAL"}, {"lat": -3.88689, "lng": 40.33509, "price": 1.248, "name": "REPSOL"}, {"lat": -5.65556, "lng": 40.93969, "price": 1.248, "name": "REPSOL"}, {"lat": -0.26158, "lng": 39.17817, "price": 1.248, "name": "EROSKI"}, {"lat": -0.25569, "lng": 39.67297, "price": 1.248, "name": "GALP"}, {"lat": -3.77608, "lng": 40.23086, "price": 1.248, "name": "REPSOL"}, {"lat": -3.391, "lng": 40.11225, "price": 1.248, "name": "REPSOL"}, {"lat": -3.559, "lng": 40.35739, "price": 1.248, "name": "REPSOL"}, {"lat": -3.75414, "lng": 40.23869, "price": 1.248, "name": "CAMPSA"}, {"lat": -4.61664, "lng": 42.34117, "price": 1.248, "name": "RIO NUBIS"}, {"lat": -4.49919, "lng": 42.86239, "price": 1.248, "name": "J.L.SARDINA S.L."}, {"lat": -6.57997, "lng": 42.66397, "price": 1.248, "name": "REPSOL"}, {"lat": -4.69217, "lng": 40.65789, "price": 1.248, "name": "REPSOL"}, {"lat": -3.72356, "lng": 42.30906, "price": 1.248, "name": "REPSOL"}, {"lat": -5.74781, "lng": 41.50706, "price": 1.248, "name": "LOSADA-RONDA"}, {"lat": -5.78708, "lng": 42.78411, "price": 1.248, "name": "E.S.CARGOSA"}, {"lat": -3.67792, "lng": 42.34875, "price": 1.248, "name": "REPSOL"}, {"lat": -6.63161, "lng": 42.7625, "price": 1.248, "name": "REPSOL"}, {"lat": -3.60319, "lng": 42.34008, "price": 1.248, "name": "REPSOL"}, {"lat": -3.96492, "lng": 42.13169, "price": 1.248, "name": "REPSOL"}, {"lat": -5.55939, "lng": 42.58561, "price": 1.248, "name": "REPSOL"}, {"lat": -3.57803, "lng": 41.63353, "price": 1.248, "name": "REPSOL"}, {"lat": -4.56403, "lng": 41.83539, "price": 1.248, "name": "REPSOL"}, {"lat": -5.79706, "lng": 41.52111, "price": 1.248, "name": "REPSOL"}, {"lat": -4.25664, "lng": 42.04689, "price": 1.248, "name": "REPSOL"}, {"lat": -4.34628, "lng": 42.01681, "price": 1.248, "name": "REPSOL"}, {"lat": -4.41672, "lng": 41.40472, "price": 1.248, "name": "REPSOL"}, {"lat": -2.52883, "lng": 41.48092, "price": 1.248, "name": "REPSOL"}, {"lat": -4.72731, "lng": 41.62961, "price": 1.248, "name": "REPSOL"}, {"lat": -4.74664, "lng": 41.63797, "price": 1.248, "name": "REPSOL"}, {"lat": -6.10231, "lng": 41.36814, "price": 1.248, "name": "REPSOL"}, {"lat": -4.91103, "lng": 41.30519, "price": 1.248, "name": "REPSOL"}, {"lat": -5.49447, "lng": 41.23347, "price": 1.248, "name": "SEGUIN Y DIEGO S.L."}, {"lat": -4.25653, "lng": 41.94008, "price": 1.248, "name": "REPSOL"}, {"lat": -4.51975, "lng": 41.99264, "price": 1.248, "name": "REPSOL"}, {"lat": -4.6495, "lng": 41.13417, "price": 1.248, "name": "REPSOL"}, {"lat": -6.34225, "lng": 41.69739, "price": 1.248, "name": "REPSOL"}, {"lat": -4.86103, "lng": 41.46139, "price": 1.248, "name": "REPSOL"}, {"lat": -4.41664, "lng": 41.98664, "price": 1.248, "name": "REPSOL"}, {"lat": -5.25256, "lng": 41.7235, "price": 1.248, "name": "PETRONOR"}, {"lat": -6.52881, "lng": 40.60411, "price": 1.248, "name": "CAMPSA"}, {"lat": -4.53961, "lng": 41.35903, "price": 1.248, "name": "REPSOL"}, {"lat": -4.32619, "lng": 42.5935, "price": 1.248, "name": "REPSOL"}, {"lat": -6.53492, "lng": 40.60139, "price": 1.248, "name": "CAMPSA"}, {"lat": -4.52542, "lng": 42.0135, "price": 1.248, "name": "REPSOL"}, {"lat": -4.52078, "lng": 42.01389, "price": 1.248, "name": "GALP"}, {"lat": -4.5185, "lng": 41.99161, "price": 1.248, "name": "CARREFOUR"}, {"lat": -4.66011, "lng": 40.66769, "price": 1.248, "name": "REPSOL"}, {"lat": -3.92319, "lng": 41.6985, "price": 1.248, "name": "REPSOL"}, {"lat": -3.7005, "lng": 42.33033, "price": 1.248, "name": "REPSOL"}, {"lat": -3.92997, "lng": 41.78161, "price": 1.248, "name": "REPSOL"}, {"lat": -5.41439, "lng": 42.49547, "price": 1.248, "name": "REPSOL"}, {"lat": -5.52053, "lng": 42.57094, "price": 1.248, "name": "REPSOL"}, {"lat": -5.51919, "lng": 42.56972, "price": 1.248, "name": "REPSOL"}, {"lat": -3.71189, "lng": 42.33747, "price": 1.248, "name": "REPSOL"}, {"lat": -5.0, "lng": 41.09297, "price": 1.248, "name": "F.COCA P. S.L."}, {"lat": -3.8465, "lng": 42.29444, "price": 1.248, "name": "REPSOL"}, {"lat": 0.39467, "lng": 40.41022, "price": 1.248, "name": "SARAS ENERGIA"}, {"lat": 2.77383, "lng": 41.67992, "price": 1.248, "name": "SARAS ENERGIA"}, {"lat": 2.83114, "lng": 41.7, "price": 1.248, "name": "SARAS ENERGIA"}, {"lat": 0.87878, "lng": 41.88022, "price": 1.248, "name": "REPSOL"}, {"lat": 1.84964, "lng": 42.09525, "price": 1.248, "name": "CARREFOUR"}, {"lat": 2.20108, "lng": 41.39625, "price": 1.248, "name": "SARAS"}, {"lat": -3.94322, "lng": 43.21833, "price": 1.248, "name": "REPSOL"}, {"lat": -3.81419, "lng": 43.22953, "price": 1.248, "name": "REPSOL"}, {"lat": -3.76933, "lng": 43.42583, "price": 1.248, "name": "REPSOL"}, {"lat": -4.05975, "lng": 43.37828, "price": 1.248, "name": "REPSOL"}, {"lat": -2.75294, "lng": 43.22892, "price": 1.248, "name": "REPSOL"}, {"lat": -2.66169, "lng": 42.85928, "price": 1.248, "name": "PETRONOR"}, {"lat": -2.94356, "lng": 43.30786, "price": 1.248, "name": "PETRONOR"}, {"lat": -2.94483, "lng": 43.30753, "price": 1.248, "name": "PETRONOR"}, {"lat": -2.63217, "lng": 42.85272, "price": 1.248, "name": "REPSOL"}, {"lat": -2.66022, "lng": 42.86467, "price": 1.248, "name": "REPSOL"}, {"lat": -2.64831, "lng": 42.84978, "price": 1.248, "name": "REPSOL"}, {"lat": -3.88867, "lng": 40.32958, "price": 1.248, "name": "CARREFOUR"}, {"lat": -3.76511, "lng": 40.24708, "price": 1.248, "name": "REPSOL"}, {"lat": -3.48094, "lng": 40.52803, "price": 1.248, "name": "REPSOL"}, {"lat": -3.48156, "lng": 40.52672, "price": 1.248, "name": "CAMPSA"}, {"lat": -1.76208, "lng": 42.18278, "price": 1.248, "name": "CAMPSA"}, {"lat": 0.81097, "lng": 41.79308, "price": 1.248, "name": "REPSOL"}, {"lat": -1.75642, "lng": 42.1785, "price": 1.248, "name": "CAMPSA"}, {"lat": 1.83531, "lng": 41.73136, "price": 1.248, "name": "REPSOL"}, {"lat": -2.45669, "lng": 42.47969, "price": 1.249, "name": "CEPSA"}, {"lat": 2.68994, "lng": 41.62931, "price": 1.249, "name": "E.S. PINEDA DE MAR"}, {"lat": -3.82311, "lng": 40.25719, "price": 1.249, "name": "CEPSA"}, {"lat": -3.66469, "lng": 40.16325, "price": 1.249, "name": "GALP"}, {"lat": 0.59261, "lng": 41.63194, "price": 1.249, "name": "CEPSA"}, {"lat": -0.31094, "lng": 39.04597, "price": 1.249, "name": "GASOPOTENZ"}, {"lat": -2.59756, "lng": 43.17056, "price": 1.249, "name": "EUSKOIL-STAR PETROLEUM"}, {"lat": -2.54889, "lng": 43.13058, "price": 1.249, "name": "CEPSA"}, {"lat": -7.60636, "lng": 43.08453, "price": 1.249, "name": "SARAS"}, {"lat": -8.70089, "lng": 42.21408, "price": 1.249, "name": "ALCAMPO VIGO"}, {"lat": -8.76867, "lng": 42.62017, "price": 1.249, "name": "E.S.EL SALGUEIRAL"}, {"lat": -3.92408, "lng": 43.35828, "price": 1.249, "name": "GALP"}, {"lat": -2.01681, "lng": 42.60739, "price": 1.249, "name": "LA VENTA DE MORENTIN"}, {"lat": 0.15361, "lng": 41.95014, "price": 1.249, "name": "CEPSA-E.S.JAIME I"}, {"lat": -1.10128, "lng": 40.33736, "price": 1.249, "name": "CEPSA"}, {"lat": 2.70414, "lng": 41.63289, "price": 1.249, "name": "GALP"}, {"lat": -4.67153, "lng": 40.64847, "price": 1.249, "name": "CAMPSA"}, {"lat": -5.66294, "lng": 40.13042, "price": 1.249, "name": "CEPSA"}, {"lat": -4.10861, "lng": 40.93294, "price": 1.249, "name": "CEPSA"}, {"lat": -6.85975, "lng": 38.88653, "price": 1.249, "name": "IBERDOEX"}, {"lat": -5.26728, "lng": 42.16042, "price": 1.249, "name": "GALP"}, {"lat": -5.67031, "lng": 41.01711, "price": 1.249, "name": "CAMPSA"}, {"lat": -5.55967, "lng": 42.63322, "price": 1.249, "name": "GALP"}, {"lat": -3.85708, "lng": 40.11228, "price": 1.249, "name": "LAVAPLUS"}, {"lat": -4.09631, "lng": 36.74594, "price": 1.249, "name": "LISBONA OIL"}, {"lat": -5.67372, "lng": 42.86225, "price": 1.249, "name": "SERVIGORDON"}, {"lat": -5.87361, "lng": 41.41567, "price": 1.249, "name": "REPOSTAR--ALFA"}, {"lat": -3.68164, "lng": 42.42686, "price": 1.249, "name": "VIVAR DEL CID"}, {"lat": -4.70025, "lng": 40.65006, "price": 1.249, "name": "CEPSA"}, {"lat": -4.01078, "lng": 42.51211, "price": 1.249, "name": "CEPSA"}, {"lat": -5.33972, "lng": 40.14756, "price": 1.249, "name": "SC CAMPOS"}, {"lat": -2.93267, "lng": 42.68575, "price": 1.249, "name": "GALP"}, {"lat": -0.99581, "lng": 37.71408, "price": 1.249, "name": "ROYMAGA PETROLEOS"}, {"lat": -0.47797, "lng": 38.69508, "price": 1.249, "name": "GALP"}, {"lat": -0.17397, "lng": 38.96417, "price": 1.249, "name": "CEPSA"}, {"lat": -0.305, "lng": 39.62242, "price": 1.249, "name": "PUZOL"}, {"lat": -0.28572, "lng": 39.61297, "price": 1.249, "name": "GEST"}, {"lat": -0.49333, "lng": 39.56703, "price": 1.249, "name": "PETROMAX"}, {"lat": -1.16108, "lng": 38.05731, "price": 1.249, "name": "MEROIL"}, {"lat": -5.72658, "lng": 41.35997, "price": 1.249, "name": "REPOSTAR"}, {"lat": -3.724, "lng": 40.35114, "price": 1.249, "name": "CEPSA"}, {"lat": -3.23719, "lng": 39.38636, "price": 1.249, "name": "CARREFOUR"}, {"lat": -4.90903, "lng": 40.55325, "price": 1.249, "name": "REPSOL - SAN ROMAN"}, {"lat": -0.67658, "lng": 37.98878, "price": 1.249, "name": "SHELL"}, {"lat": -3.86464, "lng": 43.44003, "price": 1.249, "name": "BP MERCASANTANDER"}, {"lat": -2.90303, "lng": 43.27261, "price": 1.249, "name": "GABAI OIL S.A."}, {"lat": -5.89911, "lng": 37.29072, "price": 1.249, "name": "PETROEUROPA"}, {"lat": -6.07017, "lng": 41.25653, "price": 1.249, "name": "E.S. NUESTRA SENORA DE GR"}, {"lat": -0.47431, "lng": 39.53069, "price": 1.249, "name": "REPSOL"}, {"lat": -3.62245, "lng": 38.10429, "price": 1.25, "name": "GASOLINERA SANTANA"}, {"lat": -0.54008, "lng": 38.34017, "price": 1.25, "name": "E.S. GRUPO RENAUTO"}, {"lat": -1.26244, "lng": 38.02485, "price": 1.25, "name": "LOS VIENTOS"}, {"lat": -8.46789, "lng": 43.23061, "price": 1.25, "name": "LOW COST ATENDIDO O CORGO"}, {"lat": -0.06792, "lng": 39.97914, "price": 1.25, "name": "CEPSA"}, {"lat": -8.19522, "lng": 43.53181, "price": 1.25, "name": "ORTEGAL OIL"}, {"lat": -2.68814, "lng": 37.42589, "price": 1.25, "name": "EE SS LOS CARRASQUILLAS"}, {"lat": -2.62969, "lng": 36.77319, "price": 1.25, "name": "E.S PACOCALCULA"}, {"lat": -1.51331, "lng": 37.98547, "price": 1.25, "name": "SUMINISTROS PLIEGO S.L"}, {"lat": -6.46839, "lng": 41.73408, "price": 1.25, "name": "LA CHUCA"}, {"lat": -2.46947, "lng": 42.46144, "price": 1.25, "name": "CEPSA"}, {"lat": 2.65919, "lng": 39.58019, "price": 1.25, "name": "BALMES BALEARES"}, {"lat": 2.6635, "lng": 39.56519, "price": 1.25, "name": "AZANA"}, {"lat": -0.33722, "lng": 39.46356, "price": 1.251, "name": "SHELL"}, {"lat": -4.49942, "lng": 36.62525, "price": 1.252, "name": "SHELL"}, {"lat": -6.08797, "lng": 37.36575, "price": 1.252, "name": "SHELL"}, {"lat": -3.16869, "lng": 40.71789, "price": 1.252, "name": "SHELL"}, {"lat": 2.16567, "lng": 41.53931, "price": 1.252, "name": "SHELL"}, {"lat": -3.84875, "lng": 39.17417, "price": 1.253, "name": "CEPSA"}, {"lat": -5.76231, "lng": 40.38417, "price": 1.253, "name": "REPSOL"}, {"lat": -4.30533, "lng": 41.39442, "price": 1.253, "name": "REPSOL"}, {"lat": -5.75072, "lng": 40.38956, "price": 1.253, "name": "REPSOL"}, {"lat": -5.96519, "lng": 37.37047, "price": 1.253, "name": "ALCAMPO S.A."}, {"lat": -6.43753, "lng": 40.66417, "price": 1.253, "name": "REPSOL"}, {"lat": -6.70753, "lng": 40.59089, "price": 1.253, "name": "CEPSA"}, {"lat": -5.58253, "lng": 42.57117, "price": 1.253, "name": "REPSOL"}, {"lat": -4.69931, "lng": 41.05292, "price": 1.254, "name": "GALP"}, {"lat": -5.65861, "lng": 42.93811, "price": 1.254, "name": "CEPSA"}, {"lat": -4.08494, "lng": 40.66919, "price": 1.254, "name": "CEPSA"}, {"lat": 2.20689, "lng": 41.53133, "price": 1.254, "name": "CEPSA"}, {"lat": 2.16294, "lng": 41.48208, "price": 1.254, "name": "CEPSA"}, {"lat": 2.67392, "lng": 41.62294, "price": 1.254, "name": "CEPSA"}, {"lat": 2.49944, "lng": 42.18789, "price": 1.254, "name": "CEPSA"}, {"lat": 2.09197, "lng": 41.35794, "price": 1.254, "name": "CEPSA"}, {"lat": 2.09622, "lng": 41.35286, "price": 1.254, "name": "CEPSA"}, {"lat": 2.22203, "lng": 41.45619, "price": 1.254, "name": "CEPSA"}, {"lat": 2.24239, "lng": 42.00419, "price": 1.254, "name": "CEPSA"}, {"lat": 2.20131, "lng": 41.40592, "price": 1.254, "name": "CEPSA"}, {"lat": -3.71853, "lng": 42.37053, "price": 1.254, "name": "FUNDACION AIDA CEPSA"}, {"lat": -4.922, "lng": 36.73767, "price": 1.254, "name": "AGLA"}, {"lat": 2.1515, "lng": 41.48919, "price": 1.254, "name": "CEPSA"}, {"lat": -2.89672, "lng": 43.29328, "price": 1.254, "name": "GALP"}, {"lat": -3.76775, "lng": 43.35897, "price": 1.254, "name": "AREA DE SERVICIO PAMANES"}, {"lat": -7.01275, "lng": 37.25917, "price": 1.255, "name": "MEROIL"}, {"lat": -5.7135, "lng": 41.26347, "price": 1.255, "name": "EL PILAR"}, {"lat": -2.68586, "lng": 43.26622, "price": 1.255, "name": "SHELL"}, {"lat": -3.73292, "lng": 40.32317, "price": 1.255, "name": "CEPSA"}, {"lat": -6.97317, "lng": 37.19375, "price": 1.255, "name": "DISAGON"}, {"lat": -5.93344, "lng": 43.54528, "price": 1.255, "name": "CARBUESPORT 2000"}, {"lat": -2.41694, "lng": 42.47258, "price": 1.255, "name": "ZENIT SOTOGALO"}, {"lat": -3.74581, "lng": 40.38528, "price": 1.255, "name": "STAR PETROLEUM"}, {"lat": -6.79233, "lng": 40.59164, "price": 1.255, "name": "CEPSA"}, {"lat": -5.45428, "lng": 36.14983, "price": 1.256, "name": "SARAS"}, {"lat": 0.78803, "lng": 41.56394, "price": 1.256, "name": "KM 7.7"}, {"lat": 0.78825, "lng": 41.56433, "price": 1.256, "name": "ZONA KARTING"}, {"lat": -4.54592, "lng": 42.01617, "price": 1.256, "name": "SUANCES"}, {"lat": -3.70142, "lng": 40.2715, "price": 1.257, "name": "CEPSA NASSICA 365"}, {"lat": 1.19753, "lng": 41.10542, "price": 1.257, "name": "SHELL"}, {"lat": -3.80617, "lng": 40.34111, "price": 1.257, "name": "CEPSA URTINSA 365"}, {"lat": -4.20792, "lng": 40.77692, "price": 1.257, "name": "SHELL"}, {"lat": -3.83022, "lng": 40.14222, "price": 1.257, "name": "SHELL"}, {"lat": -2.67156, "lng": 43.18578, "price": 1.257, "name": "SHELL"}, {"lat": -2.671, "lng": 43.18628, "price": 1.257, "name": "SHELL"}, {"lat": -3.59417, "lng": 37.26006, "price": 1.257, "name": "SAN LAZARO GUEVEJAR"}, {"lat": -3.69247, "lng": 40.26464, "price": 1.257, "name": "REPSOL"}, {"lat": -3.69169, "lng": 40.31608, "price": 1.257, "name": "REPSOL"}, {"lat": -3.69242, "lng": 40.31519, "price": 1.257, "name": "REPSOL"}, {"lat": -3.58742, "lng": 40.46378, "price": 1.257, "name": "REPSOL"}, {"lat": -3.686, "lng": 41.67494, "price": 1.257, "name": "REPSOL"}, {"lat": -3.49025, "lng": 41.82317, "price": 1.257, "name": "PETRONOR"}, {"lat": -6.06439, "lng": 42.45992, "price": 1.258, "name": "REPSOL"}, {"lat": -6.60083, "lng": 42.55233, "price": 1.258, "name": "REPSOL"}, {"lat": -5.60231, "lng": 42.61731, "price": 1.258, "name": "PETRONOR"}, {"lat": -4.00878, "lng": 39.91378, "price": 1.258, "name": "REPSOL"}, {"lat": -4.00811, "lng": 39.91361, "price": 1.258, "name": "REPSOL"}, {"lat": -2.13436, "lng": 40.06608, "price": 1.258, "name": "REPSOL"}, {"lat": -2.17025, "lng": 40.07364, "price": 1.258, "name": "CAMPSA"}, {"lat": -5.73636, "lng": 41.51058, "price": 1.258, "name": "LOSADA-AVENIDA"}, {"lat": -4.96081, "lng": 41.40611, "price": 1.258, "name": "(SIN ROTULO)"}, {"lat": -4.10969, "lng": 40.92719, "price": 1.258, "name": "REPSOL"}, {"lat": -5.71458, "lng": 41.52486, "price": 1.258, "name": "REPOSTAR--VISTA ALEGRE"}, {"lat": -4.77803, "lng": 42.08042, "price": 1.258, "name": "S.E. SAN AGUSTIN S.L."}, {"lat": -6.87656, "lng": 42.64633, "price": 1.258, "name": "E.S. TRABADELO"}, {"lat": -4.28706, "lng": 42.19183, "price": 1.258, "name": "LA MOTA"}, {"lat": -4.10919, "lng": 40.92719, "price": 1.258, "name": "REPSOL"}, {"lat": -3.81942, "lng": 40.3565, "price": 1.258, "name": "REPSOL"}, {"lat": -3.80542, "lng": 40.34639, "price": 1.258, "name": "REPSOL"}, {"lat": -3.72164, "lng": 40.251, "price": 1.258, "name": "REPSOL"}, {"lat": -3.74269, "lng": 40.26597, "price": 1.258, "name": "REPSOL"}, {"lat": -1.95369, "lng": 42.31225, "price": 1.258, "name": "ADELFAS"}, {"lat": -2.08531, "lng": 42.23017, "price": 1.258, "name": "REPSOL"}, {"lat": -0.96383, "lng": 37.74953, "price": 1.258, "name": "LA HITA-EL PASICO"}, {"lat": -4.37972, "lng": 40.35806, "price": 1.258, "name": "REPSOL"}, {"lat": -4.37947, "lng": 40.3575, "price": 1.258, "name": "REPSOL"}, {"lat": -5.87671, "lng": 40.90992, "price": 1.258, "name": "GALP"}, {"lat": -4.19175, "lng": 41.14303, "price": 1.258, "name": "REPSOL"}, {"lat": -5.17328, "lng": 41.62697, "price": 1.258, "name": "REPSOL"}, {"lat": -4.75625, "lng": 41.62156, "price": 1.258, "name": "REPSOL"}, {"lat": -4.72189, "lng": 41.63714, "price": 1.258, "name": "REPSOL"}, {"lat": -3.59119, "lng": 41.25928, "price": 1.258, "name": "REPSOL"}, {"lat": -4.73272, "lng": 41.62814, "price": 1.258, "name": "REPSOL"}, {"lat": -5.41097, "lng": 40.64469, "price": 1.258, "name": "REPSOL"}, {"lat": -4.26394, "lng": 40.98633, "price": 1.258, "name": "CAMPSA"}, {"lat": -5.66567, "lng": 40.95717, "price": 1.258, "name": "REPSOL"}, {"lat": -5.64722, "lng": 41.99219, "price": 1.258, "name": "REPSOL"}, {"lat": -4.89578, "lng": 41.53997, "price": 1.258, "name": "REPSOL"}, {"lat": -4.51064, "lng": 41.91336, "price": 1.258, "name": "REPSOL"}, {"lat": -4.51258, "lng": 41.91189, "price": 1.258, "name": "REPSOL"}, {"lat": -6.83847, "lng": 42.03342, "price": 1.258, "name": "REPSOL"}, {"lat": -4.02033, "lng": 40.90447, "price": 1.258, "name": "CAMPSA"}, {"lat": -4.66875, "lng": 41.73761, "price": 1.258, "name": "REPSOL"}, {"lat": -3.19256, "lng": 41.569, "price": 1.258, "name": "REPSOL"}, {"lat": -4.77383, "lng": 41.62272, "price": 1.258, "name": "REPSOL"}, {"lat": -6.02558, "lng": 41.99614, "price": 1.258, "name": "REPSOL"}, {"lat": -4.71861, "lng": 41.67428, "price": 1.258, "name": "REPSOL"}, {"lat": -4.29814, "lng": 40.74919, "price": 1.258, "name": "BP"}, {"lat": -2.16206, "lng": 41.67469, "price": 1.258, "name": "CAMPSA"}, {"lat": -4.31525, "lng": 42.66586, "price": 1.258, "name": "PROPENOR"}, {"lat": -5.67056, "lng": 40.56436, "price": 1.258, "name": "REPSOL"}, {"lat": -4.39892, "lng": 40.77756, "price": 1.258, "name": "BP"}, {"lat": -4.55036, "lng": 42.02789, "price": 1.258, "name": "REPSOL"}, {"lat": -4.12294, "lng": 40.94611, "price": 1.258, "name": "REPSOL"}, {"lat": -5.66994, "lng": 40.94775, "price": 1.258, "name": "REPSOL"}, {"lat": -5.92172, "lng": 41.54122, "price": 1.258, "name": "MUELAS DEL PAN"}, {"lat": -4.59817, "lng": 41.47583, "price": 1.258, "name": "REPSOL"}, {"lat": -6.82439, "lng": 40.60592, "price": 1.258, "name": "CEPSA"}, {"lat": -4.73042, "lng": 41.66394, "price": 1.258, "name": "GALP"}, {"lat": -6.36258, "lng": 39.48203, "price": 1.258, "name": "REPSOL"}, {"lat": -5.85658, "lng": 42.92897, "price": 1.258, "name": "REPSOL"}, {"lat": -5.77094, "lng": 42.69164, "price": 1.258, "name": "REPSOL"}, {"lat": -5.7675, "lng": 42.69058, "price": 1.258, "name": "REPSOL"}, {"lat": -3.70331, "lng": 42.29006, "price": 1.258, "name": "REPSOL"}, {"lat": -3.70494, "lng": 42.29033, "price": 1.258, "name": "REPSOL"}, {"lat": -6.40139, "lng": 42.60886, "price": 1.258, "name": "REPSOL"}, {"lat": -3.69186, "lng": 41.66258, "price": 1.258, "name": "REPSOL"}, {"lat": -6.3835, "lng": 39.46208, "price": 1.258, "name": "REPSOL"}, {"lat": -4.48425, "lng": 36.73233, "price": 1.258, "name": "E.S. EL TOMILLAR (AGLA)"}, {"lat": -6.52853, "lng": 38.72556, "price": 1.258, "name": "REPSOL"}, {"lat": -5.68494, "lng": 38.26156, "price": 1.258, "name": "REPSOL"}, {"lat": -6.52125, "lng": 39.96914, "price": 1.258, "name": "REPSOL"}, {"lat": -6.41831, "lng": 39.49461, "price": 1.258, "name": "REPSOL"}, {"lat": -2.48292, "lng": 43.18161, "price": 1.258, "name": "AVIA-KANTOI"}, {"lat": -2.48786, "lng": 43.18039, "price": 1.258, "name": "AVIA"}, {"lat": -2.45456, "lng": 43.18997, "price": 1.258, "name": "AVIA-ACITAIN"}, {"lat": -1.87183, "lng": 43.29622, "price": 1.258, "name": "REPSOL"}, {"lat": -2.6645, "lng": 42.83872, "price": 1.258, "name": "REPSOL"}, {"lat": -2.84983, "lng": 42.63519, "price": 1.258, "name": "REPSOL"}, {"lat": -2.43542, "lng": 43.05358, "price": 1.258, "name": "REPSOL"}, {"lat": -2.47833, "lng": 43.06703, "price": 1.258, "name": "PETRONOR"}, {"lat": -1.87903, "lng": 43.31178, "price": 1.258, "name": "REPSOL"}, {"lat": -1.87953, "lng": 43.31214, "price": 1.258, "name": "REPSOL"}, {"lat": -2.42064, "lng": 43.03992, "price": 1.258, "name": "PETRONOR"}, {"lat": -2.51903, "lng": 43.19386, "price": 1.258, "name": "AVIA"}, {"lat": -3.0105, "lng": 43.31319, "price": 1.258, "name": "PETRONOR"}, {"lat": -2.86936, "lng": 43.23525, "price": 1.258, "name": "CAMPSA"}, {"lat": -2.87306, "lng": 43.24011, "price": 1.258, "name": "PETRONOR"}, {"lat": -2.97861, "lng": 43.27994, "price": 1.258, "name": "REPSOL"}, {"lat": -4.12339, "lng": 42.94003, "price": 1.258, "name": "ESTACION DE FOMBELLIDA"}, {"lat": -5.20389, "lng": 40.90053, "price": 1.258, "name": "MONTE LA REINA"}, {"lat": -2.82711, "lng": 43.23192, "price": 1.258, "name": "REPSOL"}, {"lat": -2.96139, "lng": 43.26528, "price": 1.258, "name": "PETRONOR"}, {"lat": -2.88844, "lng": 43.25081, "price": 1.258, "name": "REPSOL"}, {"lat": -2.88903, "lng": 43.25067, "price": 1.258, "name": "REPSOL"}, {"lat": -2.95989, "lng": 43.291, "price": 1.258, "name": "PETRONOR"}, {"lat": -2.96042, "lng": 43.29122, "price": 1.258, "name": "PETRONOR"}, {"lat": -2.98047, "lng": 43.24653, "price": 1.258, "name": "PETRONOR"}, {"lat": -3.0135, "lng": 43.29725, "price": 1.258, "name": "PETRONOR"}, {"lat": -3.00472, "lng": 43.29281, "price": 1.258, "name": "REPSOL"}, {"lat": 0.82676, "lng": 41.78814, "price": 1.258, "name": "CARREFOUR"}, {"lat": 2.00069, "lng": 41.28847, "price": 1.258, "name": "PETROCAT"}, {"lat": 2.00178, "lng": 41.28708, "price": 1.258, "name": "PETROCAT"}, {"lat": 2.09017, "lng": 41.34697, "price": 1.258, "name": "REPSOL"}, {"lat": -0.56597, "lng": 38.411, "price": 1.258, "name": "REPSOL"}, {"lat": -0.52978, "lng": 42.57719, "price": 1.258, "name": "EROSKI"}, {"lat": 0.33281, "lng": 41.41342, "price": 1.258, "name": "CAMPSA"}, {"lat": 0.29569, "lng": 41.84572, "price": 1.258, "name": "REPSOL"}, {"lat": -1.67244, "lng": 42.53175, "price": 1.258, "name": "REPSOL"}, {"lat": -3.82414, "lng": 43.45356, "price": 1.258, "name": "REPSOL"}, {"lat": -4.0655, "lng": 43.33156, "price": 1.258, "name": "REPSOL"}, {"lat": -3.83561, "lng": 43.42528, "price": 1.258, "name": "REPSOL"}, {"lat": -4.02942, "lng": 43.341, "price": 1.258, "name": "REPSOL"}, {"lat": -4.27947, "lng": 43.38764, "price": 1.258, "name": "REPSOL"}, {"lat": -3.83633, "lng": 43.41244, "price": 1.258, "name": "REPSOL"}, {"lat": -3.82892, "lng": 43.45803, "price": 1.258, "name": "E.S.VALDECILLA"}, {"lat": -3.78722, "lng": 43.39658, "price": 1.258, "name": "ESTACION DE HERAS"}, {"lat": -4.09417, "lng": 43.356, "price": 1.258, "name": "SHELL"}, {"lat": -4.31478, "lng": 40.36508, "price": 1.258, "name": "REPSOL   ACTUALIZACION A"}, {"lat": -3.63583, "lng": 40.16519, "price": 1.258, "name": "GALP"}, {"lat": 0.81622, "lng": 41.14347, "price": 1.258, "name": "REPSOL"}, {"lat": 1.16461, "lng": 41.37436, "price": 1.258, "name": "REPSOL"}, {"lat": 0.64792, "lng": 41.09372, "price": 1.258, "name": "REPSOL"}, {"lat": 0.66192, "lng": 41.0795, "price": 1.258, "name": "REPSOL"}, {"lat": 0.72967, "lng": 41.04781, "price": 1.258, "name": "REPSOL"}, {"lat": 1.83992, "lng": 41.73414, "price": 1.258, "name": "REPSOL"}, {"lat": -1.99047, "lng": 42.21372, "price": 1.258, "name": "REPSOL"}, {"lat": -2.28003, "lng": 42.43139, "price": 1.258, "name": "REPSOL"}, {"lat": -2.05042, "lng": 42.32547, "price": 1.258, "name": "REPSOL"}, {"lat": -3.87422, "lng": 43.44436, "price": 1.258, "name": "REPSOL"}, {"lat": -4.69408, "lng": 41.64631, "price": 1.258, "name": "REPSOL"}, {"lat": -6.81817, "lng": 40.60261, "price": 1.258, "name": "GALP"}, {"lat": 2.85472, "lng": 41.8055, "price": 1.258, "name": "REPSOL"}, {"lat": 2.85494, "lng": 41.80483, "price": 1.258, "name": "REPSOL"}, {"lat": -4.75964, "lng": 41.62781, "price": 1.258, "name": "REPSOL"}, {"lat": -4.08806, "lng": 40.95228, "price": 1.258, "name": "REPSOL-SAN CRISTOBAL"}, {"lat": -2.83819, "lng": 43.22739, "price": 1.258, "name": "REPSOL"}, {"lat": -2.0635, "lng": 42.23397, "price": 1.258, "name": "ADELFAS"}, {"lat": -4.17908, "lng": 36.7445, "price": 1.258, "name": "GUEROIL"}, {"lat": -2.76219, "lng": 42.43117, "price": 1.258, "name": "VALCARCE"}, {"lat": -4.50389, "lng": 43.37503, "price": 1.258, "name": "AVIA"}, {"lat": 2.68578, "lng": 39.56708, "price": 1.258, "name": "SHELL"}, {"lat": -3.52792, "lng": 40.44925, "price": 1.258, "name": "CARREFOUR"}, {"lat": -4.71756, "lng": 41.661, "price": 1.258, "name": "REPSOL L-J: 06:00-00:00;"}, {"lat": -0.32186, "lng": 39.58439, "price": 1.258, "name": "SARAS"}, {"lat": -5.32947, "lng": 42.36008, "price": 1.258, "name": "PETRONOR"}, {"lat": -3.81975, "lng": 40.27261, "price": 1.258, "name": "REPSOL"}, {"lat": -6.60578, "lng": 42.56528, "price": 1.258, "name": "REPSOL"}, {"lat": -6.38775, "lng": 40.71183, "price": 1.258, "name": "REPSOL"}, {"lat": -3.80125, "lng": 39.68292, "price": 1.258, "name": "REPSOL"}, {"lat": -3.85881, "lng": 43.41978, "price": 1.259, "name": "REPSOL"}, {"lat": -2.70997, "lng": 42.85242, "price": 1.259, "name": "CEPSA"}, {"lat": -3.70292, "lng": 42.31028, "price": 1.259, "name": "CEPSA"}, {"lat": -1.11167, "lng": 37.98178, "price": 1.259, "name": "SHELL"}, {"lat": -3.53717, "lng": 40.34028, "price": 1.259, "name": "CARREFOUR"}, {"lat": -8.45019, "lng": 42.96422, "price": 1.259, "name": "E.S. SIGUEIRO"}, {"lat": -6.71058, "lng": 40.93747, "price": 1.259, "name": "63182867"}, {"lat": -2.69372, "lng": 42.84903, "price": 1.259, "name": "CEPSA"}, {"lat": -5.54444, "lng": 41.05492, "price": 1.259, "name": "CEPSA"},