[{"lat": -16.73989, "lng": 28.12011, "price": 1.055, "name": "TGAS-HIPERTREBOL"}, {"lat": -16.296, "lng": 28.47022, "price": 1.06, "name": "PCAN"}, {"lat": -17.83522, "lng": 28.50092, "price": 1.062, "name": "PCAN"}, {"lat": -15.60194, "lng": 27.75331, "price": 1.066, "name": "CEPSA MASPALOMAS"}, {"lat": -16.46678, "lng": 28.43608, "price": 1.069, "name": "SHELL"}, {"lat": -16.84825, "lng": 28.36989, "price": 1.075, "name": "DISA"}, {"lat": -16.61822, "lng": 28.39308, "price": 1.075, "name": "ESTACION DE SERVICIOS EL"}, {"lat": -16.41178, "lng": 28.47747, "price": 1.081, "name": "TGAS"}, {"lat": -16.66264, "lng": 28.01186, "price": 1.081, "name": "TGAS"}, {"lat": -16.55136, "lng": 28.10353, "price": 1.082, "name": "PCAN"}, {"lat": -16.35089, "lng": 28.39947, "price": 1.089, "name": "PCAN"}, {"lat": -16.30189, "lng": 28.51522, "price": 1.098, "name": "TGAS"}, {"lat": -16.33503, "lng": 28.51997, "price": 1.099, "name": "TGAS"}, {"lat": -13.49767, "lng": 29.14889, "price": 1.099, "name": "TEXACO"}, {"lat": -16.58189, "lng": 28.39003, "price": 1.1, "name": "PCAN"}, {"lat": -16.58217, "lng": 28.39008, "price": 1.1, "name": "DISA LOS BARROS"}, {"lat": -16.54642, "lng": 28.05622, "price": 1.11, "name": "CEPSA MEDANO"}, {"lat": -16.41483, "lng": 28.34058, "price": 1.112, "name": "CEPSA"}, {"lat": -13.85056, "lng": 28.50619, "price": 1.123, "name": "DISA"}, {"lat": -13.8775, "lng": 28.51683, "price": 1.123, "name": "DISA"}, {"lat": -13.87631, "lng": 28.51683, "price": 1.123, "name": "DISA"}, {"lat": -13.85225, "lng": 28.50075, "price": 1.124, "name": "PCAN GASOLINERA GIL"}, {"lat": -16.57464, "lng": 28.05, "price": 1.126, "name": "CEPSA"}, {"lat": -16.389, "lng": 28.51817, "price": 1.137, "name": "REPSOL"}, {"lat": -16.48467, "lng": 28.42872, "price": 1.139, "name": "REPSOL"}, {"lat": -16.383, "lng": 28.48739, "price": 1.139, "name": "CEPSA EL PENON"}, {"lat": -16.31689, "lng": 28.45608, "price": 1.139, "name": "REPSOL"}, {"lat": -16.41194, "lng": 28.31303, "price": 1.14, "name": "TEXACO"}, {"lat": -16.30725, "lng": 28.44744, "price": 1.14, "name": "CEPSA LOS ANDENES"}, {"lat": -16.65933, "lng": 28.09117, "price": 1.144, "name": "CEPSA"}, {"lat": -15.47264, "lng": 27.99556, "price": 1.145, "name": "CEPSA LOS ALMENDROS"}, {"lat": -16.575, "lng": 28.37256, "price": 1.149, "name": "CEPSA"}, {"lat": -16.78489, "lng": 28.14097, "price": 1.149, "name": "CEPSA ARMENIME"}, {"lat": -15.39781, "lng": 28.00106, "price": 1.152, "name": "CEPSA"}, {"lat": -15.48781, "lng": 28.13619, "price": 1.153, "name": "CEPSA - ALEXIS MANUEL JIM"}, {"lat": -16.23961, "lng": 28.48283, "price": 1.153, "name": "ESTACION DE SERVICIO ANAG"}, {"lat": -16.28217, "lng": 28.43653, "price": 1.154, "name": "CEPSA AUTOPISTA SUR"}, {"lat": -15.63394, "lng": 28.14133, "price": 1.156, "name": "CEPSA"}, {"lat": -16.55806, "lng": 28.07828, "price": 1.157, "name": "DISA SAN ISIDRO"}, {"lat": -16.52233, "lng": 28.39833, "price": 1.159, "name": "DISA"}, {"lat": -16.68089, "lng": 28.07819, "price": 1.159, "name": "DISA"}, {"lat": -15.54706, "lng": 28.06175, "price": 1.159, "name": "BP TEROR"}, {"lat": -15.41475, "lng": 28.0065, "price": 1.159, "name": "ESTACION EL CUBILLO"}, {"lat": -16.28378, "lng": 28.46611, "price": 1.159, "name": "DISA VISTABELLA"}, {"lat": -16.23161, "lng": 28.48861, "price": 1.159, "name": "DISA BALNEARIO II"}, {"lat": -16.82428, "lng": 28.26081, "price": 1.159, "name": "DISA BAJADA A LOS GIGANTE"}, {"lat": -16.38606, "lng": 28.30639, "price": 1.159, "name": "DISA PUERTITO"}, {"lat": -16.69214, "lng": 28.06133, "price": 1.159, "name": "CEPSA"}, {"lat": -16.2535, "lng": 28.45836, "price": 1.159, "name": "DISA FOMENTO"}, {"lat": -16.71539, "lng": 28.05281, "price": 1.159, "name": "DISA LOS CRISTIANOS"}, {"lat": -16.46047, "lng": 28.44953, "price": 1.159, "name": "DISA EL BOHIO"}, {"lat": -16.81558, "lng": 28.29383, "price": 1.159, "name": "DISA"}, {"lat": -16.61569, "lng": 28.09967, "price": 1.159, "name": "ESTACION  SAN MIGUEL"}, {"lat": -16.51519, "lng": 28.38825, "price": 1.159, "name": "CEPSA LA CANADA"}, {"lat": -15.38758, "lng": 28.01433, "price": 1.159, "name": "BP LA GARITA"}, {"lat": -16.79939, "lng": 28.24458, "price": 1.159, "name": "TEXACO"}, {"lat": -16.54378, "lng": 28.41253, "price": 1.159, "name": "CEPSA PUERTO DE LA CRUZ"}, {"lat": -16.57847, "lng": 28.10469, "price": 1.16, "name": "CEPSA LOS LLANOS - GRANAD"}, {"lat": -16.317, "lng": 28.42542, "price": 1.161, "name": "SHELL EL CHORRILLO"}, {"lat": -16.76661, "lng": 28.17478, "price": 1.162, "name": "SHELL"}, {"lat": -16.31367, "lng": 28.44181, "price": 1.162, "name": "SHELL LOS MAJUELOS"}, {"lat": -15.47433, "lng": 27.805, "price": 1.162, "name": "TEXACO JUAN GRANDE"}, {"lat": -16.25683, "lng": 28.45917, "price": 1.162, "name": "SHELL LA SALLE"}, {"lat": -16.64536, "lng": 28.03361, "price": 1.162, "name": "BP"}, {"lat": -16.65253, "lng": 28.01389, "price": 1.162, "name": "SHELL"}, {"lat": -15.54553, "lng": 28.06192, "price": 1.163, "name": "CEPSA"}, {"lat": -16.39314, "lng": 28.33553, "price": 1.163, "name": "BP"}, {"lat": -16.54617, "lng": 28.41375, "price": 1.163, "name": "BP"}, {"lat": -15.45047, "lng": 28.09647, "price": 1.164, "name": "SHELL TARAHALES II"}, {"lat": -16.27706, "lng": 28.46308, "price": 1.164, "name": "CEPSA"}, {"lat": -14.35875, "lng": 28.04872, "price": 1.165, "name": "DISA MUELLE MORRO JABLE"}, {"lat": -15.45389, "lng": 28.11842, "price": 1.166, "name": "CEPSA LAS TORRES (TEXACO)"}, {"lat": -15.44117, "lng": 28.12331, "price": 1.166, "name": "REPSOL"}, {"lat": -15.60781, "lng": 27.76628, "price": 1.166, "name": "PCAN"}, {"lat": -15.59008, "lng": 27.76839, "price": 1.166, "name": "CEPSA TAXISTAS S.AGUSTIN"}, {"lat": -17.76867, "lng": 28.67861, "price": 1.166, "name": "DISA"}, {"lat": -14.34536, "lng": 28.04972, "price": 1.167, "name": "SHELL"}, {"lat": -15.44594, "lng": 28.09864, "price": 1.167, "name": "BP LA PATERNA"}, {"lat": -15.43361, "lng": 28.08664, "price": 1.167, "name": "CEPSA SICAL"}, {"lat": -15.44272, "lng": 28.09797, "price": 1.167, "name": "BP COOPERATIVA TAXIS S. C"}, {"lat": -15.44, "lng": 27.8295, "price": 1.168, "name": "POZO IZQUIERDO"}, {"lat": -15.46389, "lng": 28.07656, "price": 1.168, "name": "REPSOL"}, {"lat": -16.52308, "lng": 28.39783, "price": 1.169, "name": "BP"}, {"lat": -15.44175, "lng": 28.10372, "price": 1.169, "name": "CEPSA ESCALERITAS"}, {"lat": -13.56489, "lng": 29.05678, "price": 1.169, "name": "CEPSA"}, {"lat": -15.45714, "lng": 28.09389, "price": 1.169, "name": "CEPSA SIETE PALMAS"}, {"lat": -13.54278, "lng": 28.98822, "price": 1.169, "name": "CEPSA TAHICHE 1"}, {"lat": -16.39797, "lng": 28.48069, "price": 1.169, "name": "BP"}, {"lat": -16.30808, "lng": 28.50964, "price": 1.169, "name": "E.S. LAS CANTERAS S.L."}, {"lat": -13.68628, "lng": 28.94831, "price": 1.169, "name": "A800-02"}, {"lat": -13.54381, "lng": 28.98767, "price": 1.169, "name": "CEPSA TAHICHE 2"}, {"lat": -15.41703, "lng": 28.03553, "price": 1.169, "name": "BP JINAMAR"}, {"lat": -16.42358, "lng": 28.47286, "price": 1.169, "name": "BP"}, {"lat": -15.56083, "lng": 28.14547, "price": 1.172, "name": "BP KM 13 - 1 (SAN ANDRES)"}, {"lat": -15.70208, "lng": 28.10186, "price": 1.172, "name": "BP AGAETE"}, {"lat": -15.41728, "lng": 28.07556, "price": 1.172, "name": "BP SAN JOSE"}, {"lat": -13.67075, "lng": 29.06503, "price": 1.172, "name": "CEPSA TINAJO"}, {"lat": -15.57614, "lng": 28.04911, "price": 1.172, "name": "BP VALLESECO"}, {"lat": -15.56033, "lng": 28.14494, "price": 1.172, "name": "BP KM 13 - 2 (SAN ANDRES)"}, {"lat": -15.62853, "lng": 28.14144, "price": 1.172, "name": "BP GUIA"}, {"lat": -15.44331, "lng": 27.85608, "price": 1.172, "name": "BP SARDINA SUR"}, {"lat": -15.38942, "lng": 27.94472, "price": 1.172, "name": "CEPSA"}, {"lat": -17.77447, "lng": 28.80519, "price": 1.172, "name": "CEPSA"}, {"lat": -15.42072, "lng": 28.15028, "price": 1.172, "name": "BP PUERTO DE LA LUZ"}, {"lat": -15.47747, "lng": 28.09358, "price": 1.172, "name": "BP TAMARACEITE"}, {"lat": -15.47744, "lng": 28.09356, "price": 1.172, "name": "BP SAN LORENZO"}, {"lat": -15.53572, "lng": 28.00903, "price": 1.172, "name": "BP SAN MATEO"}, {"lat": -15.43433, "lng": 28.11394, "price": 1.172, "name": "BP ALTAVISTA"}, {"lat": -15.79575, "lng": 27.98939, "price": 1.172, "name": "BP SAN NICOLAS"}, {"lat": -15.51033, "lng": 28.11236, "price": 1.172, "name": "BP CRUCE SANTIDAD-ARUCAS"}, {"lat": -15.55856, "lng": 27.76539, "price": 1.172, "name": "BP EL VERIL"}, {"lat": -15.43231, "lng": 27.86469, "price": 1.173, "name": "CEPSA"}, {"lat": -15.48936, "lng": 28.10781, "price": 1.174, "name": "CEPSA LA CAZUELA"}, {"lat": -16.66733, "lng": 28.06075, "price": 1.175, "name": "ES359"}, {"lat": -15.58303, "lng": 28.10825, "price": 1.177, "name": "BP MOYA"}, {"lat": -15.44156, "lng": 28.12989, "price": 1.178, "name": "BP GUANARTEME"}, {"lat": -15.48889, "lng": 28.13619, "price": 1.179, "name": "CEPSA"}, {"lat": -16.72408, "lng": 28.06636, "price": 1.199, "name": "BP LAS AMERICAS"}, {"lat": 0.41364, "lng": 41.79864, "price": 1.399, "name": "CSC"}, {"lat": -3.60536, "lng": 40.02628, "price": 1.43, "name": "FUENTE DE LA REINA"}, {"lat": -2.29114, "lng": 43.17808, "price": 1.43, "name": "URKIDE"}, {"lat": 2.44931, "lng": 41.54547, "price": 1.435, "name": "SARAS"}, {"lat": 1.14286, "lng": 41.39225, "price": 1.436, "name": "P7   PETRO7"}, {"lat": -3.93711, "lng": 38.99233, "price": 1.44, "name": "E.LECLERC"}, {"lat": 2.11378, "lng": 41.36611, "price": 1.449, "name": "SARAS"}, {"lat": -0.32186, "lng": 39.58439, "price": 1.449, "name": "SARAS"}, {"lat": -3.83764, "lng": 37.19342, "price": 1.449, "name": "PETROBEB PROMOCIONES"}, {"lat": -5.78164, "lng": 43.24608, "price": 1.449, "name": "SARAS"}, {"lat": -0.44219, "lng": 41.17061, "price": 1.452, "name": "SARAS"}, {"lat": -3.67733, "lng": 38.90414, "price": 1.456, "name": "SARAS"}, {"lat": -1.67578, "lng": 42.51447, "price": 1.456, "name": "AVIA"}, {"lat": 2.38457, "lng": 41.51236, "price": 1.459, "name": "BENZINERA   38"}, {"lat": -7.60636, "lng": 43.08453, "price": 1.464, "name": "SARAS"}, {"lat": -1.94964, "lng": 43.30456, "price": 1.465, "name": "AVIA"}, {"lat": 1.61375, "lng": 41.576, "price": 1.468, "name": "PETROMIRALLES"}, {"lat": -0.87994, "lng": 37.85247, "price": 1.469, "name": "EL PORRAS"}, {"lat": 2.10019, "lng": 41.53333, "price": 1.469, "name": "SHELL"}, {"lat": 0.51721, "lng": 41.57575, "price": 1.469, "name": "COOPERATIVA D'ALCARR\u00c0S"}, {"lat": -1.16108, "lng": 38.0573, "price": 1.469, "name": "MEROIL"}, {"lat": -3.85239, "lng": 40.34864, "price": 1.469, "name": "ALCAMPO"}, {"lat": 1.85761, "lng": 42.15956, "price": 1.47, "name": "PETROMIRALLES"}, {"lat": -2.08531, "lng": 42.23017, "price": 1.475, "name": "CARMINA II"}, {"lat": 1.01553, "lng": 41.12742, "price": 1.475, "name": "REPSOL"}, {"lat": -1.98156, "lng": 42.48692, "price": 1.478, "name": "MARISA"}, {"lat": -1.63639, "lng": 38.49597, "price": 1.479, "name": "REPSOL"}, {"lat": -0.78764, "lng": 37.84333, "price": 1.479, "name": "HERMANOS NAVARRO"}, {"lat": -8.98283, "lng": 42.56953, "price": 1.479, "name": "SHELL"}, {"lat": -2.66197, "lng": 43.06314, "price": 1.479, "name": "AVIA"}, {"lat": -5.92061, "lng": 37.27038, "price": 1.479, "name": "GM"}, {"lat": -5.73361, "lng": 41.44494, "price": 1.479, "name": "REPOSTAR - ANSELMO MONTER"}, {"lat": -6.22244, "lng": 41.0305, "price": 1.479, "name": "ESTACION DE SERVICIO PRIE"}, {"lat": -2.57817, "lng": 37.58308, "price": 1.48, "name": "A.AGUAZA"}, {"lat": -6.69097, "lng": 39.42617, "price": 1.48, "name": "SARAS"}, {"lat": 0.48239, "lng": 42.513, "price": 1.481, "name": "REPSOL"}, {"lat": -1.65198, "lng": 42.80286, "price": 1.481, "name": "ITURSER S.L."}, {"lat": -2.5345, "lng": 43.01383, "price": 1.485, "name": "PETRONOR"}, {"lat": -1.39711, "lng": 41.51847, "price": 1.485, "name": "REPSOL"}, {"lat": -3.6085, "lng": 40.07208, "price": 1.486, "name": "BP PUENTE VIESGO"}, {"lat": -1.81562, "lng": 42.67061, "price": 1.487, "name": "AVIA"}, {"lat": -1.79789, "lng": 42.11461, "price": 1.488, "name": "SERTELGAS,SL"}, {"lat": -3.97497, "lng": 40.7075, "price": 1.488, "name": "MEROIL"}, {"lat": -5.58978, "lng": 42.63683, "price": 1.489, "name": "ALTO LEON"}, {"lat": -3.46506, "lng": 40.45911, "price": 1.489, "name": "TORREJON 2"}, {"lat": -0.023, "lng": 39.98108, "price": 1.489, "name": "SARAS"}, {"lat": -2.90303, "lng": 43.27261, "price": 1.489, "name": "GABAI OIL S.A."}, {"lat": -5.76308, "lng": 43.20992, "price": 1.489, "name": "SHELL"}, {"lat": 0.5365, "lng": 41.56872, "price": 1.489, "name": "SARAS"}, {"lat": -3.80617, "lng": 40.34111, "price": 1.489, "name": "REPSOL URTINSA"}, {"lat": -5.64011, "lng": 41.79978, "price": 1.489, "name": "REPOSTAR GOMEZ OSORIO"}, {"lat": -6.01031, "lng": 43.25822, "price": 1.49, "name": "ESTACION DE SERVICIO VALL"}, {"lat": -1.21775, "lng": 38.07947, "price": 1.49, "name": "LA CANADA"}, {"lat": -2.48519, "lng": 41.77267, "price": 1.49, "name": "E. LECLERC"}, {"lat": -1.25622, "lng": 41.80247, "price": 1.491, "name": "REPSOL"}, {"lat": -1.10889, "lng": 41.57981, "price": 1.492, "name": "SARAS"}, {"lat": -3.71067, "lng": 40.24604, "price": 1.493, "name": "SHELL"}, {"lat": -0.94136, "lng": 41.59517, "price": 1.493, "name": "CEPSA"}, {"lat": -6.96611, "lng": 38.84603, "price": 1.494, "name": "LAS VAGUADAS  S.A.L. (BP)"}, {"lat": -3.68772, "lng": 40.40644, "price": 1.494, "name": "REPSOL"}, {"lat": -3.6095, "lng": 40.40406, "price": 1.494, "name": "REPSOL"}, {"lat": 1.858, "lng": 41.74475, "price": 1.495, "name": "SARAS"}, {"lat": -1.97117, "lng": 42.30639, "price": 1.495, "name": "E.S. LOPEZ ARAQUISTAIN NA"}, {"lat": 3.17269, "lng": 41.90875, "price": 1.496, "name": "CEPSA"}, {"lat": -0.06644, "lng": 39.97889, "price": 1.496, "name": "BP RONDA SUR"}, {"lat": -0.34536, "lng": 39.46397, "price": 1.497, "name": "SHELL"}, {"lat": -3.37922, "lng": 40.49236, "price": 1.498, "name": "CEPSA-ELF"}, {"lat": -0.4485, "lng": 39.459, "price": 1.498, "name": "ALACUAS"}, {"lat": -3.8105, "lng": 40.30633, "price": 1.499, "name": "E.S.POLVORANCA"}, {"lat": -2.65357, "lng": 36.79947, "price": 1.499, "name": "CONSUMOMAR"}, {"lat": -3.83253, "lng": 40.26828, "price": 1.499, "name": "CEPSA (EL MOLINO)"}, {"lat": -3.81139, "lng": 40.29381, "price": 1.499, "name": "EL NARANJO"}, {"lat": 2.72089, "lng": 41.70794, "price": 1.499, "name": "LA FARINERA"}, {"lat": 2.16911, "lng": 42.21586, "price": 1.499, "name": "SARAS"}, {"lat": 2.03811, "lng": 41.50567, "price": 1.499, "name": "JULIA OIL (FINA)"}, {"lat": -0.22497, "lng": 39.66825, "price": 1.5, "name": "BP"}, {"lat": -3.90214, "lng": 40.68853, "price": 1.5, "name": "CEPSA"}, {"lat": -0.80725, "lng": 41.65894, "price": 1.5, "name": "CEPSA"}, {"lat": -3.33511, "lng": 40.54547, "price": 1.503, "name": "BP - OYAMBRE 1"}, {"lat": -1.00436, "lng": 37.63169, "price": 1.503, "name": "APARCADOLORES"}, {"lat": -3.73008, "lng": 40.38742, "price": 1.504, "name": "CEPSA"}, {"lat": -2.50347, "lng": 43.34525, "price": 1.504, "name": "EPERMENDI"}, {"lat": -1.631, "lng": 42.03647, "price": 1.504, "name": "SARAS"}, {"lat": -1.25135, "lng": 40.48259, "price": 1.504, "name": "E.S. EL CAMPOFRIO"}, {"lat": -3.76775, "lng": 43.35897, "price": 1.504, "name": "AREA DE SERVICIO PAMANES"}, {"lat": -8.17011, "lng": 43.44994, "price": 1.504, "name": "ORTEGAL OIL"}, {"lat": -2.67294, "lng": 42.855, "price": 1.504, "name": "ESASA"}, {"lat": -0.79511, "lng": 41.65172, "price": 1.505, "name": "REPSOL"}, {"lat": -3.993, "lng": 40.62544, "price": 1.505, "name": "BP EI"}, {"lat": -0.05375, "lng": 39.97153, "price": 1.505, "name": "REPSOL"}, {"lat": -0.43881, "lng": 39.19644, "price": 1.505, "name": "SARAS"}, {"lat": -3.87853, "lng": 40.31819, "price": 1.505, "name": "AIDATER"}, {"lat": -2.61636, "lng": 42.87686, "price": 1.505, "name": "AVIA"}, {"lat": -3.99539, "lng": 40.62881, "price": 1.505, "name": "BP EII"}, {"lat": -1.79642, "lng": 43.33661, "price": 1.505, "name": "ELIZATXO-SHELL"}, {"lat": -3.88861, "lng": 40.50419, "price": 1.505, "name": "CAMPSA"}, {"lat": -7.38186, "lng": 37.23983, "price": 1.505, "name": "SARAS"}, {"lat": -7.39219, "lng": 37.217, "price": 1.505, "name": "SARAS"}, {"lat": -0.83294, "lng": 41.6725, "price": 1.505, "name": "REPSOL"}, {"lat": -3.62245, "lng": 38.10429, "price": 1.505, "name": "GASOLINERA SANTANA"}, {"lat": -3.81097, "lng": 40.45617, "price": 1.505, "name": "REPSOL"}, {"lat": -3.87553, "lng": 40.32019, "price": 1.505, "name": "AIDATER"}, {"lat": -3.71875, "lng": 40.37861, "price": 1.505, "name": "REPSOL"}, {"lat": -1.27347, "lng": 38.11944, "price": 1.505, "name": "HLH"}, {"lat": -3.50969, "lng": 40.64167, "price": 1.505, "name": "REPSOL"}, {"lat": -1.98186, "lng": 38.33136, "price": 1.505, "name": "NAVARRO Y VALERO, S.L"}, {"lat": -2.95294, "lng": 42.68831, "price": 1.505, "name": "REPSOL"}, {"lat": -2.04478, "lng": 38.45131, "price": 1.505, "name": "CAMPSA"}, {"lat": -0.04844, "lng": 39.97606, "price": 1.505, "name": "REPSOL"}, {"lat": -0.47431, "lng": 39.53069, "price": 1.505, "name": "REPSOL"}, {"lat": -2.70228, "lng": 42.89567, "price": 1.505, "name": "AVIA"}, {"lat": -3.67961, "lng": 40.44786, "price": 1.506, "name": "GALFAB"}, {"lat": 2.50581, "lng": 41.87833, "price": 1.506, "name": "FACA"}, {"lat": -3.65819, "lng": 40.426, "price": 1.506, "name": "BP"}, {"lat": -3.67861, "lng": 40.43828, "price": 1.506, "name": "AGUSTIN MEDINA"}, {"lat": -3.73094, "lng": 40.39928, "price": 1.506, "name": "BP"}, {"lat": -3.57347, "lng": 40.42133, "price": 1.506, "name": "BP"}, {"lat": -2.03442, "lng": 43.20667, "price": 1.506, "name": "PETROMIRALLES"}, {"lat": -3.52128, "lng": 40.41261, "price": 1.506, "name": "BP - TORRELAVEGA 7"}, {"lat": -3.88639, "lng": 39.65083, "price": 1.506, "name": "CEPSA"}, {"lat": -3.79722, "lng": 40.28425, "price": 1.507, "name": "CEPSA"}, {"lat": -4.27456, "lng": 39.97956, "price": 1.507, "name": "CEPSA"}, {"lat": -4.27425, "lng": 39.98, "price": 1.507, "name": "CEPSA"}, {"lat": -5.93472, "lng": 37.48683, "price": 1.509, "name": "GALP"}, {"lat": -0.95456, "lng": 38.11953, "price": 1.509, "name": "ORIGAS (MONTEPINAR)"}, {"lat": -1.91414, "lng": 37.25258, "price": 1.509, "name": "HNOS.MARTINEZ"}, {"lat": -6.03036, "lng": 37.37439, "price": 1.509, "name": "SARAS"}, {"lat": -6.3835, "lng": 39.46208, "price": 1.509, "name": "SARAS"}, {"lat": -2.92425, "lng": 43.24769, "price": 1.509, "name": "STAR PETROLEUM"}, {"lat": -3.15508, "lng": 43.34092, "price": 1.509, "name": "EL HAYA SERVICIOS S.A."}, {"lat": -2.92478, "lng": 43.24847, "price": 1.509, "name": "STAR PETROLEUM"}, {"lat": -0.54283, "lng": 38.90922, "price": 1.509, "name": "PETROMAR"}, {"lat": -6.67633, "lng": 40.173, "price": 1.509, "name": "IBERDOEX"}, {"lat": 2.21197, "lng": 41.53864, "price": 1.509, "name": "CAN BENIGNO"}, {"lat": -0.80331, "lng": 38.16758, "price": 1.509, "name": "BRIOGAS"}, {"lat": -6.82439, "lng": 40.60592, "price": 1.509, "name": "CEPSA"}, {"lat": -6.3775, "lng": 38.79361, "price": 1.509, "name": "MORENO"}, {"lat": -2.81467, "lng": 43.41158, "price": 1.509, "name": "ESTACION DE SERVICIO BAK"}, {"lat": -3.65136, "lng": 40.45011, "price": 1.51, "name": "CEPSA"}, {"lat": -5.54403, "lng": 39.89606, "price": 1.51, "name": "REPSOL"}, {"lat": 1.2218, "lng": 41.1385, "price": 1.51, "name": "BIONET"}, {"lat": -3.59767, "lng": 40.38025, "price": 1.511, "name": "REPSOL"}, {"lat": -2.03186, "lng": 38.92583, "price": 1.511, "name": "REPSOL"}, {"lat": -1.87594, "lng": 38.96397, "price": 1.511, "name": "LA PULGOSA"}, {"lat": -2.14337, "lng": 40.05181, "price": 1.512, "name": "HERMANOS NUNO, S.L."}, {"lat": -1.84903, "lng": 38.98925, "price": 1.512, "name": "CEPSA"}, {"lat": -3.84931, "lng": 40.26128, "price": 1.513, "name": "CEPSA"}, {"lat": -7.67064, "lng": 43.29414, "price": 1.513, "name": "REPSOL"}, {"lat": -3.69894, "lng": 43.44667, "price": 1.513, "name": "AVIA"}, {"lat": -3.98369, "lng": 39.95956, "price": 1.514, "name": "CEPSA"}, {"lat": -3.98506, "lng": 39.95881, "price": 1.514, "name": "CEPSA"}, {"lat": -1.76456, "lng": 43.33906, "price": 1.515, "name": "REPSOL"}, {"lat": -3.85986, "lng": 43.36172, "price": 1.515, "name": "CAMPSA"}, {"lat": -2.80544, "lng": 36.75856, "price": 1.515, "name": "REPSOL"}, {"lat": -3.79828, "lng": 40.42003, "price": 1.515, "name": "REPSOL"}, {"lat": -6.2005, "lng": 37.36206, "price": 1.515, "name": "E.S. VIRGEN DE LAS NIEVES"}, {"lat": 2.77803, "lng": 41.67883, "price": 1.515, "name": "REPSOL"}, {"lat": -3.70142, "lng": 40.2715, "price": 1.515, "name": "SHELL"}, {"lat": -3.82503, "lng": 40.35703, "price": 1.515, "name": "REPSOL"}, {"lat": -3.39006, "lng": 42.80622, "price": 1.515, "name": "E.S. BASURTO, S.L."}, {"lat": -3.04597, "lng": 43.31964, "price": 1.515, "name": "REPSOL"}, {"lat": -3.84731, "lng": 40.32433, "price": 1.515, "name": "REPSOL"}, {"lat": -4.08511, "lng": 40.66964, "price": 1.515, "name": "BP GUADARRAMA"}, {"lat": -3.23719, "lng": 39.38636, "price": 1.515, "name": "CARREFOUR"}, {"lat": -1.19753, "lng": 37.98972, "price": 1.515, "name": "EL LIMONAR"}, {"lat": -5.61028, "lng": 40.94975, "price": 1.515, "name": "REPSOL"}, {"lat": -5.67733, "lng": 38.27514, "price": 1.515, "name": "SEA"}, {"lat": 2.89989, "lng": 42.03372, "price": 1.515, "name": "SARAS"}, {"lat": -5.67475, "lng": 40.955, "price": 1.515, "name": "CAMPSA"}, {"lat": -6.21656, "lng": 36.60908, "price": 1.515, "name": "LA VICTORIA"}, {"lat": -1.9205, "lng": 38.86756, "price": 1.516, "name": "LOZANO"}, {"lat": -5.41119, "lng": 36.20389, "price": 1.516, "name": "CODES"}, {"lat": -4.00983, "lng": 40.58389, "price": 1.516, "name": "BP-LA POCILLA - GALAPAGAR"}, {"lat": -0.47319, "lng": 38.98767, "price": 1.517, "name": "JSH"}, {"lat": -5.45428, "lng": 36.14983, "price": 1.517, "name": "SARAS"}, {"lat": -0.46097, "lng": 39.26122, "price": 1.517, "name": "PETROLEOS CN-340"}, {"lat": -4.01122, "lng": 43.41383, "price": 1.518, "name": "EL CENTRO"}, {"lat": -5.67825, "lng": 38.91956, "price": 1.518, "name": "PK 11"}, {"lat": -6.71272, "lng": 38.85228, "price": 1.518, "name": "SARAS"}, {"lat": -5.80506, "lng": 37.20925, "price": 1.518, "name": "SARAS"}, {"lat": 1.94681, "lng": 41.795, "price": 1.518, "name": "MEROIL"}, {"lat": 2.13342, "lng": 41.38183, "price": 1.518, "name": "MEROIL"}, {"lat": -5.78406, "lng": 43.38275, "price": 1.519, "name": "SUPRA CARBURANTES"}, {"lat": -3.73875, "lng": 36.73656, "price": 1.519, "name": "E.S.LA HERRADURA,S.A."}, {"lat": 2.45461, "lng": 41.69356, "price": 1.519, "name": "OCTANO"}, {"lat": 2.49678, "lng": 41.55561, "price": 1.519, "name": "MEROIL"}, {"lat": -3.83047, "lng": 43.45006, "price": 1.519, "name": "VIDAL DE LA PENA"}, {"lat": -0.82844, "lng": 38.14811, "price": 1.519, "name": "SANTA AGUEDA"}, {"lat": -2.82856, "lng": 36.76831, "price": 1.519, "name": "EJIDO OESTE"}, {"lat": -3.87322, "lng": 40.45836, "price": 1.519, "name": "CEPSA"}, {"lat": -3.07853, "lng": 43.30722, "price": 1.519, "name": "E.S.EL CAMPILLO"}, {"lat": -3.90433, "lng": 40.60503, "price": 1.519, "name": "CEPSA"}, {"lat": -4.72828, "lng": 37.13761, "price": 1.519, "name": "AGLA"}, {"lat": -6.92111, "lng": 38.88781, "price": 1.519, "name": "SARAS"}, {"lat": -2.74822, "lng": 36.75742, "price": 1.519, "name": "ES NORIAS"}, {"lat": -5.14144, "lng": 38.21278, "price": 1.519, "name": "MEROIL"}, {"lat": -6.03481, "lng": 37.42314, "price": 1.52, "name": "E.S. MARIA AUXILIADORA"}, {"lat": -3.92817, "lng": 42.37986, "price": 1.52, "name": "E.S.SAIZ"}, {"lat": -7.02281, "lng": 38.82986, "price": 1.52, "name": "CAMPSA"}, {"lat": -6.96498, "lng": 38.90627, "price": 1.52, "name": "REPSOL"}, {"lat": -1.66761, "lng": 41.32461, "price": 1.52, "name": "E.S. VALDEHERRERA"}, {"lat": -0.58533, "lng": 38.61689, "price": 1.52, "name": "E.S. CANIZARES"}, {"lat": 2.82348, "lng": 42.02015, "price": 1.52, "name": "PETREM"}, {"lat": -8.86197, "lng": 42.99786, "price": 1.52, "name": "E.S. MUINO GRANDE"}, {"lat": -6.76481, "lng": 38.3265, "price": 1.52, "name": "PETRONOR"}, {"lat": -3.70378, "lng": 40.44231, "price": 1.521, "name": "REPSOL"}, {"lat": -3.92125, "lng": 40.30331, "price": 1.521, "name": "REPSOL"}, {"lat": -0.05494, "lng": 39.9925, "price": 1.521, "name": "CEPSA"}, {"lat": -2.99864, "lng": 39.84681, "price": 1.521, "name": "HPG"}, {"lat": -1.87172, "lng": 38.99467, "price": 1.521, "name": "REPSOL"}, {"lat": 1.19122, "lng": 41.92075, "price": 1.521, "name": "ONDINA DEL SEGRE"}, {"lat": -8.58255, "lng": 42.84972, "price": 1.521, "name": "ESTACION DE SERVICIO NOVO"}, {"lat": -3.77453, "lng": 40.78072, "price": 1.521, "name": "REPSOL"}, {"lat": -6.36036, "lng": 38.40367, "price": 1.522, "name": "SARAS"}, {"lat": -7.55411, "lng": 43.2365, "price": 1.522, "name": "CAMPSA"}, {"lat": -5.84661, "lng": 37.34758, "price": 1.522, "name": "SHELL"}, {"lat": -5.81578, "lng": 43.37114, "price": 1.522, "name": "REPSOL"}, {"lat": -0.49592, "lng": 39.55997, "price": 1.522, "name": "E.S MARIOLA S.L"}, {"lat": -3.82892, "lng": 43.45803, "price": 1.522, "name": "E.S.VALDECILLA"}, {"lat": -0.32078, "lng": 39.58508, "price": 1.523, "name": "COARVAL"}, {"lat": -0.84819, "lng": 37.74703, "price": 1.523, "name": "LO SOLA"}, {"lat": 2.54489, "lng": 42.05303, "price": 1.523, "name": "SARAS"}, {"lat": -5.43583, "lng": 36.42128, "price": 1.523, "name": "CEPSA"}, {"lat": -4.91958, "lng": 37.69811, "price": 1.524, "name": "SARAS"}, {"lat": 2.06189, "lng": 41.36764, "price": 1.524, "name": "MEROIL"}, {"lat": 0.15214, "lng": 38.73897, "price": 1.525, "name": "(SIN ROTULO)"}, {"lat": -3.87622, "lng": 40.90714, "price": 1.525, "name": "CEPSA"}, {"lat": -3.82039, "lng": 40.46883, "price": 1.525, "name": "REPSOL"}, {"lat": -1.28542, "lng": 38.11686, "price": 1.525, "name": "REPSOL"}, {"lat": -3.68528, "lng": 40.21833, "price": 1.525, "name": "REPSOL"}, {"lat": -4.13592, "lng": 36.79411, "price": 1.525, "name": "AGLA"}, {"lat": -5.47944, "lng": 39.33333, "price": 1.525, "name": "REPSOL"}, {"lat": -3.78275, "lng": 41.64842, "price": 1.525, "name": "CEPSA"}, {"lat": -7.40097, "lng": 37.21425, "price": 1.525, "name": "GALP"}, {"lat": 0.90819, "lng": 40.98906, "price": 1.525, "name": "REPSOL"}, {"lat": -3.39064, "lng": 38.75211, "price": 1.525, "name": "REPSOL"}, {"lat": -3.63128, "lng": 37.12167, "price": 1.525, "name": "REPSOL"}, {"lat": -3.42675, "lng": 40.70539, "price": 1.525, "name": "REPSOL"}, {"lat": -0.53467, "lng": 39.47211, "price": 1.525, "name": "REPSOL"}, {"lat": -3.73664, "lng": 40.31111, "price": 1.525, "name": "SHELL"}, {"lat": -3.68469, "lng": 40.21869, "price": 1.525, "name": "REPSOL"}, {"lat": -1.59278, "lng": 39.36686, "price": 1.525, "name": "REPSOL"}, {"lat": -3.67756, "lng": 40.45728, "price": 1.525, "name": "SHELL"}, {"lat": -4.11769, "lng": 40.08717, "price": 1.525, "name": "AGUDO GASOLEOS"}, {"lat": -0.53606, "lng": 39.47158, "price": 1.525, "name": "CAMPSA"}, {"lat": -3.06436, "lng": 38.58836, "price": 1.525, "name": "REPSOL"}, {"lat": -3.63439, "lng": 40.53783, "price": 1.525, "name": "REPSOL"}, {"lat": -6.32378, "lng": 37.35819, "price": 1.526, "name": "A-49 PILAS"}, {"lat": -3.15264, "lng": 37.32047, "price": 1.526, "name": "GUADIX NORTE"}, {"lat": -2.92628, "lng": 39.96114, "price": 1.526, "name": "BLANCA"}, {"lat": -5.45519, "lng": 36.15122, "price": 1.526, "name": "BP"}, {"lat": -2.41972, "lng": 36.84083, "price": 1.526, "name": "LOS PARTIDORES"}, {"lat": -1.06208, "lng": 38.06003, "price": 1.526, "name": "BP"}, {"lat": -3.21569, "lng": 37.32889, "price": 1.526, "name": "RIO FARDES"}, {"lat": -3.65033, "lng": 37.44436, "price": 1.526, "name": "LA PAZ (ROALBA)"}, {"lat": 0.14181, "lng": 40.51542, "price": 1.526, "name": "CEPSA"}, {"lat": -0.55539, "lng": 38.34825, "price": 1.527, "name": "PETROALACANT"}, {"lat": -5.88656, "lng": 39.41094, "price": 1.527, "name": "SARAS"}, {"lat": -0.51806, "lng": 38.83622, "price": 1.527, "name": "CEPSA"}, {"lat": -6.52089, "lng": 39.96897, "price": 1.527, "name": "SARAS"}, {"lat": -0.3785, "lng": 39.48306, "price": 1.528, "name": "E.S. LA TORRETA"}, {"lat": -2.44561, "lng": 36.84003, "price": 1.528, "name": "BP MONTSERRAT - ALMERIA"}, {"lat": -3.53081, "lng": 36.74203, "price": 1.528, "name": "ALCAMPO MOTRIL"}, {"lat": -0.37322, "lng": 39.45264, "price": 1.528, "name": "E.S. SUR"}, {"lat": -2.44864, "lng": 36.86553, "price": 1.528, "name": "BP RAMBLA INIESTA"}, {"lat": -5.87128, "lng": 43.54756, "price": 1.528, "name": "REPSOL"}, {"lat": -2.43947, "lng": 36.84117, "price": 1.528, "name": "SIERRA ALHAMILLA"}, {"lat": -6.15728, "lng": 43.41278, "price": 1.528, "name": "REPSOL"}, {"lat": -8.42278, "lng": 42.09208, "price": 1.528, "name": "PETRONOR"}, {"lat": -3.85919, "lng": 40.728, "price": 1.529, "name": "REPSOL"}, {"lat": -3.95531, "lng": 43.35522, "price": 1.529, "name": "AVIA"}, {"lat": -6.3485, "lng": 39.44281, "price": 1.529, "name": "GALP"}, {"lat": -2.80606, "lng": 36.75406, "price": 1.529, "name": "BP ALMERIMAR"}, {"lat": -3.58039, "lng": 37.12292, "price": 1.529, "name": "BP LA ZUBIA"}, {"lat": -6.68539, "lng": 39.11567, "price": 1.529, "name": "CEPSA"}, {"lat": 2.25394, "lng": 41.94219, "price": 1.529, "name": "SHELL"}, {"lat": -6.29672, "lng": 39.46492, "price": 1.529, "name": "GALP"}, {"lat": -4.03958, "lng": 38.03936, "price": 1.529, "name": "SARAS"}, {"lat": -7.60597, "lng": 43.08422, "price": 1.529, "name": "SARAS ENERGIA, S.A."}, {"lat": -3.53125, "lng": 40.33881, "price": 1.529, "name": "SHELL"}, {"lat": -3.76889, "lng": 38.09369, "price": 1.529, "name": "AREA DE SERVICIO EL DELFI"}, {"lat": -8.85531, "lng": 43.05694, "price": 1.529, "name": "E.S. CABREIRA"}, {"lat": -0.84878, "lng": 38.08981, "price": 1.529, "name": "REVISOIL"}, {"lat": -6.68842, "lng": 38.91033, "price": 1.529, "name": "REPSOL"}, {"lat": 2.77794, "lng": 42.10858, "price": 1.529, "name": "POSTE DE MATA"}, {"lat": -3.70537, "lng": 40.48321, "price": 1.529, "name": "REPSOL"}, {"lat": -3.63606, "lng": 37.02825, "price": 1.529, "name": "E.S.PADUL"}, {"lat": -4.05408, "lng": 37.50053, "price": 1.529, "name": "23ESO68F"}, {"lat": -3.79803, "lng": 37.97024, "price": 1.529, "name": "ARENAS CAMACHO, S.L."}, {"lat": -5.7854, "lng": 38.97082, "price": 1.529, "name": "CEPSA"}, {"lat": -3.63767, "lng": 37.52982, "price": 1.529, "name": "BLANCA"}, {"lat": -0.77519, "lng": 38.13128, "price": 1.529, "name": "MAYAYO"}, {"lat": -3.89061, "lng": 43.46781, "price": 1.529, "name": "EXPOMARINA"}, {"lat": -8.15836, "lng": 43.51625, "price": 1.53, "name": "E.S. SANTA RITA"}, {"lat": -5.46022, "lng": 37.12108, "price": 1.53, "name": "REPSOL"}, {"lat": -5.44936, "lng": 36.14531, "price": 1.53, "name": "BP OIL"}, {"lat": -8.86769, "lng": 43.27986, "price": 1.53, "name": "E S A CAMPARA"}, {"lat": -3.66739, "lng": 40.45886, "price": 1.53, "name": "REPSOL"}, {"lat": 0.61611, "lng": 41.60789, "price": 1.53, "name": "REPSOL"}, {"lat": -8.01742, "lng": 42.51303, "price": 1.53, "name": "CEPSA"}, {"lat": -7.32422, "lng": 37.20731, "price": 1.531, "name": "REPSOL"}, {"lat": -8.70147, "lng": 43.21942, "price": 1.531, "name": "CEPSA"}, {"lat": -5.4505, "lng": 36.12292, "price": 1.531, "name": "BP"}, {"lat": -4.53461, "lng": 37.02931, "price": 1.531, "name": "CAMPSA"}, {"lat": -5.96881, "lng": 37.32175, "price": 1.531, "name": "(SIN ROTULO)"}, {"lat": -3.67558, "lng": 40.46381, "price": 1.531, "name": "CEPSA"}, {"lat": -5.69122, "lng": 43.53383, "price": 1.531, "name": "SHELL"}, {"lat": -7.31003, "lng": 37.19928, "price": 1.531, "name": "REPSOL"}, {"lat": -5.28908, "lng": 43.48136, "price": 1.531, "name": "CEPSA"}, {"lat": -0.40364, "lng": 39.45933, "price": 1.531, "name": "FUSA"}, {"lat": -4.54997, "lng": 37.02272, "price": 1.531, "name": "REPSOL"}, {"lat": -5.72636, "lng": 37.38428, "price": 1.531, "name": "BP"}, {"lat": -6.28972, "lng": 37.30191, "price": 1.531, "name": "E.S.ALCARAYON (BP OIL)"}, {"lat": -5.28319, "lng": 43.4825, "price": 1.531, "name": "CEPSA"}, {"lat": -1.29303, "lng": 37.58691, "price": 1.531, "name": "BP"}, {"lat": -7.26472, "lng": 42.47422, "price": 1.531, "name": "REPSOL"}, {"lat": -4.65789, "lng": 37.05175, "price": 1.531, "name": "EL CANAL-CAMPILLO"}, {"lat": -4.72369, "lng": 41.59464, "price": 1.532, "name": "SHELL"}, {"lat": -6.39992, "lng": 38.41544, "price": 1.532, "name": "CEPSA"}, {"lat": -3.57789, "lng": 37.14783, "price": 1.532, "name": "CEPSA"}, {"lat": -8.52358, "lng": 43.29636, "price": 1.532, "name": "E.S. LA HERMIDA"}, {"lat": -5.04647, "lng": 41.88097, "price": 1.532, "name": "CAMPSA"}, {"lat": 2.03731, "lng": 41.50686, "price": 1.532, "name": "BP"}, {"lat": -2.82611, "lng": 36.77128, "price": 1.532, "name": "BP EL  EJIDO"}, {"lat": 2.26586, "lng": 41.93311, "price": 1.532, "name": "BP"}, {"lat": -7.09858, "lng": 37.44422, "price": 1.532, "name": "SARAS"}, {"lat": -8.09044, "lng": 42.42964, "price": 1.532, "name": "CAMPSA"}, {"lat": -4.84325, "lng": 39.93097, "price": 1.533, "name": "REPSOL"}, {"lat": -5.82067, "lng": 36.755, "price": 1.533, "name": "BP OIL ESPANA S.A."}, {"lat": 0.42592, "lng": 40.41042, "price": 1.533, "name": "CEEOIL"}, {"lat": -6.60803, "lng": 38.90242, "price": 1.534, "name": "GALP ENERGIA"}, {"lat": -6.28378, "lng": 43.55758, "price": 1.534, "name": "REPSOL"}, {"lat": 2.83364, "lng": 41.99447, "price": 1.534, "name": "GM"}, {"lat": -0.09456, "lng": 40.60961, "price": 1.535, "name": "PETRONOR"}, {"lat": -0.93025, "lng": 39.45033, "price": 1.535, "name": "LAS MORATILLAS"}, {"lat": -5.64703, "lng": 40.96008, "price": 1.535, "name": "REPSOL"}, {"lat": -5.98352, "lng": 37.41438, "price": 1.535, "name": "E.S. SAN LAZARO"}, {"lat": -1.01011, "lng": 37.79871, "price": 1.535, "name": "REPSOL"}, {"lat": -8.61453, "lng": 43.25047, "price": 1.535, "name": "E.S. SAN MARCOS"}, {"lat": -5.93503, "lng": 37.38697, "price": 1.535, "name": "REPSOL"}, {"lat": 2.39469, "lng": 41.51422, "price": 1.535, "name": "REPSOL"}, {"lat": -7.20489, "lng": 37.243, "price": 1.535, "name": "CEPSA"}, {"lat": -3.68661, "lng": 40.78442, "price": 1.535, "name": "REPSOL"}, {"lat": -0.40447, "lng": 39.48769, "price": 1.535, "name": "REPSOL"}, {"lat": -6.00611, "lng": 37.372, "price": 1.535, "name": "E.S. PARQUE DE LOS PRINCI"}, {"lat": -3.21028, "lng": 40.61028, "price": 1.535, "name": "REPSOL"}, {"lat": -4.98397, "lng": 39.65411, "price": 1.535, "name": "PETRONOR"}, {"lat": -6.05075, "lng": 40.84997, "price": 1.535, "name": "BERNAL"}, {"lat": -6.39342, "lng": 38.67694, "price": 1.535, "name": "CAMPSA"}, {"lat": -5.20672, "lng": 42.09194, "price": 1.535, "name": "CEPSA"}, {"lat": -1.01094, "lng": 39.47169, "price": 1.535, "name": "REPSOL"}, {"lat": -0.34778, "lng": 39.46419, "price": 1.535, "name": "REPSOL"}, {"lat": -0.95239, "lng": 37.73311, "price": 1.535, "name": "REPSOL"}, {"lat": -3.86, "lng": 40.44878, "price": 1.535, "name": "REPSOL"}, {"lat": -1.37772, "lng": 38.20727, "price": 1.535, "name": "LAS COLONIAS"}, {"lat": -8.36989, "lng": 43.29406, "price": 1.535, "name": "S. ALVEDRO"}, {"lat": -9.02875, "lng": 43.112, "price": 1.535, "name": "PETRONOR"}, {"lat": 0.00031, "lng": 38.85528, "price": 1.535, "name": "BIOIL"}, {"lat": -0.87283, "lng": 37.783, "price": 1.535, "name": "REPSOL"}, {"lat": -2.87675, "lng": 39.50317, "price": 1.535, "name": "CAMPSA"}, {"lat": -3.16686, "lng": 40.75014, "price": 1.535, "name": "REPSOL"}, {"lat": -6.32878, "lng": 40.08183, "price": 1.535, "name": "CEPSA"}, {"lat": -4.19175, "lng": 41.14303, "price": 1.535, "name": "REPSOL"}, {"lat": -0.18022, "lng": 38.53644, "price": 1.535, "name": "ZARCAR"}, {"lat": -0.94908, "lng": 37.74196, "price": 1.535, "name": "CAMPSA"}, {"lat": -4.41672, "lng": 41.40472, "price": 1.535, "name": "REPSOL"}, {"lat": -6.17172, "lng": 36.87172, "price": 1.535, "name": "REPSOL"}, {"lat": -3.63394, "lng": 40.5375, "price": 1.535, "name": "REPSOL"}, {"lat": -7.40919, "lng": 43.20781, "price": 1.536, "name": "SARAS"}, {"lat": 2.73197, "lng": 41.89206, "price": 1.536, "name": "VILOBI"}, {"lat": -4.49358, "lng": 40.40967, "price": 1.536, "name": "SARAS"}, {"lat": -4.02111, "lng": 39.91419, "price": 1.536, "name": "CEPSA"}, {"lat": -4.99297, "lng": 36.494, "price": 1.536, "name": "LAS MEDRANAS"}, {"lat": 2.22884, "lng": 41.56411, "price": 1.536, "name": "SHELL"}, {"lat": 2.37912, "lng": 41.49572, "price": 1.536, "name": "BPOIL"}, {"lat": -4.63203, "lng": 36.59942, "price": 1.536, "name": "BP.EL PUERTO DE MIJAS"}, {"lat": 2.171, "lng": 41.44364, "price": 1.536, "name": "BP"}, {"lat": 1.42828, "lng": 42.34661, "price": 1.536, "name": "VALENTI"}, {"lat": -7.81661, "lng": 42.28972, "price": 1.536, "name": "E. S. SAN CIBRAO, S. L."}, {"lat": -3.6117, "lng": 40.42654, "price": 1.537, "name": "GALP"}, {"lat": 3.1045, "lng": 42.2635, "price": 1.537, "name": "E.S.MEX"}, {"lat": -5.88108, "lng": 37.38175, "price": 1.537, "name": "CEPSA"}, {"lat": -3.04236, "lng": 40.032, "price": 1.537, "name": "MANZANARES RUIZ, S.A."}, {"lat": -8.14831, "lng": 43.599, "price": 1.537, "name": "SHELL"}, {"lat": -3.62609, "lng": 40.42648, "price": 1.537, "name": "GALP"}, {"lat": -3.04106, "lng": 40.03294, "price": 1.537, "name": "MANZANARES RUIZ,S.A."}, {"lat": -8.81925, "lng": 43.26194, "price": 1.537, "name": "CEPSA"}, {"lat": -8.74458, "lng": 42.58733, "price": 1.537, "name": "SARAS"}, {"lat": -3.00478, "lng": 40.00283, "price": 1.537, "name": "REPSOL"}, {"lat": -1.87011, "lng": 37.48119, "price": 1.537, "name": "ANDAMUR EL LIMITE"}, {"lat": -8.65285, "lng": 42.72574, "price": 1.538, "name": "CAMPSA"}, {"lat": -3.08125, "lng": 39.59436, "price": 1.538, "name": "PETRONOR"}, {"lat": -5.08925, "lng": 43.46442, "price": 1.538, "name": "ALIMERKA"}, {"lat": -8.48714, "lng": 42.92275, "price": 1.538, "name": "REPSOL"}, {"lat": -8.40311, "lng": 43.09339, "price": 1.539, "name": "GALP"}, {"lat": -8.20633, "lng": 43.48914, "price": 1.539, "name": "CEPSA"}, {"lat": -1.7015, "lng": 37.64731, "price": 1.539, "name": "EL REMOLINO"}, {"lat": -5.07961, "lng": 40.209, "price": 1.539, "name": "FERNANDEZ BERMEJO"}, {"lat": -5.71578, "lng": 36.43769, "price": 1.539, "name": "CEPSA"}, {"lat": -7.02244, "lng": 42.72656, "price": 1.539, "name": "REPSOL"}, {"lat": -1.39064, "lng": 38.20842, "price": 1.539, "name": "E.S.MONTEPINAR"}, {"lat": -5.04408, "lng": 40.18292, "price": 1.539, "name": "FERNANDEZ BERMEJO"}, {"lat": 1.89757, "lng": 41.51531, "price": 1.539, "name": "HAM"}, {"lat": -0.37733, "lng": 39.42847, "price": 1.539, "name": "E.S. FORN D'ALCEDO S.L."}, {"lat": -5.74781, "lng": 41.50706, "price": 1.539, "name": "LOSADA-RONDA"}, {"lat": -3.76703, "lng": 37.25844, "price": 1.539, "name": "CEPSA"}, {"lat": -0.37469, "lng": 39.27378, "price": 1.539, "name": "SAROIL"}, {"lat": -3.61753, "lng": 37.12314, "price": 1.539, "name": "BP OGIPLATA"}, {"lat": 2.81172, "lng": 42.06383, "price": 1.539, "name": "PETROESTANY"}, {"lat": -1.27061, "lng": 38.56, "price": 1.539, "name": "EL ALTIPLANO"}, {"lat": -1.68156, "lng": 37.68214, "price": 1.539, "name": "EUROPA"}, {"lat": -4.45539, "lng": 37.47242, "price": 1.539, "name": "SARAS"}, {"lat": -5.73636, "lng": 41.51058, "price": 1.539, "name": "LOSADA-AVENIDA"}, {"lat": -8.8015, "lng": 43.28753, "price": 1.539, "name": "CERQUEDA SL"}, {"lat": -8.673, "lng": 43.20489, "price": 1.539, "name": "SHELL"}, {"lat": -1.61489, "lng": 37.64011, "price": 1.539, "name": "EE.SS LA BALSICA"}, {"lat": -1.89042, "lng": 38.18364, "price": 1.539, "name": "E.S.HNOS.BLAZQUEZ SL"}, {"lat": -0.89561, "lng": 37.61306, "price": 1.54, "name": "PETRONOR"}, {"lat": -1.68581, "lng": 37.55564, "price": 1.54, "name": "E.S OLIVA"}, {"lat": -6.18753, "lng": 38.94756, "price": 1.54, "name": "AREA DE SERVICIO RUTA 5"}, {"lat": -5.66064, "lng": 39.82806, "price": 1.54, "name": "SHELL"}, {"lat": 0.09972, "lng": 38.84833, "price": 1.54, "name": "MOSCARDO"}, {"lat": -3.39906, "lng": 39.18047, "price": 1.54, "name": "REPSOL"}, {"lat": -0.87667, "lng": 37.62208, "price": 1.54, "name": "REPSOL"}, {"lat": -3.64344, "lng": 37.23558, "price": 1.54, "name": "REPSOL"}, {"lat": -3.99078, "lng": 37.00367, "price": 1.54, "name": "HEREDEROS JUAN PEREZ CASE"}, {"lat": 2.48797, "lng": 41.55222, "price": 1.54, "name": "PETROLIS MIRAMAR"}, {"lat": -3.628, "lng": 37.21997, "price": 1.54, "name": "REPSOL"}, {"lat": -1.31814, "lng": 38.50614, "price": 1.54, "name": "CAMPSA"}, {"lat": -0.6815, "lng": 38.62628, "price": 1.54, "name": "BP"}, {"lat": -3.70939, "lng": 37.19261, "price": 1.54, "name": "LA REAL SANTA FE"}, {"lat": -8.45019, "lng": 42.96422, "price": 1.54, "name": "E.S. SIGUEIRO"}, {"lat": -0.81647, "lng": 38.46172, "price": 1.54, "name": "E.S. CAMPOALTO"}, {"lat": -3.39164, "lng": 38.9015, "price": 1.54, "name": "REPSOL"}, {"lat": -6.35647, "lng": 36.77164, "price": 1.54, "name": "BP OIL"}, {"lat": -6.236, "lng": 36.60836, "price": 1.54, "name": "ARANCIA"}, {"lat": -6.13964, "lng": 37.42222, "price": 1.541, "name": "EL OLIVO"}, {"lat": -5.87811, "lng": 37.54342, "price": 1.541, "name": "CEPSA"}, {"lat": -7.07978, "lng": 37.31858, "price": 1.541, "name": "CEPSA"}, {"lat": -3.63172, "lng": 37.50514, "price": 1.541, "name": "ROALBA"}, {"lat": -3.60161, "lng": 37.48731, "price": 1.541, "name": "ESTACION DE SERVICIO ANER"}, {"lat": -4.12328, "lng": 36.79961, "price": 1.541, "name": "REPSOL"}, {"lat": -1.22797, "lng": 37.73227, "price": 1.541, "name": "EL BADEN"}, {"lat": -5.95314, "lng": 37.29519, "price": 1.541, "name": "BP MONTEQUINTO"}, {"lat": -3.80347, "lng": 37.19597, "price": 1.541, "name": "BP ZONA DE SERVICOS EL MO"}, {"lat": -5.95014, "lng": 37.48508, "price": 1.541, "name": "CEPSA"}, {"lat": -4.08294, "lng": 36.74817, "price": 1.541, "name": "REPSOL"}, {"lat": -4.91186, "lng": 36.50928, "price": 1.541, "name": "EL ROCIO DE NAGUELLES"}, {"lat": -7.42128, "lng": 43.67486, "price": 1.541, "name": "10370"}, {"lat": -6.37753, "lng": 41.32158, "price": 1.541, "name": "CEPSA"}, {"lat": -4.71003, "lng": 36.76378, "price": 1.541, "name": "HEREDEROS DE SALVADOR REI"}, {"lat": -4.68933, "lng": 36.71956, "price": 1.541, "name": "RIO GRANDE"}, {"lat": -3.80339, "lng": 39.69031, "price": 1.541, "name": "REPSOL"}, {"lat": -3.10311, "lng": 38.02878, "price": 1.542, "name": "CEPSA"}, {"lat": -3.28192, "lng": 37.35947, "price": 1.542, "name": "CEPSA"}, {"lat": -4.29814, "lng": 40.74919, "price": 1.542, "name": "BP"}, {"lat": -8.26694, "lng": 43.31347, "price": 1.542, "name": "CEPSA"}, {"lat": -3.16819, "lng": 37.34739, "price": 1.542, "name": "CEPSA"}, {"lat": -3.09656, "lng": 38.11269, "price": 1.542, "name": "CEPSA"}, {"lat": -6.53256, "lng": 37.34244, "price": 1.542, "name": "SUTACON"}, {"lat": -3.46886, "lng": 41.33231, "price": 1.543, "name": "BUQUERIN"}, {"lat": -2.58486, "lng": 36.81108, "price": 1.543, "name": "AGUADULCE"}, {"lat": -3.64758, "lng": 38.10436, "price": 1.543, "name": "CEPSA"}, {"lat": -3.48514, "lng": 41.27692, "price": 1.543, "name": "BUQUERIN"}, {"lat": -5.84903, "lng": 40.34081, "price": 1.543, "name": "CEPSA"}, {"lat": -8.88278, "lng": 43.15731, "price": 1.543, "name": "CEPSA"}, {"lat": -3.38389, "lng": 41.41747, "price": 1.543, "name": "BUQUERIN"}, {"lat": -3.43031, "lng": 39.25033, "price": 1.544, "name": "TARAY"}, {"lat": -5.56847, "lng": 43.24917, "price": 1.544, "name": "REPSOL"}, {"lat": -3.63792, "lng": 38.11172, "price": 1.544, "name": "BP OIL ESPANA E.S.SAN GON"}, {"lat": -3.65036, "lng": 38.09139, "price": 1.544, "name": "BP OIL ESPANA, S.A."}, {"lat": -3.92761, "lng": 37.46767, "price": 1.544, "name": "SARAS"}, {"lat": -3.36464, "lng": 36.72053, "price": 1.544, "name": "CASTELL DE FERRO"}, {"lat": -4.50303, "lng": 36.61503, "price": 1.545, "name": "REPSOL"}, {"lat": -8.63628, "lng": 42.80472, "price": 1.545, "name": "GALP"}, {"lat": -5.52425, "lng": 39.89111, "price": 1.545, "name": "REPSOL"}, {"lat": -2.15828, "lng": 39.48444, "price": 1.545, "name": "REPSOL"}, {"lat": -4.701, "lng": 36.82422, "price": 1.545, "name": "REPSOL"}, {"lat": -6.24642, "lng": 39.916, "price": 1.545, "name": "REPSOL"}, {"lat": -6.20328, "lng": 36.47339, "price": 1.545, "name": "REPSOL"}, {"lat": -0.67542, "lng": 38.29325, "price": 1.545, "name": "ABIERTO (SERVICIO ATENDID"}, {"lat": -3.00408, "lng": 38.17256, "price": 1.545, "name": "REPSOL"}, {"lat": -2.46733, "lng": 36.85208, "price": 1.545, "name": "REPSOL"}, {"lat": -4.61278, "lng": 42.63528, "price": 1.545, "name": "CAMPSA"}, {"lat": -0.66967, "lng": 38.00206, "price": 1.545, "name": "REPSOL"}, {"lat": -8.56675, "lng": 43.15964, "price": 1.545, "name": "CEPSA"}, {"lat": -5.32269, "lng": 37.23033, "price": 1.545, "name": "REPSOL"}, {"lat": -4.88, "lng": 37.30189, "price": 1.545, "name": "REPSOL"}, {"lat": -4.95511, "lng": 36.48692, "price": 1.545, "name": "CAMPSA"}, {"lat": -5.76244, "lng": 37.83728, "price": 1.545, "name": "REPSOL"}, {"lat": -6.11783, "lng": 36.68644, "price": 1.545, "name": "REPSOL"}, {"lat": -5.41228, "lng": 41.98742, "price": 1.545, "name": "REPSOL"}, {"lat": -1.32144, "lng": 38.48072, "price": 1.545, "name": "REPSOL"}, {"lat": -0.516, "lng": 38.33861, "price": 1.545, "name": "REPSOL"}, {"lat": -6.09364, "lng": 36.33983, "price": 1.545, "name": "REPSOL"}, {"lat": -5.91583, "lng": 36.47947, "price": 1.545, "name": "REPSOL"}, {"lat": -1.67011, "lng": 37.62236, "price": 1.545, "name": "REPSOL"}, {"lat": -1.33094, "lng": 37.89997, "price": 1.545, "name": "REPSOL"}, {"lat": -4.50708, "lng": 42.00572, "price": 1.545, "name": "REPOSTAR"}, {"lat": 2.03511, "lng": 41.474, "price": 1.545, "name": "JULIA"}, {"lat": -2.68692, "lng": 36.79606, "price": 1.545, "name": "CAMPSA"}, {"lat": -4.87975, "lng": 37.30236, "price": 1.545, "name": "REPSOL"}, {"lat": -5.67031, "lng": 41.01711, "price": 1.545, "name": "CAMPSA"}, {"lat": -0.83986, "lng": 38.43422, "price": 1.545, "name": "PETRONOR"}, {"lat": -5.97106, "lng": 37.33833, "price": 1.545, "name": "REPSOL"}, {"lat": -2.23, "lng": 36.86839, "price": 1.545, "name": "JCARRION"}, {"lat": -4.49481, "lng": 36.64139, "price": 1.545, "name": "REPSOL"}, {"lat": -8.10556, "lng": 43.01681, "price": 1.545, "name": "CORREDOIRAS"}, {"lat": -4.80031, "lng": 39.96372, "price": 1.545, "name": "REPSOL"}, {"lat": 2.95589, "lng": 42.22978, "price": 1.545, "name": "BP"}, {"lat": -3.80503, "lng": 40.01478, "price": 1.545, "name": "REPSOL"}, {"lat": -6.08981, "lng": 36.28119, "price": 1.545, "name": "REPSOL"}, {"lat": -5.6185, "lng": 37.86211, "price": 1.545, "name": "CAMPSA"}, {"lat": -4.51439, "lng": 36.60864, "price": 1.545, "name": "REPSOL"}, {"lat": -0.79708, "lng": 38.10478, "price": 1.545, "name": "REPSOL"}, {"lat": -5.49975, "lng": 37.26925, "price": 1.545, "name": "SHELL"}, {"lat": -5.50039, "lng": 37.27006, "price": 1.545, "name": "SHELL"}, {"lat": -5.18578, "lng": 39.92739, "price": 1.545, "name": "SARAS"}, {"lat": -1.22897, "lng": 38.95714, "price": 1.545, "name": "FRANCISCO SAEZ EGIDO"}, {"lat": -4.48978, "lng": 36.64458, "price": 1.545, "name": "REPSOL"}, {"lat": -5.01097, "lng": 36.47333, "price": 1.545, "name": "REPSOL"}, {"lat": -4.50231, "lng": 36.66089, "price": 1.546, "name": "BP"}, {"lat": -4.64114, "lng": 36.53775, "price": 1.546, "name": "BP"}, {"lat": -1.03564, "lng": 37.6115, "price": 1.546, "name": "B.P."}, {"lat": -2.38756, "lng": 37.05728, "price": 1.546, "name": "LA ERA"}, {"lat": -3.59417, "lng": 37.26006, "price": 1.546, "name": "GUEVEJAR"}, {"lat": -6.20583, "lng": 36.47086, "price": 1.546, "name": "BP"}, {"lat": -4.63044, "lng": 36.52011, "price": 1.546, "name": "BP"}, {"lat": -4.47183, "lng": 36.70972, "price": 1.546, "name": "E.S.BP POLIGONO ALAMEDA"}, {"lat": -4.70208, "lng": 40.65964, "price": 1.546, "name": "SEMANA No 42 DEL 15/10/07"}, {"lat": -6.27075, "lng": 36.49786, "price": 1.546, "name": "BP"}, {"lat": -4.68283, "lng": 36.50189, "price": 1.546, "name": "BP"}, {"lat": -4.67661, "lng": 36.64694, "price": 1.546, "name": "BP"}, {"lat": -5.89028, "lng": 37.37642, "price": 1.546, "name": "BP"}, {"lat": -5.792, "lng": 37.193, "price": 1.546, "name": "BP"}, {"lat": -3.47294, "lng": 38.59019, "price": 1.546, "name": "CEPSA"}, {"lat": -6.03733, "lng": 37.42997, "price": 1.546, "name": "SANTIPONCE"}, {"lat": -0.58558, "lng": 38.6165, "price": 1.546, "name": "IBI"}, {"lat": -4.29689, "lng": 36.72319, "price": 1.546, "name": "BP RINCON DE LA VICTORIA"}, {"lat": -4.70728, "lng": 36.61925, "price": 1.546, "name": "BP"}, {"lat": -4.49286, "lng": 36.65967, "price": 1.546, "name": "BP"}, {"lat": -4.57081, "lng": 36.65906, "price": 1.546, "name": "BP"}, {"lat": -3.89936, "lng": 37.77392, "price": 1.546, "name": "SAN ANDRES"}, {"lat": -6.14712, "lng": 36.52608, "price": 1.546, "name": "B.P."}, {"lat": -6.15133, "lng": 36.42769, "price": 1.546, "name": "BP"}, {"lat": -4.80544, "lng": 36.63644, "price": 1.546, "name": "BP"}, {"lat": -6.11022, "lng": 36.67372, "price": 1.546, "name": "BP"}, {"lat": -6.15303, "lng": 36.68433, "price": 1.547, "name": "SHELL"}, {"lat": -0.86903, "lng": 38.64353, "price": 1.547, "name": "LA MORENICA"}, {"lat": -0.94361, "lng": 37.89131, "price": 1.547, "name": "CEPSA"}, {"lat": -1.72641, "lng": 37.64188, "price": 1.547, "name": "ANDAMUR"}, {"lat": -8.17125, "lng": 42.93058, "price": 1.548, "name": "E.S.TEIRABOA"}, {"lat": -8.14467, "lng": 42.93017, "price": 1.548, "name": "REPSOL"}, {"lat": -2.40039, "lng": 37.59578, "price": 1.549, "name": "E.A. DE LAS VERTIENTES, S"}, {"lat": -3.00942, "lng": 40.76153, "price": 1.549, "name": "REPSOL"}, {"lat": -8.47642, "lng": 42.14544, "price": 1.549, "name": "CEPSA"}, {"lat": -8.67022, "lng": 43.04578, "price": 1.549, "name": "SARAS"}, {"lat": -0.68408, "lng": 38.28314, "price": 1.549, "name": "LA GALIA (HNOS AZORIN)"}, {"lat": -6.88314, "lng": 37.21753, "price": 1.549, "name": "BP OIL ESPANA"}, {"lat": -5.95564, "lng": 37.36278, "price": 1.549, "name": "SIN ROTULO"}, {"lat": -0.1395, "lng": 40.37967, "price": 1.549, "name": "CARCELLER ROYO S.L."}, {"lat": -8.09397, "lng": 42.31425, "price": 1.549, "name": "CEPSA"}, {"lat": -5.11517, "lng": 36.78364, "price": 1.549, "name": "RONDA-LOS PINOS"}, {"lat": 1.69769, "lng": 41.45153, "price": 1.549, "name": "NINGUNO"}, {"lat": -8.49606, "lng": 42.68794, "price": 1.549, "name": "BP"}, {"lat": -1.44278, "lng": 38.24869, "price": 1.549, "name": "E.S.GASOCENTRO EL ACHO"}, {"lat": -8.18789, "lng": 43.51864, "price": 1.549, "name": "GALP"}, {"lat": -0.45775, "lng": 38.71789, "price": 1.549, "name": "RED ACME"}, {"lat": -2.55139, "lng": 37.75269, "price": 1.549, "name": "E. S. SAN JOSE"}, {"lat": -6.09206, "lng": 36.70156, "price": 1.55, "name": "REPSOL"}, {"lat": -5.67253, "lng": 41.43533, "price": 1.55, "name": "PETRONOR"}, {"lat": -4.86103, "lng": 41.46139, "price": 1.55, "name": "REPSOL"}, {"lat": -5.73942, "lng": 42.35203, "price": 1.55, "name": "REPSOL"}, {"lat": -3.67194, "lng": 41.14917, "price": 1.55, "name": "ES LOPEZ DE PRADENA , SA"}, {"lat": -6.08919, "lng": 36.71156, "price": 1.55, "name": "CAMPSA"}, {"lat": 2.14681, "lng": 41.40186, "price": 1.55, "name": "REPSOL"}, {"lat": -0.83808, "lng": 38.42844, "price": 1.55, "name": "E.S. TEXAS"}, {"lat": -2.16833, "lng": 37.70797, "price": 1.55, "name": "REPSOL"}, {"lat": -5.78542, "lng": 41.95292, "price": 1.55, "name": "PETRONOR"}, {"lat": -4.33303, "lng": 40.59517, "price": 1.55, "name": "CAMPSA"}, {"lat": -0.47231, "lng": 38.35539, "price": 1.55, "name": "LA GOTETA"}, {"lat": -0.35231, "lng": 39.47625, "price": 1.55, "name": "REPSOL"}, {"lat": -5.57919, "lng": 42.60467, "price": 1.55, "name": "REPSOL"}, {"lat": -3.929, "lng": 41.25539, "price": 1.55, "name": "CAMPSA"}, {"lat": -4.64011, "lng": 41.65828, "price": 1.55, "name": "CAMPSA"}, {"lat": -3.3815, "lng": 38.01672, "price": 1.55, "name": "CARREFOUR"}, {"lat": -1.14392, "lng": 37.99978, "price": 1.55, "name": "EUROPETROL"}, {"lat": 2.73808, "lng": 41.81344, "price": 1.55, "name": "REPSOL"}, {"lat": -6.12544, "lng": 36.70778, "price": 1.55, "name": "REPSOL"}, {"lat": -1.26244, "lng": 38.02485, "price": 1.55, "name": "LOS VIENTOS"}, {"lat": -2.33956, "lng": 37.35825, "price": 1.55, "name": "REPSOL"}, {"lat": -6.12222, "lng": 36.70628, "price": 1.55, "name": "REPSOL"}, {"lat": -5.75756, "lng": 40.05514, "price": 1.551, "name": "REPSOL"}, {"lat": -5.04508, "lng": 37.5485, "price": 1.551, "name": "BP"}, {"lat": -2.1355, "lng": 37.37956, "price": 1.551, "name": "SAN JOSE"}, {"lat": -6.03917, "lng": 37.36339, "price": 1.551, "name": "BP"}, {"lat": -6.04489, "lng": 37.4445, "price": 1.551, "name": "E.S. DOLORES GONZALEZ VEL"}, {"lat": -6.31692, "lng": 42.02058, "price": 1.551, "name": "CEPSA"}, {"lat": -4.54506, "lng": 36.60058, "price": 1.551, "name": "TIVOLI"}, {"lat": -5.90961, "lng": 37.27994, "price": 1.551, "name": "BP"}, {"lat": -3.58696, "lng": 36.74825, "price": 1.551, "name": "BPOIL"}, {"lat": -5.92861, "lng": 37.16844, "price": 1.551, "name": "SHELL"}, {"lat": -5.93119, "lng": 37.27403, "price": 1.551, "name": "NTRA SRA DE VALME"}, {"lat": -6.04636, "lng": 37.38572, "price": 1.551, "name": "BP BENCIR(IKEA-CASTILLEJA"}, {"lat": -3.54231, "lng": 36.72822, "price": 1.551, "name": "BPOIL"}, {"lat": -2.78631, "lng": 41.80558, "price": 1.552, "name": "REPSOL"}, {"lat": -3.84875, "lng": 39.17417, "price": 1.553, "name": "CEPSA"}, {"lat": -7.80544, "lng": 42.31769, "price": 1.553, "name": "E. S. D. FRANQUE"}, {"lat": 2.00608, "lng": 41.43317, "price": 1.554, "name": "PETROCAT"}, {"lat": -3.94081, "lng": 38.97286, "price": 1.554, "name": "SHELL"}, {"lat": 3.03867, "lng": 42.19956, "price": 1.554, "name": "SARAS"}, {"lat": -8.44328, "lng": 42.83742, "price": 1.554, "name": "GASOLEOS SAN BENITO"}, {"lat": -4.66633, "lng": 36.71856, "price": 1.555, "name": "SAN MIGUEL"}, {"lat": -2.91669, "lng": 38.26144, "price": 1.555, "name": "REPSOL"}, {"lat": -2.33331, "lng": 37.98328, "price": 1.555, "name": "REPSOL"}, {"lat": -2.43444, "lng": 37.95722, "price": 1.555, "name": "CAMPSA"}, {"lat": -4.55011, "lng": 36.67369, "price": 1.555, "name": "LAS AMERICAS"}, {"lat": -4.42433, "lng": 36.76861, "price": 1.555, "name": "REPSOL"}, {"lat": -5.41014, "lng": 36.20722, "price": 1.555, "name": "E.S. MIRAFLORES"}, {"lat": -4.61664, "lng": 42.34117, "price": 1.555, "name": "RIO NUBIS"}, {"lat": -4.53317, "lng": 36.71981, "price": 1.555, "name": "REPSOL"}, {"lat": -2.64864, "lng": 41.06381, "price": 1.555, "name": "REPSOL"}, {"lat": -4.51033, "lng": 42.00294, "price": 1.555, "name": "REPSOL"}, {"lat": -6.27278, "lng": 36.50142, "price": 1.555, "name": "REPSOL"}, {"lat": -6.27631, "lng": 36.51261, "price": 1.555, "name": "REPSOL"}, {"lat": -3.20711, "lng": 42.41733, "price": 1.555, "name": "REPSOL"}, {"lat": -0.84306, "lng": 38.07694, "price": 1.555, "name": "REPSOL"}, {"lat": -5.0, "lng": 41.09297, "price": 1.555, "name": "F.COCA P. S.L."}, {"lat": -0.20286, "lng": 38.96839, "price": 1.555, "name": "REPSOL VARIANTE GANDIA"}, {"lat": -0.43456, "lng": 38.36364, "price": 1.555, "name": "CEPSA"}, {"lat": -6.27275, "lng": 36.49872, "price": 1.555, "name": "REPSOL"}, {"lat": -6.11925, "lng": 36.38858, "price": 1.555, "name": "REPSOL"}, {"lat": -7.16236, "lng": 39.21375, "price": 1.555, "name": "REPSOL"}, {"lat": 2.59183, "lng": 42.02269, "price": 1.555, "name": "CAMPSA"}, {"lat": -3.34692, "lng": 38.97867, "price": 1.555, "name": "SARAS"}, {"lat": -2.16097, "lng": 36.81578, "price": 1.555, "name": "REPSOL"}, {"lat": 2.66114, "lng": 41.90739, "price": 1.555, "name": "CAMPSA"}, {"lat": -2.73314, "lng": 40.48325, "price": 1.555, "name": "REPSOL"}, {"lat": -4.74156, "lng": 36.66869, "price": 1.555, "name": "REPSOL"}, {"lat": -6.27581, "lng": 36.50411, "price": 1.555, "name": "CAMPSA"}, {"lat": -5.46675, "lng": 40.93219, "price": 1.555, "name": "REPSOL"}, {"lat": -4.77803, "lng": 42.08042, "price": 1.555, "name": "S.E. SAN AGUSTIN S.L."}, {"lat": -4.6065, "lng": 36.73656, "price": 1.555, "name": "CEPSA"}, {"lat": -5.36861, "lng": 41.17139, "price": 1.555, "name": "LAS VEGAS COMBUSCYL"}, {"lat": -4.44217, "lng": 36.81333, "price": 1.555, "name": "REPSOL"}, {"lat": -7.26844, "lng": 37.49714, "price": 1.555, "name": "E.S. LA CRUZ DEL GALLO"}, {"lat": -4.67906, "lng": 36.65289, "price": 1.555, "name": "CAMPSA"}, {"lat": -4.82364, "lng": 39.96197, "price": 1.555, "name": "EDAN (REPSOL)"}, {"lat": -0.43933, "lng": 38.40694, "price": 1.555, "name": "EL SALT"}, {"lat": -0.59247, "lng": 38.29175, "price": 1.555, "name": "REPSOL"}, {"lat": -4.75314, "lng": 36.66314, "price": 1.555, "name": "REPSOL"}, {"lat": -6.14283, "lng": 36.69297, "price": 1.555, "name": "REPSOL"}, {"lat": -5.27939, "lng": 40.83047, "price": 1.555, "name": "PETRONOR"}, {"lat": -1.90986, "lng": 36.98769, "price": 1.556, "name": "BP OIL ESPANA"}, {"lat": -3.01053, "lng": 39.93147, "price": 1.558, "name": "E.S. VIRGEN DE LA SOLEDAD"}, {"lat": -4.50544, "lng": 36.70594, "price": 1.558, "name": "SHELL"}, {"lat": -3.72364, "lng": 38.1429, "price": 1.558, "name": "ANDAMUR"}, {"lat": -6.46858, "lng": 39.89887, "price": 1.559, "name": "CEPSA"}, {"lat": -4.75844, "lng": 40.63533, "price": 1.559, "name": "CEPSA"}, {"lat": -8.14681, "lng": 42.27439, "price": 1.559, "name": "E.R.G."}, {"lat": -0.95242, "lng": 38.09044, "price": 1.559, "name": "BP. (CAPUCHINOS)"}, {"lat": -4.67431, "lng": 40.66203, "price": 1.559, "name": "CEPSA"}, {"lat": -0.38031, "lng": 39.40994, "price": 1.559, "name": "E.S.CARY"}, {"lat": -5.47669, "lng": 39.78578, "price": 1.559, "name": "GASOLINERA LOS IBORES"}, {"lat": -4.37822, "lng": 37.88797, "price": 1.559, "name": "DISPESUR S.L."}, {"lat": 2.20825, "lng": 41.39903, "price": 1.559, "name": "SHELL VILLA OLIMPICA"}, {"lat": -6.40622, "lng": 38.40461, "price": 1.559, "name": "GASOLINERA SANCHO PEREZ"}, {"lat": -4.09717, "lng": 37.97175, "price": 1.559, "name": "DISPESUR S.L."}, {"lat": -0.50428, "lng": 39.19889, "price": 1.559, "name": "E.S. EL SERRALLO"}, {"lat": -0.87889, "lng": 38.09083, "price": 1.559, "name": "BP. SAN BARTOLOME LA CAMP"}, {"lat": 2.19308, "lng": 41.40464, "price": 1.559, "name": "SHELL GLORIAS"}, {"lat": -0.60317, "lng": 38.49822, "price": 1.559, "name": "XIRAU"}, {"lat": -4.67333, "lng": 40.66181, "price": 1.559, "name": "CEPSA"}, {"lat": -3.69511, "lng": 42.35869, "price": 1.559, "name": "AVIA VISTA ALEGRE"}, {"lat": -0.90333, "lng": 38.11131, "price": 1.559, "name": "REPSOL"}, {"lat": -0.26944, "lng": 38.92267, "price": 1.56, "name": "REPSOL"}, {"lat": -5.20597, "lng": 36.38869, "price": 1.56, "name": "REPSOL"}, {"lat": -0.16192, "lng": 38.98939, "price": 1.56, "name": "MOSCARDO"}, {"lat": -6.87656, "lng": 42.64633, "price": 1.562, "name": "E.S. TRABADELO"}, {"lat": -5.89803, "lng": 42.30444, "price": 1.562, "name": "CEPSA"}, {"lat": -4.77757, "lng": 41.13237, "price": 1.562, "name": "REPSOL"}, {"lat": -4.73354, "lng": 41.07809, "price": 1.562, "name": "VALCARCE"}, {"lat": -7.18072, "lng": 42.03211, "price": 1.563, "name": "REPSOL"}, {"lat": -3.76208, "lng": 42.36253, "price": 1.563, "name": "BP VILLALON"}, {"lat": -3.93992, "lng": 37.52106, "price": 1.564, "name": "AGLA"}, {"lat": -3.75472, "lng": 38.12581, "price": 1.564, "name": "CEPSA"}, {"lat": -4.75881, "lng": 37.89094, "price": 1.564, "name": "CEPSA"}, {"lat": -5.42075, "lng": 41.86583, "price": 1.564, "name": "SARAS"}, {"lat": -4.25653, "lng": 41.94008, "price": 1.565, "name": "REPSOL"}, {"lat": -5.25469, "lng": 36.93417, "price": 1.565, "name": "PETRONOR"}, {"lat": -4.30433, "lng": 36.71597, "price": 1.565, "name": "REPSOL"}, {"lat": -0.66442, "lng": 38.14361, "price": 1.565, "name": "MARINA DE LA PLANA"}, {"lat": -4.51042, "lng": 36.60669, "price": 1.565, "name": "CERRO LARGO"}, {"lat": -2.93406, "lng": 37.69981, "price": 1.565, "name": "REPSOL"}, {"lat": -3.97847, "lng": 36.73494, "price": 1.565, "name": "REPSOL"}, {"lat": -2.46658, "lng": 36.96075, "price": 1.565, "name": "REPSOL"}, {"lat": -4.38039, "lng": 36.72153, "price": 1.565, "name": "REPSOL"}, {"lat": -0.66075, "lng": 38.09403, "price": 1.565, "name": "GOMEZ Y SIRVENT"}, {"lat": -6.71058, "lng": 40.93747, "price": 1.565, "name": "63182867"}, {"lat": -5.53142, "lng": 36.06722, "price": 1.565, "name": "E.S. SALADILLO"}, {"lat": -2.7751, "lng": 37.49369, "price": 1.565, "name": "REPSOL"}, {"lat": -4.43328, "lng": 36.70803, "price": 1.565, "name": "REPSOL"}, {"lat": -3.59572, "lng": 41.258, "price": 1.565, "name": "BP"}, {"lat": -6.82919, "lng": 37.2785, "price": 1.565, "name": "PLATERO-AGLA"}, {"lat": -4.69008, "lng": 41.50897, "price": 1.565, "name": "CAMPSA"}, {"lat": -0.53411, "lng": 38.40142, "price": 1.565, "name": "REPSOL"}, {"lat": 2.17964, "lng": 41.43367, "price": 1.565, "name": "CAMPSA"}, {"lat": -4.5185, "lng": 38.02511, "price": 1.565, "name": "REPSOL"}, {"lat": -4.4405, "lng": 36.71167, "price": 1.565, "name": "REPSOL"}, {"lat": -0.56439, "lng": 39.91236, "price": 1.565, "name": "SHELL"}, {"lat": -3.73225, "lng": 42.30672, "price": 1.565, "name": "SHELL"}, {"lat": -0.21553, "lng": 39.04056, "price": 1.565, "name": "MEROIL"}, {"lat": -3.02725, "lng": 37.39328, "price": 1.565, "name": "CAMPSA"}, {"lat": -4.52803, "lng": 36.59442, "price": 1.565, "name": "REPSOL"}, {"lat": -4.4765, "lng": 36.67339, "price": 1.565, "name": "REPSOL"}, {"lat": -3.88278, "lng": 36.75225, "price": 1.565, "name": "BP"}, {"lat": -4.45108, "lng": 36.72294, "price": 1.565, "name": "REPSOL"}, {"lat": -4.49217, "lng": 37.943, "price": 1.565, "name": "CAMPSA"}, {"lat": -5.15661, "lng": 36.42819, "price": 1.565, "name": "AVENIDA JUAN CARLOS I"}, {"lat": -4.80547, "lng": 37.88294, "price": 1.565, "name": "REPSOL"}, {"lat": -5.12783, "lng": 37.23706, "price": 1.565, "name": "REPSOL"}, {"lat": -4.61933, "lng": 38.32203, "price": 1.565, "name": "REPSOL"}, {"lat": -4.42453, "lng": 36.73833, "price": 1.565, "name": "REPSOL"}, {"lat": -2.76691, "lng": 37.48167, "price": 1.565, "name": "REPSOL"}, {"lat": -4.88008, "lng": 36.51592, "price": 1.565, "name": "REPSOL"}, {"lat": -3.70136, "lng": 40.47372, "price": 1.565, "name": "GALP"}, {"lat": -0.52617, "lng": 39.10672, "price": 1.566, "name": "BERTA"}, {"lat": -0.66225, "lng": 38.42942, "price": 1.566, "name": "AGOST"}, {"lat": -0.40139, "lng": 38.42408, "price": 1.566, "name": "CAMPELLO-LA GOTETA 2"}, {"lat": 0.06019, "lng": 38.71814, "price": 1.566, "name": "BP"}, {"lat": 2.18389, "lng": 41.63661, "price": 1.567, "name": "GASUIR"}, {"lat": 2.25264, "lng": 41.60936, "price": 1.567, "name": "GASUIR"}, {"lat": 2.25264, "lng": 41.60978, "price": 1.567, "name": "GASUIR"}, {"lat": -6.16239, "lng": 37.52769, "price": 1.569, "name": "LIBRE"}, {"lat": -4.95392, "lng": 38.48003, "price": 1.569, "name": "REPSOL"}, {"lat": -3.83656, "lng": 37.47342, "price": 1.569, "name": "AGLA"}, {"lat": -6.60578, "lng": 42.56528, "price": 1.57, "name": "REPSOL"}, {"lat": -4.70942, "lng": 41.60886, "price": 1.57, "name": "REPSOL"}, {"lat": -5.889, "lng": 42.51592, "price": 1.57, "name": "E.S.ALTO PARAMO"}, {"lat": -4.76544, "lng": 37.85175, "price": 1.57, "name": "REPSOL"}, {"lat": -1.31342, "lng": 37.91217, "price": 1.57, "name": "REPSOL"}, {"lat": -4.45811, "lng": 37.97111, "price": 1.571, "name": "BP"}, {"lat": -0.50814, "lng": 39.12967, "price": 1.572, "name": "REPSOL"}, {"lat": -5.04203, "lng": 36.46206, "price": 1.575, "name": "E.S. SALADILLO"}, {"lat": -2.75631, "lng": 37.81744, "price": 1.575, "name": "REPSOL"}, {"lat": -4.76425, "lng": 36.49356, "price": 1.575, "name": "REPSOL"}, {"lat": -4.78611, "lng": 37.886, "price": 1.575, "name": "REPSOL"}, {"lat": -4.47203, "lng": 36.70711, "price": 1.575, "name": "REPSOL"}, {"lat": -0.39939, "lng": 38.43064, "price": 1.575, "name": "SHELL"}, {"lat": -5.00525, "lng": 37.24961, "price": 1.575, "name": "REPSOL"}, {"lat": -4.79883, "lng": 36.50019, "price": 1.575, "name": "REPSOL"}, {"lat": -4.97969, "lng": 38.39214, "price": 1.575, "name": "REPSOL"}, {"lat": -3.93536, "lng": 37.76272, "price": 1.575, "name": "GALP"}, {"lat": -4.81658, "lng": 37.897, "price": 1.575, "name": "REPSOL"}, {"lat": -4.46844, "lng": 36.68217, "price": 1.575, "name": "REPSOL"}, {"lat": -4.766, "lng": 36.49419, "price": 1.575, "name": "REPSOL"}, {"lat": -4.76164, "lng": 37.921, "price": 1.575, "name": "REPSOL"}, {"lat": -4.13125, "lng": 37.58783, "price": 1.578, "name": "E.S FARO"}, {"lat": -5.23378, "lng": 39.03003, "price": 1.579, "name": "GALP"}, {"lat": -0.0585, "lng": 39.94275, "price": 1.579, "name": "SQ"}, {"lat": -0.10964, "lng": 39.94244, "price": 1.579, "name": "SQ"}, {"lat": 2.06836, "lng": 41.47969, "price": 1.58, "name": "REPSOL"}, {"lat": -6.62578, "lng": 42.58442, "price": 1.582, "name": "REPSOL"}, {"lat": -6.62806, "lng": 42.58392, "price": 1.582, "name": "REPSOL"}, {"lat": -4.69217, "lng": 40.65789, "price": 1.585, "name": "REPSOL"}, {"lat": -3.75278, "lng": 42.04069, "price": 1.585, "name": "REPSOL"}, {"lat": -3.75167, "lng": 42.04103, "price": 1.585, "name": "REPSOL"}, {"lat": 3.01958, "lng": 39.52006, "price": 1.586, "name": "BP"}, {"lat": -3.86444, "lng": 40.05606, "price": 1.588, "name": "GALP"}, {"lat": 2.73583, "lng": 39.57056, "price": 1.59, "name": "SON FERRIOL  II"}, {"lat": -6.12464, "lng": 40.51075, "price": 1.591, "name": "SANTIAGO HERNANDEZ"}, {"lat": -2.61708, "lng": 39.27225, "price": 1.592, "name": "ESTACION DE SERVICIO AVEN"}, {"lat": 3.02825, "lng": 39.64194, "price": 1.592, "name": "SON HUGO"}, {"lat": 2.17383, "lng": 41.37464, "price": 1.599, "name": "ESTACION SERVICIO UBACH S"}, {"lat": -2.63696, "lng": 36.76111, "price": 1.689, "name": "04,1,00112"}]