[{"lat": 2.29308, "lng": 41.52561, "price": 0.8, "name": "BP"}, {"lat": -0.1395, "lng": 40.37967, "price": 0.819, "name": "CARCELLER ROYO S.L."}, {"lat": -0.39639, "lng": 39.42139, "price": 0.838, "name": "E.S. BENETUSER"}, {"lat": -3.91383, "lng": 40.50703, "price": 0.899, "name": "REPSOL"}, {"lat": -2.67883, "lng": 42.86861, "price": 0.91, "name": "ONAINDIA"}, {"lat": -8.86197, "lng": 42.99786, "price": 0.919, "name": "E.S. MUINO GRANDE"}, {"lat": 2.06189, "lng": 41.36764, "price": 0.939, "name": "OIL PRIX"}]