[{"lat": -16.77714, "lng": 28.35633, "price": 0.942, "name": "REPSOL"}, {"lat": -16.67217, "lng": 28.39022, "price": 0.944, "name": "DISA           STO DOMING"}, {"lat": -16.64233, "lng": 28.39397, "price": 0.96, "name": "REPSOL"}, {"lat": -16.70072, "lng": 28.37897, "price": 0.961, "name": "CEPSA"}, {"lat": -16.81953, "lng": 28.36569, "price": 0.961, "name": "DISA RED"}, {"lat": -16.61822, "lng": 28.39308, "price": 0.961, "name": "ESTACION DE SERVICIOS EL"}, {"lat": -16.7925, "lng": 28.37008, "price": 0.961, "name": "E.S. CEPSA LA CALETA"}, {"lat": -16.69406, "lng": 28.37922, "price": 0.961, "name": "CEPSA ICOD DE LOS VINOS"}, {"lat": -16.71969, "lng": 28.36853, "price": 0.977, "name": "SHELL ICOD DE LOS VINOS"}, {"lat": -16.71019, "lng": 28.37225, "price": 0.977, "name": "DISA ICOD DE LOS VINOS"}, {"lat": -16.61897, "lng": 28.37911, "price": 0.985, "name": "DISA"}, {"lat": -16.65064, "lng": 28.37411, "price": 0.986, "name": "PCAN"}, {"lat": -16.84825, "lng": 28.36989, "price": 0.99, "name": "DISA"}, {"lat": -16.30431, "lng": 28.45811, "price": 0.995, "name": "MAKRO"}, {"lat": -16.296, "lng": 28.47022, "price": 0.995, "name": "PCAN"}, {"lat": -16.29672, "lng": 28.45467, "price": 0.995, "name": "DISA LOS MAJUELOS"}, {"lat": -16.59006, "lng": 28.37364, "price": 0.996, "name": "DISA LA AZADILLA"}, {"lat": -16.66503, "lng": 28.38975, "price": 0.997, "name": "TGAS - SANTA CATALINA"}, {"lat": -16.31367, "lng": 28.44181, "price": 0.999, "name": "SHELL LOS MAJUELOS"}, {"lat": -16.30725, "lng": 28.44744, "price": 0.999, "name": "CEPSA LOS ANDENES"}, {"lat": -16.39797, "lng": 28.48069, "price": 1.004, "name": "BP"}, {"lat": -16.4185, "lng": 28.47583, "price": 1.004, "name": "REPSOL"}, {"lat": -16.30486, "lng": 28.46469, "price": 1.004, "name": "REPSOL"}, {"lat": -16.39858, "lng": 28.51056, "price": 1.004, "name": "REPSOL"}, {"lat": -16.35686, "lng": 28.52039, "price": 1.004, "name": "DISA EL SOCORRO"}, {"lat": -16.49433, "lng": 28.42522, "price": 1.004, "name": "SHELL SANTA URSULA"}, {"lat": -16.31689, "lng": 28.45608, "price": 1.004, "name": "REPSOL"}, {"lat": -16.48467, "lng": 28.42872, "price": 1.004, "name": "REPSOL"}, {"lat": -16.42358, "lng": 28.47286, "price": 1.004, "name": "BP"}, {"lat": -16.36306, "lng": 28.53325, "price": 1.004, "name": "CEPSA TEJINA"}, {"lat": -16.3545, "lng": 28.49067, "price": 1.004, "name": "REPSOL"}, {"lat": -16.42122, "lng": 28.47383, "price": 1.004, "name": "DISA"}, {"lat": -16.389, "lng": 28.51817, "price": 1.004, "name": "REPSOL"}, {"lat": -16.34736, "lng": 28.55225, "price": 1.004, "name": "DISA BAJAMAR"}, {"lat": -16.58217, "lng": 28.39008, "price": 1.008, "name": "DISA LOS BARROS"}, {"lat": -16.58189, "lng": 28.39003, "price": 1.008, "name": "PCAN"}, {"lat": -16.31856, "lng": 28.48156, "price": 1.015, "name": "DISA PADRE ANCHIETA"}, {"lat": -16.36192, "lng": 28.38236, "price": 1.015, "name": "DISA LAS CALETILLAS"}, {"lat": -16.41097, "lng": 28.313, "price": 1.015, "name": "SHELL GUIMAR"}, {"lat": -16.37483, "lng": 28.32519, "price": 1.015, "name": "OCEANO"}, {"lat": -16.38483, "lng": 28.33019, "price": 1.015, "name": "CEPSA"}, {"lat": -16.37233, "lng": 28.33122, "price": 1.015, "name": "REPSOL"}, {"lat": -16.40797, "lng": 28.31906, "price": 1.015, "name": "DISA"}, {"lat": -16.41194, "lng": 28.31303, "price": 1.015, "name": "TEXACO"}, {"lat": -16.31378, "lng": 28.48464, "price": 1.015, "name": "TGAS"}, {"lat": -16.37194, "lng": 28.35683, "price": 1.015, "name": "DISA"}, {"lat": -16.31361, "lng": 28.4815, "price": 1.015, "name": "SHELL LA LAGUNA"}, {"lat": -16.41483, "lng": 28.34058, "price": 1.015, "name": "CEPSA"}, {"lat": -16.39558, "lng": 28.33392, "price": 1.015, "name": "REPSOL"}, {"lat": -16.38606, "lng": 28.30639, "price": 1.015, "name": "DISA PUERTITO"}, {"lat": -16.46678, "lng": 28.43608, "price": 1.019, "name": "SHELL"}, {"lat": -16.73989, "lng": 28.12011, "price": 1.023, "name": "TGAS-HIPERTREBOL"}, {"lat": -16.28406, "lng": 28.44208, "price": 1.023, "name": "TGAS-HIPERTREBOL"}, {"lat": -16.30189, "lng": 28.51522, "price": 1.024, "name": "TGAS"}, {"lat": -16.35089, "lng": 28.39947, "price": 1.024, "name": "PCAN"}, {"lat": -16.55839, "lng": 28.37644, "price": 1.028, "name": "SHELL"}, {"lat": -16.57717, "lng": 28.38419, "price": 1.028, "name": "E.S.SHELL LOS REALEJOS"}, {"lat": -16.32981, "lng": 28.45686, "price": 1.028, "name": "LOS BALDIOS"}, {"lat": -16.51519, "lng": 28.38825, "price": 1.029, "name": "CEPSA LA CANADA"}, {"lat": -16.52308, "lng": 28.39783, "price": 1.029, "name": "BP"}, {"lat": -16.45056, "lng": 28.45664, "price": 1.029, "name": "DISA LA MATANZA"}, {"lat": -16.55092, "lng": 28.39406, "price": 1.029, "name": "BP"}, {"lat": -16.54742, "lng": 28.398, "price": 1.029, "name": "SHELL"}, {"lat": -16.52233, "lng": 28.39833, "price": 1.029, "name": "DISA"}, {"lat": -16.50997, "lng": 28.37703, "price": 1.029, "name": "REPSOL BARROSO"}, {"lat": -16.55833, "lng": 28.39483, "price": 1.029, "name": "DISA"}, {"lat": -16.383, "lng": 28.48739, "price": 1.029, "name": "CEPSA EL PENON"}, {"lat": -16.46236, "lng": 28.43947, "price": 1.029, "name": "SHELL ACENTEJO"}, {"lat": -16.57431, "lng": 28.40019, "price": 1.029, "name": "SHELL LAS DEHESAS"}, {"lat": -16.57247, "lng": 28.39439, "price": 1.029, "name": "B.P. LA GORVORANA"}, {"lat": -16.46047, "lng": 28.44953, "price": 1.029, "name": "DISA EL BOHIO"}, {"lat": -16.575, "lng": 28.37256, "price": 1.029, "name": "CEPSA"}, {"lat": -16.51986, "lng": 28.39436, "price": 1.029, "name": "DISA"}, {"lat": -16.53739, "lng": 28.37961, "price": 1.029, "name": "REPSOL"}, {"lat": -16.28378, "lng": 28.46611, "price": 1.031, "name": "DISA VISTABELLA"}, {"lat": -16.57139, "lng": 28.37708, "price": 1.031, "name": "REPSOL"}, {"lat": -16.3005, "lng": 28.44503, "price": 1.033, "name": "DISA TACO"}, {"lat": -16.28581, "lng": 28.46767, "price": 1.033, "name": "DISA OFRA"}, {"lat": -16.30517, "lng": 28.43853, "price": 1.033, "name": "DISA BARRANCO GRANDE"}, {"lat": -16.66264, "lng": 28.01186, "price": 1.034, "name": "TGAS"}, {"lat": -16.65253, "lng": 28.01389, "price": 1.034, "name": "SHELL"}, {"lat": -16.41178, "lng": 28.47747, "price": 1.034, "name": "TGAS"}, {"lat": -16.67794, "lng": 28.05208, "price": 1.034, "name": "REPSOL"}, {"lat": -15.40481, "lng": 27.96078, "price": 1.035, "name": "DISA"}, {"lat": -16.37822, "lng": 28.49589, "price": 1.035, "name": "PCAN"}, {"lat": -16.33503, "lng": 28.51997, "price": 1.035, "name": "TGAS"}, {"lat": -16.30353, "lng": 28.44022, "price": 1.036, "name": "BP TACO"}, {"lat": -16.55136, "lng": 28.10353, "price": 1.036, "name": "PCAN"}, {"lat": -16.396, "lng": 28.46953, "price": 1.037, "name": "CEPSA AGUA GARCIA"}, {"lat": -16.36214, "lng": 28.456, "price": 1.037, "name": "PCAN"}, {"lat": -16.33667, "lng": 28.47397, "price": 1.037, "name": "PCAN"}, {"lat": -16.26814, "lng": 28.45503, "price": 1.038, "name": "TEXACO"}, {"lat": -16.54378, "lng": 28.41253, "price": 1.039, "name": "CEPSA PUERTO DE LA CRUZ"}, {"lat": -16.54833, "lng": 28.41439, "price": 1.039, "name": "DISA"}, {"lat": -16.32406, "lng": 28.48608, "price": 1.041, "name": "BP SAN BENITO"}, {"lat": -16.29458, "lng": 28.4495, "price": 1.041, "name": "TACO NORTE"}, {"lat": -2.94631, "lng": 35.29047, "price": 1.042, "name": "SHELL"}, {"lat": -2.93897, "lng": 35.28108, "price": 1.042, "name": "SHELL CARLOS V"}, {"lat": -2.93681, "lng": 35.26956, "price": 1.042, "name": "CEPSA"}, {"lat": -2.94183, "lng": 35.28653, "price": 1.042, "name": "BP PUENTE"}, {"lat": -2.94111, "lng": 35.28128, "price": 1.042, "name": "CEPSA"}, {"lat": -2.93381, "lng": 35.29422, "price": 1.042, "name": "CEPSA"}, {"lat": -2.94839, "lng": 35.28997, "price": 1.042, "name": "SHELL"}, {"lat": -2.94614, "lng": 35.29694, "price": 1.042, "name": "POLIGONO"}, {"lat": -2.94317, "lng": 35.26969, "price": 1.042, "name": "CEPSA"}, {"lat": -2.94175, "lng": 35.28731, "price": 1.042, "name": "SHELL PUENTE TRIANA"}, {"lat": -2.94219, "lng": 35.28672, "price": 1.042, "name": "SHELL"}, {"lat": -2.93722, "lng": 35.27544, "price": 1.042, "name": "BP"}, {"lat": -2.94783, "lng": 35.28122, "price": 1.042, "name": "SHELL ALFONSO XIII"}, {"lat": -15.4135, "lng": 28.03414, "price": 1.043, "name": "DISA JINAMAR"}, {"lat": -15.41886, "lng": 28.03881, "price": 1.043, "name": "REPSOL"}, {"lat": -15.41764, "lng": 28.04053, "price": 1.043, "name": "SHELL MERCALASPALMAS"}, {"lat": -15.43686, "lng": 28.11608, "price": 1.044, "name": "CEPSA ESCALERITAS"}, {"lat": -16.30808, "lng": 28.50964, "price": 1.045, "name": "E.S. LAS CANTERAS S.L."}, {"lat": -16.35972, "lng": 28.53083, "price": 1.045, "name": "TEJINA"}, {"lat": -16.26142, "lng": 28.4515, "price": 1.047, "name": "DISA VIA PENETRACION"}, {"lat": -15.56033, "lng": 28.14494, "price": 1.048, "name": "BP KM 13 - 2 (SAN ANDRES)"}, {"lat": -15.56083, "lng": 28.14547, "price": 1.048, "name": "BP KM 13 - 1 (SAN ANDRES)"}, {"lat": -15.42844, "lng": 28.11331, "price": 1.049, "name": "SHELL SCHAMANN"}, {"lat": -15.48781, "lng": 28.13619, "price": 1.049, "name": "CEPSA - ALEXIS MANUEL JIM"}, {"lat": -15.43725, "lng": 28.10203, "price": 1.049, "name": "DISA MILLER BAJO"}, {"lat": -16.54617, "lng": 28.41375, "price": 1.049, "name": "BP"}, {"lat": -15.41533, "lng": 28.09622, "price": 1.049, "name": "DISA VEGUETA"}, {"lat": -16.28217, "lng": 28.43653, "price": 1.05, "name": "CEPSA AUTOPISTA SUR"}, {"lat": -15.47264, "lng": 27.99556, "price": 1.05, "name": "CEPSA LOS ALMENDROS"}, {"lat": -15.39094, "lng": 27.96719, "price": 1.05, "name": "ESTACION REPSOL"}, {"lat": -15.49542, "lng": 27.99181, "price": 1.05, "name": "DISA"}, {"lat": -15.42386, "lng": 27.99178, "price": 1.05, "name": "DISA"}, {"lat": -16.55325, "lng": 28.06889, "price": 1.052, "name": "TGAS"}, {"lat": -15.39194, "lng": 28.02619, "price": 1.053, "name": "BP LAS TERRAZAS"}, {"lat": -15.64969, "lng": 28.14481, "price": 1.053, "name": "SHELL GALDAR"}, {"lat": -15.38667, "lng": 28.01172, "price": 1.053, "name": "REPSOL"}, {"lat": -15.39211, "lng": 27.98058, "price": 1.053, "name": "REPSOL"}, {"lat": -15.41703, "lng": 28.03553, "price": 1.053, "name": "BP JINAMAR"}, {"lat": -15.38758, "lng": 28.01433, "price": 1.053, "name": "BP LA GARITA"}, {"lat": -15.39781, "lng": 28.00106, "price": 1.053, "name": "CEPSA"}, {"lat": -15.39356, "lng": 27.99433, "price": 1.053, "name": "DISA"}, {"lat": -15.40344, "lng": 27.99817, "price": 1.053, "name": "BP EL CALERO"}, {"lat": -15.52747, "lng": 28.07025, "price": 1.053, "name": "DISA"}, {"lat": -15.53839, "lng": 28.09756, "price": 1.054, "name": "CEPSA LOS PORTALES (TEXAC"}, {"lat": -15.4175, "lng": 28.10236, "price": 1.054, "name": "DISA AVENIDA"}, {"lat": -15.42089, "lng": 28.10878, "price": 1.054, "name": "CEPSA CAPITOL"}, {"lat": -15.65225, "lng": 28.14533, "price": 1.054, "name": "CEPSA"}, {"lat": -15.42111, "lng": 28.10756, "price": 1.054, "name": "CEPSA BRAVO MURILLO"}, {"lat": -16.64536, "lng": 28.03361, "price": 1.055, "name": "BP"}, {"lat": -16.42642, "lng": 28.26425, "price": 1.055, "name": "EL ESCOBONAL"}, {"lat": -15.42019, "lng": 27.99856, "price": 1.055, "name": "DISA EL ROQUE"}, {"lat": -16.43958, "lng": 28.23642, "price": 1.055, "name": "DISA"}, {"lat": -15.41417, "lng": 27.99831, "price": 1.055, "name": "SHELL TELDE"}, {"lat": -15.41475, "lng": 28.0065, "price": 1.055, "name": "ESTACION EL CUBILLO"}, {"lat": -16.48003, "lng": 28.18253, "price": 1.055, "name": "DISA"}, {"lat": -15.41481, "lng": 27.99239, "price": 1.055, "name": "REPSOL"}, {"lat": -15.39008, "lng": 28.00983, "price": 1.055, "name": "CEPSA"}, {"lat": -15.43283, "lng": 28.10503, "price": 1.056, "name": "SHELL REHOYAS"}, {"lat": -15.43539, "lng": 28.10131, "price": 1.056, "name": "DISA EL DRAGON"}, {"lat": -15.52458, "lng": 28.11789, "price": 1.056, "name": "SHELL ARUCAS"}, {"lat": -15.51764, "lng": 28.11747, "price": 1.056, "name": "SHELL AUTOVIA ARUCAS"}, {"lat": -15.41778, "lng": 27.86222, "price": 1.057, "name": "REPSOL"}, {"lat": -16.57617, "lng": 28.06106, "price": 1.057, "name": "BP"}, {"lat": -15.58419, "lng": 28.11356, "price": 1.057, "name": "SHELL"}, {"lat": -15.42906, "lng": 27.85644, "price": 1.057, "name": "SHELL"}, {"lat": -15.63394, "lng": 28.14133, "price": 1.057, "name": "CEPSA"}, {"lat": -15.59111, "lng": 28.10742, "price": 1.057, "name": "REPSOL"}, {"lat": -15.61406, "lng": 28.14336, "price": 1.057, "name": "REPSOL"}, {"lat": -15.41264, "lng": 28.09581, "price": 1.058, "name": "SHELL VEGUETA"}, {"lat": -16.55806, "lng": 28.07828, "price": 1.058, "name": "DISA SAN ISIDRO"}, {"lat": -16.41414, "lng": 28.22269, "price": 1.058, "name": "REPSOL"}, {"lat": -16.50967, "lng": 28.15708, "price": 1.058, "name": "REPSOL"}, {"lat": -16.53472, "lng": 28.07333, "price": 1.058, "name": "REPSOL"}, {"lat": -16.61569, "lng": 28.09967, "price": 1.058, "name": "ESTACION  SAN MIGUEL"}, {"lat": -16.57847, "lng": 28.10469, "price": 1.058, "name": "CEPSA LOS LLANOS - GRANAD"}, {"lat": -16.46481, "lng": 28.13081, "price": 1.058, "name": "PCAN"}, {"lat": -16.61039, "lng": 28.08444, "price": 1.058, "name": "REPSOL"}, {"lat": -16.27881, "lng": 28.4435, "price": 1.058, "name": "CEPSA"}, {"lat": -15.38997, "lng": 27.94072, "price": 1.058, "name": "CEPSA"}, {"lat": -16.535, "lng": 28.07258, "price": 1.058, "name": "REPSOL"}, {"lat": -16.54642, "lng": 28.05622, "price": 1.058, "name": "CEPSA MEDANO"}, {"lat": -16.57678, "lng": 28.11625, "price": 1.058, "name": "DISA"}, {"lat": -16.42331, "lng": 28.2135, "price": 1.058, "name": "CEPSA"}, {"lat": -16.68089, "lng": 28.07819, "price": 1.059, "name": "DISA"}, {"lat": -16.68786, "lng": 28.07569, "price": 1.059, "name": "CEPSA"}, {"lat": -15.55861, "lng": 28.11878, "price": 1.059, "name": "CEPSA"}, {"lat": -16.26142, "lng": 28.45772, "price": 1.059, "name": "BP AVENIDA 3 DE MAYO"}, {"lat": -16.82989, "lng": 28.20506, "price": 1.06, "name": "PCAN"}, {"lat": -15.45047, "lng": 28.09647, "price": 1.06, "name": "SHELL TARAHALES II"}, {"lat": -15.4515, "lng": 28.09539, "price": 1.06, "name": "DISA TARAHALES I"}, {"lat": -15.44594, "lng": 28.09864, "price": 1.06, "name": "BP LA PATERNA"}, {"lat": -15.58303, "lng": 28.10825, "price": 1.06, "name": "BP MOYA"}, {"lat": -15.44272, "lng": 28.09797, "price": 1.06, "name": "BP COOPERATIVA TAXIS S. C"}, {"lat": -16.65933, "lng": 28.09117, "price": 1.06, "name": "CEPSA"}, {"lat": -15.42511, "lng": 28.12669, "price": 1.06, "name": "CEPSA LA MARINA"}, {"lat": -15.47108, "lng": 28.09969, "price": 1.061, "name": "LOMO LOS FRAILES"}, {"lat": -15.42633, "lng": 27.87633, "price": 1.061, "name": "ESTACION REPSOL"}, {"lat": -15.44039, "lng": 27.85183, "price": 1.062, "name": "SHELL"}, {"lat": -15.43575, "lng": 27.86311, "price": 1.062, "name": "CEPSA"}, {"lat": -15.43258, "lng": 27.86481, "price": 1.063, "name": "CEPSA"}, {"lat": -15.60194, "lng": 27.75331, "price": 1.063, "name": "CEPSA MASPALOMAS"}, {"lat": -15.44, "lng": 27.8295, "price": 1.063, "name": "POZO IZQUIERDO"}, {"lat": -16.57464, "lng": 28.05, "price": 1.063, "name": "CEPSA"}, {"lat": -15.43231, "lng": 27.86469, "price": 1.063, "name": "CEPSA"}, {"lat": -15.59008, "lng": 27.76839, "price": 1.063, "name": "CEPSA TAXISTAS S.AGUSTIN"}, {"lat": -15.41606, "lng": 28.15222, "price": 1.063, "name": "DISA PUERTO DE LA LUZ"}, {"lat": -15.60781, "lng": 27.76628, "price": 1.063, "name": "PCAN"}, {"lat": -15.44972, "lng": 28.05372, "price": 1.063, "name": "CEPSA HOYA PARRADO"}, {"lat": -15.52761, "lng": 28.01275, "price": 1.064, "name": "SHELL SAN MATEO"}, {"lat": -15.54553, "lng": 28.06192, "price": 1.064, "name": "CEPSA"}, {"lat": -15.43361, "lng": 28.08664, "price": 1.064, "name": "CEPSA SICAL"}, {"lat": -15.44175, "lng": 28.10372, "price": 1.064, "name": "CEPSA ESCALERITAS"}, {"lat": -15.57644, "lng": 27.76403, "price": 1.064, "name": "SHELL"}, {"lat": -15.45389, "lng": 28.11842, "price": 1.064, "name": "CEPSA LAS TORRES (TEXACO)"}, {"lat": -15.56883, "lng": 27.76489, "price": 1.064, "name": "DISA MASPALOMAS"}, {"lat": -15.45714, "lng": 28.09389, "price": 1.064, "name": "CEPSA SIETE PALMAS"}, {"lat": -15.48936, "lng": 28.10781, "price": 1.064, "name": "CEPSA LA CAZUELA"}, {"lat": -15.48228, "lng": 27.80397, "price": 1.064, "name": "SHELL"}, {"lat": -15.57614, "lng": 28.04911, "price": 1.065, "name": "BP VALLESECO"}, {"lat": -15.62803, "lng": 28.14242, "price": 1.065, "name": "DISA GUIA"}, {"lat": -15.42997, "lng": 28.13333, "price": 1.065, "name": "DISA ALCARAVANERAS"}, {"lat": -15.70208, "lng": 28.10186, "price": 1.065, "name": "BP AGAETE"}, {"lat": -15.41728, "lng": 28.07556, "price": 1.065, "name": "BP SAN JOSE"}, {"lat": -15.42994, "lng": 28.12661, "price": 1.065, "name": "BP CIUDAD JARDIN"}, {"lat": -15.41775, "lng": 28.15367, "price": 1.065, "name": "DISA EL SEBADAL"}, {"lat": -15.41883, "lng": 28.14736, "price": 1.065, "name": "TEXACO PUERTO"}, {"lat": -15.42917, "lng": 27.91789, "price": 1.065, "name": "CEPSA INGENIO"}, {"lat": -15.41664, "lng": 28.14753, "price": 1.065, "name": "REPSOL"}, {"lat": -15.44122, "lng": 28.12333, "price": 1.065, "name": "CEPSA"}, {"lat": -15.43989, "lng": 28.11064, "price": 1.065, "name": "REPSOL"}, {"lat": -15.51033, "lng": 28.11236, "price": 1.065, "name": "BP CRUCE SANTIDAD-ARUCAS"}, {"lat": -15.55856, "lng": 27.76539, "price": 1.065, "name": "BP EL VERIL"}, {"lat": -15.44117, "lng": 28.12331, "price": 1.065, "name": "REPSOL"}, {"lat": -15.39533, "lng": 28.00606, "price": 1.065, "name": "REPSOL"}, {"lat": -15.52814, "lng": 28.11586, "price": 1.065, "name": "BP LAS VEGAS"}, {"lat": -15.44481, "lng": 27.90406, "price": 1.065, "name": "DISA AGUIMES"}, {"lat": -15.47519, "lng": 28.04469, "price": 1.065, "name": "DISA"}, {"lat": -15.47747, "lng": 28.09358, "price": 1.065, "name": "BP TAMARACEITE"}, {"lat": -15.47744, "lng": 28.09356, "price": 1.065, "name": "BP SAN LORENZO"}, {"lat": -15.43078, "lng": 28.14203, "price": 1.065, "name": "CEPSA ESCORIAL"}, {"lat": -15.62853, "lng": 28.14144, "price": 1.065, "name": "BP GUIA"}, {"lat": -15.45697, "lng": 27.83842, "price": 1.065, "name": "BP EL TARO"}, {"lat": -15.44331, "lng": 27.85608, "price": 1.065, "name": "BP SARDINA SUR"}, {"lat": -15.45525, "lng": 28.11708, "price": 1.065, "name": "REPSOL"}, {"lat": -15.45097, "lng": 27.83497, "price": 1.065, "name": "BP DOCTORAL"}, {"lat": -15.70839, "lng": 27.79008, "price": 1.065, "name": "BP ARGUINEGUIN"}, {"lat": -15.79575, "lng": 27.98939, "price": 1.065, "name": "BP SAN NICOLAS"}, {"lat": -15.70039, "lng": 28.10406, "price": 1.065, "name": "CEPSA"}, {"lat": -15.45981, "lng": 28.09047, "price": 1.065, "name": "DISA"}, {"lat": -15.42072, "lng": 28.15028, "price": 1.065, "name": "BP PUERTO DE LA LUZ"}, {"lat": -15.43256, "lng": 27.91828, "price": 1.065, "name": "SHELL INGENIO"}, {"lat": -15.49961, "lng": 28.03033, "price": 1.065, "name": "BP SANTA BRIGIDA"}, {"lat": -15.41486, "lng": 28.10808, "price": 1.065, "name": "BP CIDELMAR"}, {"lat": -15.54706, "lng": 28.06175, "price": 1.065, "name": "BP TEROR"}, {"lat": -15.53572, "lng": 28.00903, "price": 1.065, "name": "BP SAN MATEO"}, {"lat": -15.43433, "lng": 28.11394, "price": 1.065, "name": "BP ALTAVISTA"}, {"lat": -15.41617, "lng": 27.87278, "price": 1.065, "name": "DISA"}, {"lat": -15.43503, "lng": 28.13256, "price": 1.065, "name": "DISA CHIL"}, {"lat": -15.44239, "lng": 27.84894, "price": 1.065, "name": "VECINDARIO"}, {"lat": -15.42967, "lng": 28.11817, "price": 1.065, "name": "DISA JUAN XXIII"}, {"lat": -15.46389, "lng": 28.07656, "price": 1.065, "name": "REPSOL"}, {"lat": -15.79497, "lng": 27.98903, "price": 1.066, "name": "DISA"}, {"lat": -15.39897, "lng": 27.91722, "price": 1.066, "name": "CEPSA"}, {"lat": -15.47433, "lng": 27.805, "price": 1.066, "name": "TEXACO JUAN GRANDE"}, {"lat": -16.74078, "lng": 28.12544, "price": 1.067, "name": "LA ATALAYA"}, {"lat": -16.27017, "lng": 28.46481, "price": 1.067, "name": "BP CRUZ DEL SENOR"}, {"lat": -16.67883, "lng": 28.04567, "price": 1.067, "name": "BP OIL ESPANA"}, {"lat": -16.27103, "lng": 28.46739, "price": 1.067, "name": "DISA ARACAYU"}, {"lat": -16.27231, "lng": 28.45842, "price": 1.067, "name": "DISA TIO PINO"}, {"lat": -15.44083, "lng": 27.84125, "price": 1.067, "name": "REPSOL"}, {"lat": -16.71461, "lng": 28.05358, "price": 1.067, "name": "BP"}, {"lat": -16.23189, "lng": 28.48911, "price": 1.068, "name": "DISA BALNEARIO I"}, {"lat": -16.23961, "lng": 28.48283, "price": 1.068, "name": "ESTACION DE SERVICIO ANAG"}, {"lat": -16.46353, "lng": 28.13097, "price": 1.068, "name": "REPSOL"}, {"lat": -15.425, "lng": 28.11494, "price": 1.068, "name": "SHELL TOMAS MORALES"}, {"lat": -16.68206, "lng": 28.09939, "price": 1.068, "name": "BP.ARONA"}, {"lat": -15.39928, "lng": 27.85983, "price": 1.068, "name": "SHELL"}, {"lat": -16.52956, "lng": 28.41172, "price": 1.068, "name": "SHELL EL AGUILA"}, {"lat": -15.54897, "lng": 27.91525, "price": 1.07, "name": "CEPSA"}, {"lat": -15.43028, "lng": 28.13569, "price": 1.07, "name": "DISA"}, {"lat": -15.70325, "lng": 27.79547, "price": 1.07, "name": "SHELL PUERTO RICO"}, {"lat": -15.61475, "lng": 27.99128, "price": 1.071, "name": "DISA"}, {"lat": -15.44156, "lng": 28.12989, "price": 1.071, "name": "BP GUANARTEME"}, {"lat": -15.40761, "lng": 27.90969, "price": 1.071, "name": "DISA"}, {"lat": -15.38942, "lng": 27.94472, "price": 1.072, "name": "CEPSA"}, {"lat": -16.66733, "lng": 28.06075, "price": 1.073, "name": "ES359"}, {"lat": -15.44067, "lng": 28.10125, "price": 1.075, "name": "REPSOL"}, {"lat": -16.78794, "lng": 28.22469, "price": 1.075, "name": "CEPSA"}, {"lat": -16.69214, "lng": 28.06133, "price": 1.075, "name": "CEPSA"}, {"lat": -13.86328, "lng": 28.50133, "price": 1.076, "name": "CEPSA PUERTO ROSARIO"}, {"lat": -16.72408, "lng": 28.06636, "price": 1.077, "name": "BP LAS AMERICAS"}, {"lat": -13.85989, "lng": 28.49564, "price": 1.077, "name": "MERCAMEDEROS"}, {"lat": -13.86681, "lng": 28.46872, "price": 1.077, "name": "DISA RIO CABRAS"}, {"lat": -16.64017, "lng": 28.15303, "price": 1.077, "name": "DISA"}, {"lat": -17.26497, "lng": 28.17903, "price": 1.077, "name": "DISA VALLEHERMOSO"}, {"lat": -14.04872, "lng": 28.32711, "price": 1.077, "name": "SHELL"}, {"lat": -16.23161, "lng": 28.48861, "price": 1.077, "name": "DISA BALNEARIO II"}, {"lat": -17.18867, "lng": 28.17231, "price": 1.077, "name": "CEPSA"}, {"lat": -16.78489, "lng": 28.14097, "price": 1.077, "name": "TEXACO ARMENIME"}, {"lat": -14.10378, "lng": 28.23131, "price": 1.077, "name": "DISA EL CARACOL"}, {"lat": -16.81272, "lng": 28.28083, "price": 1.077, "name": "CEPSA"}, {"lat": -16.3045, "lng": 28.42731, "price": 1.077, "name": "DISA CUEVAS BLANCAS"}, {"lat": -16.82428, "lng": 28.26081, "price": 1.077, "name": "DISA BAJADA A LOS GIGANTE"}, {"lat": -16.20864, "lng": 28.49644, "price": 1.077, "name": "REPSOL"}, {"lat": -13.85056, "lng": 28.50619, "price": 1.077, "name": "DISA"}, {"lat": -13.86514, "lng": 28.42169, "price": 1.077, "name": "PCAN-MEDEROS"}, {"lat": -16.2535, "lng": 28.45836, "price": 1.077, "name": "DISA FOMENTO"}, {"lat": -16.71539, "lng": 28.05281, "price": 1.077, "name": "DISA LOS CRISTIANOS"}, {"lat": -16.27706, "lng": 28.46308, "price": 1.077, "name": "CEPSA"}, {"lat": -16.73189, "lng": 28.10481, "price": 1.077, "name": "DISA FANABE"}, {"lat": -16.27942, "lng": 28.46406, "price": 1.077, "name": "SHELL EL RAMONAL"}, {"lat": -16.81558, "lng": 28.29383, "price": 1.077, "name": "DISA"}, {"lat": -14.01522, "lng": 28.40944, "price": 1.077, "name": "CEPSA ANTIGUA"}, {"lat": -14.02069, "lng": 28.21503, "price": 1.077, "name": "CEPSA GRAN TARAJAL"}, {"lat": -13.84469, "lng": 28.52217, "price": 1.077, "name": "REPSOL"}, {"lat": -16.41511, "lng": 28.461, "price": 1.077, "name": "DISA RAVELO"}, {"lat": -16.81903, "lng": 28.27019, "price": 1.077, "name": "DISA"}, {"lat": -13.84653, "lng": 28.52078, "price": 1.077, "name": "REPSOL"}, {"lat": -13.86472, "lng": 28.38781, "price": 1.077, "name": "REPSOL"}, {"lat": -13.8775, "lng": 28.51683, "price": 1.077, "name": "DISA"}, {"lat": -13.87631, "lng": 28.51683, "price": 1.077, "name": "DISA"}, {"lat": -13.93547, "lng": 28.61117, "price": 1.077, "name": "LA OLIVA"}, {"lat": -16.301, "lng": 28.42747, "price": 1.077, "name": "REPSOL"}, {"lat": -13.85225, "lng": 28.50075, "price": 1.077, "name": "PCAN GASOLINERA GIL"}, {"lat": -16.82225, "lng": 28.19386, "price": 1.077, "name": "DISA PLAYA SAN JUAN"}, {"lat": -15.56336, "lng": 27.886, "price": 1.077, "name": "DISA"}, {"lat": -14.02194, "lng": 28.21167, "price": 1.077, "name": "DISA GRAN TARAJAL"}, {"lat": -13.86181, "lng": 28.49842, "price": 1.077, "name": "PCAN-MEDEROS"}, {"lat": -13.86258, "lng": 28.49744, "price": 1.077, "name": "DISA PUERTO DEL ROSARIO"}, {"lat": -16.76289, "lng": 28.15897, "price": 1.077, "name": "DISA TIJOCO"}, {"lat": -16.79939, "lng": 28.24458, "price": 1.077, "name": "TEXACO"}, {"lat": -17.33561, "lng": 28.0945, "price": 1.077, "name": "DISA VALLE GRAN REY"}, {"lat": -16.28344, "lng": 28.45244, "price": 1.077, "name": "DISA LAS DELICIAS"}, {"lat": -16.73956, "lng": 28.12364, "price": 1.078, "name": "SHELL"}, {"lat": -13.87011, "lng": 28.73156, "price": 1.078, "name": "DISA CORRALEJO"}, {"lat": -17.83522, "lng": 28.50092, "price": 1.078, "name": "PCAN"}, {"lat": -17.84136, "lng": 28.494, "price": 1.078, "name": "DISA"}, {"lat": -13.86828, "lng": 28.73853, "price": 1.078, "name": "SHELL CORRALEJO"}, {"lat": -15.42997, "lng": 27.87961, "price": 1.078, "name": "REPSOL"}, {"lat": -16.32022, "lng": 28.41933, "price": 1.079, "name": "DISA"}, {"lat": -13.46486, "lng": 29.13172, "price": 1.079, "name": "PCAN ARRIETA"}, {"lat": -16.317, "lng": 28.42542, "price": 1.079, "name": "SHELL EL CHORRILLO"}, {"lat": -16.24289, "lng": 28.47917, "price": 1.079, "name": "DISA NAUTICO"}, {"lat": -16.26517, "lng": 28.45725, "price": 1.079, "name": "DISA TRES DE MAYO"}, {"lat": -16.69092, "lng": 28.0585, "price": 1.08, "name": "SHELL LOS CRISTIANOS"}, {"lat": -16.64553, "lng": 28.05256, "price": 1.08, "name": "SHELL ARONA"}, {"lat": -16.27831, "lng": 28.45428, "price": 1.08, "name": "E.S.SHELL OFRA"}, {"lat": -16.78203, "lng": 28.21242, "price": 1.08, "name": "SHELL"}, {"lat": -18.01194, "lng": 27.75194, "price": 1.08, "name": "DISA FRONTERA"}, {"lat": -16.75792, "lng": 28.12808, "price": 1.08, "name": "SHELL"}, {"lat": -16.61269, "lng": 28.05, "price": 1.08, "name": "DISA LAS CHAFIRAS"}, {"lat": -17.97936, "lng": 27.70533, "price": 1.08, "name": "DISA EL PINAR"}, {"lat": -16.76808, "lng": 28.13403, "price": 1.08, "name": "REPSOL"}, {"lat": -17.91422, "lng": 27.81167, "price": 1.08, "name": "DISA VALVERDER"}, {"lat": -16.25683, "lng": 28.45917, "price": 1.08, "name": "SHELL LA SALLE"}, {"lat": -16.66111, "lng": 28.00708, "price": 1.08, "name": "MARINA DEL SUR"}, {"lat": -16.76661, "lng": 28.17478, "price": 1.08, "name": "SHELL"}, {"lat": -17.10756, "lng": 28.08967, "price": 1.081, "name": "DISA"}, {"lat": -14.34536, "lng": 28.04972, "price": 1.081, "name": "SHELL"}, {"lat": -17.11333, "lng": 28.09086, "price": 1.081, "name": "SAN SEBASTIAN"}, {"lat": -14.35875, "lng": 28.04872, "price": 1.081, "name": "DISA MUELLE MORRO JABLE"}, {"lat": -15.53314, "lng": 28.14667, "price": 1.081, "name": "DISA BANADEROS"}, {"lat": -14.23089, "lng": 28.16039, "price": 1.081, "name": "DISA COSTA CALMA"}, {"lat": -17.881, "lng": 28.59947, "price": 1.083, "name": "PCAN"}, {"lat": -13.64928, "lng": 28.95139, "price": 1.085, "name": "PCAN"}, {"lat": -17.91322, "lng": 28.65717, "price": 1.085, "name": "BP"}, {"lat": -17.77283, "lng": 28.80103, "price": 1.085, "name": "DISA"}, {"lat": -15.75533, "lng": 27.83014, "price": 1.085, "name": "DISA"}, {"lat": -17.76867, "lng": 28.67861, "price": 1.085, "name": "DISA"}, {"lat": -17.76831, "lng": 28.67992, "price": 1.085, "name": "BAJAMAR"}, {"lat": -17.80319, "lng": 28.83158, "price": 1.085, "name": "SHELL"}, {"lat": -17.76989, "lng": 28.67111, "price": 1.085, "name": "CEPSA"}, {"lat": -17.77447, "lng": 28.80519, "price": 1.085, "name": "CEPSA"}, {"lat": -17.88147, "lng": 28.65056, "price": 1.086, "name": "DISA"}, {"lat": -17.77125, "lng": 28.66156, "price": 1.086, "name": "SHELL"}, {"lat": -17.78703, "lng": 28.66567, "price": 1.086, "name": "DISA"}, {"lat": -17.90803, "lng": 28.63136, "price": 1.086, "name": "DISA"}, {"lat": -17.91642, "lng": 28.65886, "price": 1.086, "name": "DISA"}, {"lat": -17.74786, "lng": 28.72544, "price": 1.086, "name": "SHELL"}, {"lat": -17.97775, "lng": 28.7635, "price": 1.086, "name": "REPSOL"}, {"lat": -17.90769, "lng": 28.65633, "price": 1.086, "name": "SHELL"}, {"lat": -17.93472, "lng": 28.64169, "price": 1.086, "name": "SHELL"}, {"lat": -17.86728, "lng": 28.65103, "price": 1.086, "name": "SHELL"}, {"lat": -13.763, "lng": 28.95461, "price": 1.088, "name": "E.S.YAIZA"}, {"lat": -13.54372, "lng": 28.96825, "price": 1.088, "name": "PCAN"}, {"lat": -13.54381, "lng": 28.98767, "price": 1.089, "name": "CEPSA TAHICHE 2"}, {"lat": -13.68628, "lng": 28.94831, "price": 1.089, "name": "A800-02"}, {"lat": -13.56244, "lng": 29.05042, "price": 1.089, "name": "CEPSA"}, {"lat": -13.54278, "lng": 28.98822, "price": 1.089, "name": "CEPSA TAHICHE 1"}, {"lat": -13.57078, "lng": 28.97631, "price": 1.089, "name": "CEPSA"}, {"lat": -13.55847, "lng": 28.97792, "price": 1.089, "name": "CEPSA"}, {"lat": -13.54611, "lng": 28.96536, "price": 1.089, "name": "DISA VALTERRA"}, {"lat": -13.54608, "lng": 28.97239, "price": 1.089, "name": "SHELL ARRECIFE I"}, {"lat": -13.53628, "lng": 28.97931, "price": 1.089, "name": "SHELL"}, {"lat": -13.60781, "lng": 28.95381, "price": 1.089, "name": "CEPSA"}, {"lat": -13.51594, "lng": 28.98689, "price": 1.089, "name": "DISA COSTA TEGUISE"}, {"lat": -13.61639, "lng": 28.94944, "price": 1.089, "name": "SPL"}, {"lat": -13.73697, "lng": 28.9395, "price": 1.089, "name": "COMBUSTIBLES CANARIOS"}, {"lat": -13.55242, "lng": 28.96225, "price": 1.089, "name": "DISA ARRECIFE"}, {"lat": -13.63128, "lng": 28.95506, "price": 1.089, "name": "SPL"}, {"lat": -13.61411, "lng": 29.01247, "price": 1.089, "name": "DISA"}, {"lat": -13.53439, "lng": 28.97431, "price": 1.089, "name": "DISA LOS MARMOLES"}, {"lat": -13.57539, "lng": 28.95842, "price": 1.089, "name": "DISA NUEVA AEROPUERTO"}, {"lat": -13.56453, "lng": 28.97167, "price": 1.089, "name": "REPSOL"}, {"lat": -13.53581, "lng": 28.97981, "price": 1.089, "name": "SHELL"}, {"lat": -13.57175, "lng": 28.95803, "price": 1.089, "name": "DISA AEROPUERTO"}, {"lat": -15.54225, "lng": 28.08678, "price": 1.089, "name": "REPSOL"}, {"lat": -13.66636, "lng": 28.92386, "price": 1.089, "name": "DISA PUERTO DEL CARMEN"}, {"lat": -13.56489, "lng": 29.05678, "price": 1.089, "name": "CEPSA"}, {"lat": -13.60378, "lng": 28.95542, "price": 1.089, "name": "CEPSA"}, {"lat": -13.61564, "lng": 28.94972, "price": 1.089, "name": "SPL"}, {"lat": -13.55739, "lng": 28.96517, "price": 1.089, "name": "SHELL FLICK LANZAROTE"}, {"lat": -13.54653, "lng": 28.97214, "price": 1.089, "name": "SHELL ARRECIFE II"}, {"lat": -17.75267, "lng": 28.61906, "price": 1.089, "name": "DISA"}, {"lat": -13.63228, "lng": 28.95456, "price": 1.089, "name": "SPL"}, {"lat": -13.50386, "lng": 29.00044, "price": 1.089, "name": "DISA TEGUISE GOLF"}, {"lat": -13.67075, "lng": 29.06503, "price": 1.09, "name": "CEPSA TINAJO"}, {"lat": -13.82458, "lng": 28.92358, "price": 1.09, "name": "REPSOL"}, {"lat": -13.56825, "lng": 28.96517, "price": 1.09, "name": "REPSOL"}, {"lat": -16.73789, "lng": 28.07933, "price": 1.09, "name": "CEPSA"}, {"lat": -15.40472, "lng": 27.89917, "price": 1.092, "name": "SHELL"}, {"lat": -13.70439, "lng": 28.91597, "price": 1.093, "name": "MARINA PUERTO CALERO"}, {"lat": -15.48889, "lng": 28.13619, "price": 1.098, "name": "CEPSA"}, {"lat": -13.81564, "lng": 28.85917, "price": 1.101, "name": "MARINA RUBICON-DISA RED"}, {"lat": -5.30086, "lng": 35.89472, "price": 1.105, "name": "ALFAU"}, {"lat": -17.20597, "lng": 28.03511, "price": 1.105, "name": "LA JUNTA"}, {"lat": -13.83161, "lng": 28.86783, "price": 1.109, "name": "ESTACION PLAYA BLANCA"}, {"lat": -5.31956, "lng": 35.89156, "price": 1.117, "name": "CEPSA"}, {"lat": -5.32092, "lng": 35.89256, "price": 1.117, "name": "DISA"}, {"lat": -5.31944, "lng": 35.88997, "price": 1.117, "name": "CEPSA"}, {"lat": -5.32867, "lng": 35.89322, "price": 1.117, "name": "DISA"}, {"lat": -5.32292, "lng": 35.89406, "price": 1.117, "name": "CEPSA"}, {"lat": -5.32292, "lng": 35.88525, "price": 1.117, "name": "CEPSA"}, {"lat": -5.32056, "lng": 35.89233, "price": 1.123, "name": "SHELL MUELLE DATO"}, {"lat": -17.91453, "lng": 28.80819, "price": 1.132, "name": "PCAN"}, {"lat": -17.27772, "lng": 28.10678, "price": 1.139, "name": "CEPSA"}, {"lat": -5.33678, "lng": 35.8795, "price": 1.178, "name": "SHELL"}, {"lat": 0.19025, "lng": 41.91867, "price": 1.239, "name": "ORANGUTAN"}, {"lat": -1.19756, "lng": 42.17653, "price": 1.24, "name": "COOP. VIRGEN OLIVA"}, {"lat": 0.32, "lng": 41.82028, "price": 1.241, "name": "AGROPIENSO"}, {"lat": 0.283, "lng": 41.85517, "price": 1.244, "name": "BONAREA"}, {"lat": 0.18703, "lng": 41.91875, "price": 1.244, "name": "BONAREA"}, {"lat": 0.36542, "lng": 41.52414, "price": 1.244, "name": "BONAREA"}, {"lat": 0.35472, "lng": 42.22603, "price": 1.247, "name": "BONAREA"}, {"lat": -0.15312, "lng": 41.47595, "price": 1.247, "name": "BONAREA"}, {"lat": 0.49989, "lng": 42.10619, "price": 1.251, "name": "PREMIRA"}, {"lat": -2.46786, "lng": 42.45353, "price": 1.262, "name": "ALCAMPO"}, {"lat": 0.29569, "lng": 41.84572, "price": 1.265, "name": "CAMPSA EXPRESS"}, {"lat": -0.90928, "lng": 42.05022, "price": 1.268, "name": "ARENTO SIERRA DE LUNA"}, {"lat": 0.205, "lng": 41.82864, "price": 1.269, "name": "COOP. SAN MARCOS"}, {"lat": -1.88411, "lng": 43.30139, "price": 1.27, "name": "ALCAMPO"}, {"lat": -1.83472, "lng": 43.32258, "price": 1.27, "name": "ALCAMPO IRUN"}, {"lat": -1.29278, "lng": 42.27861, "price": 1.272, "name": "COOP SAN JOSE - ARENTO"}, {"lat": -2.41739, "lng": 42.46239, "price": 1.272, "name": "EROSKI"}, {"lat": -0.03281, "lng": 41.50078, "price": 1.278, "name": "COOPERATIVA LA VALCUERNA"}, {"lat": -0.52878, "lng": 41.13439, "price": 1.278, "name": "BIOTERUEL"}, {"lat": -1.12706, "lng": 41.76814, "price": 1.279, "name": "OCHOA LORES (LA JAREA)"}, {"lat": -1.23383, "lng": 41.54042, "price": 1.279, "name": "RED AHORRO"}, {"lat": -2.287, "lng": 42.43856, "price": 1.28, "name": "NORPETROL"}, {"lat": -0.23072, "lng": 40.94481, "price": 1.28, "name": "LA CALANDINA"}, {"lat": -1.26472, "lng": 41.34028, "price": 1.28, "name": "COOPERATIVA VITICOLA SAN"}, {"lat": -0.61517, "lng": 41.79333, "price": 1.28, "name": "ARENTO"}, {"lat": -1.70653, "lng": 41.44703, "price": 1.282, "name": "SAT 2563 NINO JESUS"}, {"lat": 2.05444, "lng": 41.33156, "price": 1.284, "name": "E.S. ALCAMPO SANT BOI"}, {"lat": -0.32489, "lng": 40.79606, "price": 1.287, "name": "BIOTERUEL S.L."}, {"lat": -0.46953, "lng": 41.21953, "price": 1.287, "name": "BIOTERUEL"}, {"lat": 2.09364, "lng": 41.36428, "price": 1.288, "name": "ESTACIO SERVEI CAN BUXERE"}, {"lat": -1.25533, "lng": 41.91219, "price": 1.288, "name": "E.S. SANCHO ABARCA"}, {"lat": -1.70956, "lng": 41.8905, "price": 1.289, "name": "GASOMATICA"}, {"lat": 2.8015, "lng": 41.95917, "price": 1.29, "name": "ESCLATOIL"}, {"lat": 2.95097, "lng": 42.26086, "price": 1.29, "name": "ESCLATOIL"}, {"lat": 0.64647, "lng": 41.10617, "price": 1.29, "name": "ESCLATOIL"}, {"lat": 0.72547, "lng": 40.72022, "price": 1.29, "name": "ESCLATOIL"}, {"lat": 2.06331, "lng": 41.37953, "price": 1.29, "name": "ESCLATOIL"}, {"lat": 1.75022, "lng": 41.52831, "price": 1.29, "name": "ESCLATOIL"}, {"lat": 2.77564, "lng": 42.11261, "price": 1.29, "name": "ESCLATOIL"}, {"lat": 2.49472, "lng": 41.68731, "price": 1.29, "name": "ESCLATOIL"}, {"lat": 2.25803, "lng": 42.05553, "price": 1.29, "name": "ESCLATOIL"}, {"lat": 3.11906, "lng": 41.85525, "price": 1.29, "name": "ESCLATOIL"}, {"lat": 1.26861, "lng": 41.31369, "price": 1.29, "name": "ESCLATOIL"}, {"lat": 1.06253, "lng": 41.07939, "price": 1.29, "name": "ESCLATOIL"}, {"lat": 2.13031, "lng": 41.36164, "price": 1.29, "name": "PETROCAT DIRECTE"}, {"lat": 1.71033, "lng": 41.34817, "price": 1.29, "name": "ESCLATOIL"}, {"lat": 2.25608, "lng": 41.94592, "price": 1.29, "name": "ESCLATOIL"}, {"lat": 3.08353, "lng": 42.19619, "price": 1.29, "name": "ESCLATOIL"}, {"lat": 3.12622, "lng": 42.11919, "price": 1.29, "name": "ESCLATOIL"}, {"lat": 3.10675, "lng": 42.25661, "price": 1.29, "name": "ESCLATOIL"}, {"lat": -0.14808, "lng": 41.49833, "price": 1.29, "name": "SENERSA S.L"}, {"lat": 1.86069, "lng": 41.66492, "price": 1.29, "name": "ESCLATOIL"}, {"lat": 0.63217, "lng": 41.60244, "price": 1.29, "name": "ESCLATOIL"}, {"lat": 2.24358, "lng": 41.88203, "price": 1.29, "name": "ESCLATOIL"}, {"lat": 1.47492, "lng": 41.17681, "price": 1.29, "name": "ESCLATOIL"}, {"lat": 0.89722, "lng": 42.17406, "price": 1.29, "name": "ESCLATOIL"}, {"lat": 2.62408, "lng": 41.74283, "price": 1.29, "name": "ESCLATOIL"}, {"lat": 2.90236, "lng": 41.82978, "price": 1.29, "name": "ESCLATOIL"}, {"lat": 3.17722, "lng": 42.04947, "price": 1.29, "name": "ESCLATOIL"}, {"lat": -0.15653, "lng": 41.05364, "price": 1.291, "name": "SIMPLY"}, {"lat": -1.12617, "lng": 41.76458, "price": 1.292, "name": "SANANTONIO"}, {"lat": 2.009, "lng": 41.3, "price": 1.294, "name": "BONAREA"}, {"lat": -1.71469, "lng": 41.90669, "price": 1.295, "name": "ARENTO-COOP.SAN ATILANO"}, {"lat": 1.19128, "lng": 41.26389, "price": 1.295, "name": "SIMON GRUP"}, {"lat": 1.97944, "lng": 41.56283, "price": 1.295, "name": "BONAREA"}, {"lat": 1.16989, "lng": 41.25058, "price": 1.295, "name": "ESTACIO SERVEI ALCOVER"}, {"lat": -2.95283, "lng": 43.30333, "price": 1.295, "name": "MAKRO"}, {"lat": 2.80028, "lng": 41.9625, "price": 1.295, "name": "GM OIL"}, {"lat": 3.03114, "lng": 41.96758, "price": 1.296, "name": "SARAS ENERGIA"}, {"lat": -1.27319, "lng": 41.5955, "price": 1.297, "name": "COOPERATIVA SAN PEDRO ARB"}, {"lat": -2.62033, "lng": 43.16494, "price": 1.297, "name": "SIMPLY"}, {"lat": 1.54075, "lng": 41.60231, "price": 1.297, "name": "BONAREA"}, {"lat": 2.10667, "lng": 41.80872, "price": 1.297, "name": "BONAREA"}, {"lat": 2.24908, "lng": 41.93978, "price": 1.297, "name": "BONAREA"}, {"lat": 2.53172, "lng": 41.81061, "price": 1.298, "name": "BONAREA"}, {"lat": -1.13039, "lng": 42.12786, "price": 1.298, "name": "CAMPSA EXPRESS"}, {"lat": 1.52682, "lng": 41.73311, "price": 1.298, "name": "BONAREA"}, {"lat": -2.77225, "lng": 42.82378, "price": 1.298, "name": "EUROCAM"}, {"lat": 1.26396, "lng": 41.67314, "price": 1.298, "name": "BONAREA"}, {"lat": 1.40307, "lng": 41.80784, "price": 1.298, "name": "BONAREA"}, {"lat": -1.61925, "lng": 42.83078, "price": 1.299, "name": "SIMPLY"}, {"lat": 1.21708, "lng": 41.114, "price": 1.299, "name": "TAMOIL"}, {"lat": -0.16614, "lng": 41.79961, "price": 1.299, "name": "COMBUSTIBLES  MONEGROS, S"}, {"lat": -2.671, "lng": 43.18628, "price": 1.299, "name": "SHELL"}, {"lat": 1.12946, "lng": 41.61211, "price": 1.299, "name": "BONAREA"}, {"lat": 0.49856, "lng": 40.95933, "price": 1.299, "name": "TAMOIL"}, {"lat": -2.68631, "lng": 43.26528, "price": 1.299, "name": "SHELL"}, {"lat": -1.16719, "lng": 42.13028, "price": 1.299, "name": "LABOIL"}, {"lat": -1.24578, "lng": 41.89364, "price": 1.299, "name": "LABOIL, S.L."}, {"lat": 0.41922, "lng": 41.86367, "price": 1.299, "name": "ESC"}, {"lat": -0.78283, "lng": 41.88358, "price": 1.299, "name": "COOP.SAN LICER - ARENTO"}, {"lat": -2.67156, "lng": 43.18578, "price": 1.299, "name": "SHELL"}, {"lat": 1.10465, "lng": 41.78206, "price": 1.299, "name": "BONAREA"}, {"lat": 1.22086, "lng": 41.11506, "price": 1.299, "name": "PETROCAT DIRECTE"}, {"lat": 1.27818, "lng": 41.78192, "price": 1.299, "name": "BONAREA"}, {"lat": 1.14773, "lng": 41.65539, "price": 1.299, "name": "BONAREA"}, {"lat": 1.55003, "lng": 41.98544, "price": 1.299, "name": "BONAREA"}, {"lat": 0.41364, "lng": 41.79864, "price": 1.299, "name": "CSC"}, {"lat": -1.12792, "lng": 42.13064, "price": 1.299, "name": "SIMPLY"}, {"lat": 2.97661, "lng": 42.26122, "price": 1.299, "name": "CENTRES AUTOEQUIP FIGUERE"}, {"lat": -0.51294, "lng": 41.49522, "price": 1.299, "name": "COALFA"}, {"lat": 2.27117, "lng": 41.94728, "price": 1.299, "name": "ZONA DIESEL"}, {"lat": 2.43592, "lng": 41.85306, "price": 1.299, "name": "ZONA DIESEL"}, {"lat": 2.12094, "lng": 41.35114, "price": 1.299, "name": "BALLENOIL"}, {"lat": 2.42719, "lng": 41.53186, "price": 1.299, "name": "BALLENOIL"}, {"lat": 1.15697, "lng": 41.38686, "price": 1.3, "name": "BONAREA"}, {"lat": -6.39017, "lng": 38.67239, "price": 1.3, "name": "E.LECLERC"}, {"lat": 1.19354, "lng": 41.90684, "price": 1.3, "name": "BONAREA"}, {"lat": 0.91408, "lng": 41.63053, "price": 1.3, "name": "BONAREA"}, {"lat": 0.81871, "lng": 41.77547, "price": 1.3, "name": "BONAREA"}, {"lat": 0.84271, "lng": 41.53289, "price": 1.3, "name": "BONAREA"}, {"lat": 1.14286, "lng": 41.39225, "price": 1.3, "name": "P7   PETRO7"}, {"lat": 0.42106, "lng": 41.46881, "price": 1.3, "name": "E.S. SEROS"}, {"lat": 1.10461, "lng": 41.40317, "price": 1.3, "name": "BONAREA"}, {"lat": -2.79106, "lng": 43.23175, "price": 1.301, "name": "EASYGAS"}, {"lat": 0.62528, "lng": 41.08497, "price": 1.301, "name": "BONAREA"}, {"lat": -1.20806, "lng": 41.36111, "price": 1.301, "name": "ARENTO"}, {"lat": 0.64951, "lng": 41.61559, "price": 1.301, "name": "BONAREA"}, {"lat": 0.54764, "lng": 41.22164, "price": 1.301, "name": "BONAREA"}, {"lat": 0.6045, "lng": 41.66403, "price": 1.301, "name": "BONAREA"}, {"lat": 0.93044, "lng": 42.14161, "price": 1.302, "name": "BONAREA"}, {"lat": 0.5169, "lng": 41.57767, "price": 1.302, "name": "BONAREA"}, {"lat": -2.91764, "lng": 42.70464, "price": 1.302, "name": "EROSKI"}, {"lat": -2.77264, "lng": 36.77817, "price": 1.302, "name": "COOP STA Ma AGUILA"}, {"lat": 2.25175, "lng": 41.94542, "price": 1.302, "name": "PETRONIEVES"}, {"lat": 1.31292, "lng": 42.06433, "price": 1.302, "name": "ESTACIO SERVEI OLIANA"}, {"lat": 0.89368, "lng": 42.14725, "price": 1.303, "name": "BONAREA"}, {"lat": -2.89672, "lng": 43.29328, "price": 1.304, "name": "GALP"}, {"lat": -1.61959, "lng": 42.06575, "price": 1.304, "name": "TGT"}, {"lat": -0.75761, "lng": 41.93875, "price": 1.305, "name": "ARENTO"}, {"lat": 2.09008, "lng": 41.37064, "price": 1.305, "name": "DANFORD"}, {"lat": 1.13094, "lng": 42.40614, "price": 1.305, "name": "BONAREA"}, {"lat": -1.51661, "lng": 41.83281, "price": 1.305, "name": "BOLA"}, {"lat": 0.83743, "lng": 41.57914, "price": 1.305, "name": "F.A.LES PLANES"}, {"lat": 0.90897, "lng": 41.62833, "price": 1.305, "name": "SARAS ENERGIA"}, {"lat": -0.44219, "lng": 41.17061, "price": 1.306, "name": "SARAS"}, {"lat": 0.59786, "lng": 41.59922, "price": 1.306, "name": "PETRONIEVES"}, {"lat": -2.968, "lng": 43.138, "price": 1.307, "name": "EROSKI"}, {"lat": -2.9305, "lng": 43.40808, "price": 1.307, "name": "EROSKI"}, {"lat": -2.66428, "lng": 42.86031, "price": 1.307, "name": "EROSKI"}, {"lat": -3.02428, "lng": 43.31164, "price": 1.307, "name": "EROSKI"}, {"lat": -1.94389, "lng": 43.31119, "price": 1.307, "name": "EROSKI"}, {"lat": -2.02219, "lng": 43.27689, "price": 1.307, "name": "EROSKI"}, {"lat": -2.87589, "lng": 43.2275, "price": 1.307, "name": "EROSKI"}, {"lat": -2.47528, "lng": 43.0707, "price": 1.307, "name": "EROSKI"}, {"lat": -3.12489, "lng": 43.20989, "price": 1.307, "name": "EROSKI"}, {"lat": -2.97319, "lng": 43.31769, "price": 1.307, "name": "EROSKI"}, {"lat": -2.99439, "lng": 43.34039, "price": 1.307, "name": "EROSKI"}, {"lat": -2.61811, "lng": 43.17189, "price": 1.307, "name": "EROSKI"}, {"lat": -3.00419, "lng": 43.28719, "price": 1.307, "name": "EROSKI"}, {"lat": 2.44931, "lng": 41.54547, "price": 1.308, "name": "SARAS"}, {"lat": 0.11844, "lng": 42.03219, "price": 1.308, "name": "SIMPLY"}, {"lat": -0.44006, "lng": 41.80419, "price": 1.308, "name": "CEPSA SC SIERRA DE ALCUBI"}, {"lat": 2.27794, "lng": 41.61025, "price": 1.309, "name": "LOW COST"}, {"lat": 1.00031, "lng": 41.64444, "price": 1.309, "name": "E.S.ARENES BELLPUIG"}, {"lat": -1.64289, "lng": 42.07622, "price": 1.309, "name": "E.S. BARDENAS"}, {"lat": -7.60636, "lng": 43.08453, "price": 1.309, "name": "SARAS"}, {"lat": 2.25567, "lng": 41.55539, "price": 1.309, "name": "BALLENOIL"}, {"lat": 2.04222, "lng": 41.33178, "price": 1.309, "name": "GALP"}, {"lat": -2.68586, "lng": 43.26622, "price": 1.309, "name": "SHELL"}, {"lat": -2.85286, "lng": 43.28011, "price": 1.309, "name": "CEPSA"}, {"lat": -2.56472, "lng": 43.13028, "price": 1.309, "name": "GALP"}, {"lat": 2.03103, "lng": 41.31764, "price": 1.309, "name": "BALLENOIL"}, {"lat": -0.77597, "lng": 41.69292, "price": 1.309, "name": "EL PUEYO"}, {"lat": -1.41967, "lng": 41.90328, "price": 1.31, "name": "COOPERATIVA COMARCAL STMO"}, {"lat": -1.68892, "lng": 42.82625, "price": 1.31, "name": "AGIP"}, {"lat": -1.67764, "lng": 42.83239, "price": 1.31, "name": "EROSKI"}, {"lat": 0.42422, "lng": 41.86031, "price": 1.31, "name": "COMBUSTIBLES LA LITERA"}, {"lat": 1.71881, "lng": 41.32339, "price": 1.31, "name": "PETROCAT DIRECTE"}, {"lat": 1.71867, "lng": 41.32269, "price": 1.31, "name": "PETROCAT DIRECTE"}, {"lat": 0.82951, "lng": 41.54114, "price": 1.31, "name": "AGROPECUARIA DE JUNEDA"}, {"lat": -1.63429, "lng": 42.7852, "price": 1.31, "name": "E.LECLERC"}, {"lat": 0.79681, "lng": 41.74369, "price": 1.31, "name": "RED AHORRO"}, {"lat": -1.68623, "lng": 42.82972, "price": 1.31, "name": "EUROCAM"}, {"lat": 0.87878, "lng": 41.88022, "price": 1.311, "name": "CAMPSA EXPRESS"}, {"lat": 0.82992, "lng": 41.78558, "price": 1.311, "name": "CAMPSA EXPRESS"}, {"lat": -1.21511, "lng": 42.49094, "price": 1.311, "name": "AN ENERGETICOS S,L"}, {"lat": -8.662, "lng": 42.04128, "price": 1.313, "name": "OUTLETUI"}, {"lat": -2.98303, "lng": 36.76164, "price": 1.315, "name": "CAMPOEJIDO-ADRA"}, {"lat": -2.75222, "lng": 36.775, "price": 1.315, "name": "CAMPOEJIDO-CAMPOALDEILLA"}, {"lat": -1.69844, "lng": 41.94892, "price": 1.315, "name": "COOP. NTRA.SRA. PILAR"}, {"lat": 2.25017, "lng": 41.55369, "price": 1.315, "name": "CAMPSA EXPRESS"}, {"lat": -2.79514, "lng": 36.72394, "price": 1.315, "name": "ESTACION SERVICIO CAMPOEJ"}, {"lat": -2.86831, "lng": 36.81472, "price": 1.315, "name": "ESTACION SERVICIO CAMPEJI"}, {"lat": 2.12656, "lng": 41.35572, "price": 1.315, "name": "REPSOL"}, {"lat": -0.42067, "lng": 39.35531, "price": 1.315, "name": "CST"}, {"lat": -2.83186, "lng": 36.76892, "price": 1.315, "name": "ESTACION DE SERVICIO CAMP"}, {"lat": 1.50972, "lng": 41.61881, "price": 1.315, "name": "CAMPSA EXPRESS"}, {"lat": -6.98956, "lng": 38.90039, "price": 1.315, "name": "AREA SAN MARTIN"}, {"lat": -1.94381, "lng": 42.28947, "price": 1.315, "name": "COMBUSTIBLES CALAHORRA S."}, {"lat": -8.88811, "lng": 42.79817, "price": 1.316, "name": "EROSKI"}, {"lat": -1.00131, "lng": 41.70189, "price": 1.316, "name": "ALCAMPO"}, {"lat": 2.43631, "lng": 41.52958, "price": 1.316, "name": "MATARO"}, {"lat": 2.24156, "lng": 42.01028, "price": 1.316, "name": "PETROVOLTREG\u00c0"}, {"lat": -0.93603, "lng": 41.64408, "price": 1.316, "name": "ALCAMPO"}, {"lat": 0.85697, "lng": 40.94925, "price": 1.317, "name": "ALAS"}, {"lat": -1.27481, "lng": 41.59475, "price": 1.317, "name": "E.S.EPILA"}, {"lat": 1.14942, "lng": 41.65192, "price": 1.317, "name": "PETRONIEVES"}, {"lat": 1.16069, "lng": 41.16192, "price": 1.317, "name": "ALAS"}, {"lat": 2.08342, "lng": 41.32969, "price": 1.317, "name": "PETROLOWCOST"}, {"lat": 0.13544, "lng": 41.12525, "price": 1.317, "name": "E.S.MAELLA"}, {"lat": -1.76475, "lng": 42.58653, "price": 1.318, "name": "E.E.S.S  NTRA. SRA. JERUS"}, {"lat": 2.09097, "lng": 41.52864, "price": 1.318, "name": "ALCAMPO"}, {"lat": 2.47561, "lng": 42.18942, "price": 1.318, "name": "BP"}, {"lat": -1.52061, "lng": 41.832, "price": 1.318, "name": "EL MONCAYO"}, {"lat": -0.42539, "lng": 42.12878, "price": 1.318, "name": "SIMPLY"}, {"lat": -4.19303, "lng": 38.00558, "price": 1.319, "name": "TAMOIL"}, {"lat": 2.43103, "lng": 41.52719, "price": 1.319, "name": "GALP"}, {"lat": -3.84186, "lng": 43.42575, "price": 1.319, "name": "MAKRO"}, {"lat": -2.80383, "lng": 43.23606, "price": 1.319, "name": "REPSOL"}, {"lat": -3.68444, "lng": 41.68681, "price": 1.319, "name": "SARAS ENERGIA"}, {"lat": -0.46206, "lng": 39.54175, "price": 1.319, "name": "MIGUEL PI"}, {"lat": -1.64443, "lng": 42.60225, "price": 1.319, "name": "TALLERES ARRUBLA"}, {"lat": -2.75294, "lng": 43.22892, "price": 1.319, "name": "REPSOL"}, {"lat": 2.10642, "lng": 41.53214, "price": 1.319, "name": "BALLENOIL"}, {"lat": 2.27853, "lng": 41.605, "price": 1.319, "name": "1PRIMER"}, {"lat": -3.73775, "lng": 40.36531, "price": 1.319, "name": "E.LECLERC"}, {"lat": -0.91875, "lng": 41.58833, "price": 1.319, "name": "GASOLINERA VALDECONSEJO"}, {"lat": 2.08642, "lng": 41.59925, "price": 1.319, "name": "PETROPRIX"}, {"lat": 2.42911, "lng": 41.53569, "price": 1.319, "name": "AUTONET OIL"}, {"lat": -5.77964, "lng": 43.23261, "price": 1.319, "name": "BALLENOIL"}, {"lat": -0.967, "lng": 41.56167, "price": 1.319, "name": "MG"}, {"lat": -8.43314, "lng": 43.35058, "price": 1.319, "name": "MAKRO"}, {"lat": -3.69044, "lng": 40.23953, "price": 1.319, "name": "E.LECLERC"}, {"lat": 2.42789, "lng": 41.52622, "price": 1.319, "name": "SHELL"}, {"lat": -1.63461, "lng": 42.71797, "price": 1.319, "name": "E.S. TIEBAS"}, {"lat": -3.47236, "lng": 43.20972, "price": 1.319, "name": "(SIN ROTULO)"}, {"lat": 2.43014, "lng": 41.53003, "price": 1.319, "name": "GALP"}, {"lat": 1.38767, "lng": 41.53669, "price": 1.32, "name": "COPERAL"}, {"lat": -0.77508, "lng": 41.8195, "price": 1.32, "name": "ASES"}, {"lat": 0.88694, "lng": 41.62753, "price": 1.32, "name": "PETROLIS"}, {"lat": -0.58803, "lng": 42.04011, "price": 1.32, "name": "VIRGEN DE LA CORONA"}, {"lat": -0.76253, "lng": 42.01078, "price": 1.321, "name": "E.S. SAN NICOLAS"}, {"lat": 1.10072, "lng": 41.39447, "price": 1.321, "name": "CAMPSA EXPRESS"}, {"lat": -6.99878, "lng": 38.89222, "price": 1.322, "name": "PETROCAR"}, {"lat": -1.76608, "lng": 42.58697, "price": 1.322, "name": "AN ENERGETICOS ARTAJONA"}, {"lat": -1.57278, "lng": 43.14003, "price": 1.322, "name": "NAFAR MENDI"}, {"lat": -2.29114, "lng": 43.17808, "price": 1.322, "name": "URKIDE"}, {"lat": -0.46981, "lng": 41.21983, "price": 1.323, "name": "REPSOL"}, {"lat": -3.22664, "lng": 39.39525, "price": 1.323, "name": "MACMAOIL"}, {"lat": -0.96042, "lng": 41.5755, "price": 1.323, "name": "SHELL"}, {"lat": 0.9854, "lng": 41.67986, "price": 1.323, "name": "COOP. IVARS"}, {"lat": -6.98761, "lng": 38.89567, "price": 1.323, "name": "ADS"}, {"lat": -7.87799, "lng": 42.31805, "price": 1.324, "name": "GALP"}, {"lat": 1.201, "lng": 41.66192, "price": 1.324, "name": "GALP"}, {"lat": -0.26158, "lng": 39.17817, "price": 1.325, "name": "EROSKI"}, {"lat": -1.02269, "lng": 42.36022, "price": 1.325, "name": "ARENTO-COOP. SAN ESTEBAN"}, {"lat": -0.43636, "lng": 40.97386, "price": 1.325, "name": "GALP"}, {"lat": -1.19469, "lng": 42.26064, "price": 1.325, "name": "CEPSA"}, {"lat": -0.60811, "lng": 39.649, "price": 1.325, "name": "COOPERATIVA DE LLIRIA"}, {"lat": 0.02083, "lng": 38.81792, "price": 1.325, "name": "EROSKI"}, {"lat": -2.88258, "lng": 38.69975, "price": 1.325, "name": "CASTILLO DE MONTIEL"}, {"lat": 0.58567, "lng": 40.70317, "price": 1.325, "name": "SARAS ENERGIA"}, {"lat": 2.89925, "lng": 41.81581, "price": 1.325, "name": "REPSOL"}, {"lat": -1.50494, "lng": 43.29136, "price": 1.326, "name": "AVIA"}, {"lat": 2.09472, "lng": 41.54611, "price": 1.326, "name": "PETROCAT DIRECTE"}, {"lat": -5.78194, "lng": 43.22772, "price": 1.326, "name": "EROSKI"}, {"lat": 0.50875, "lng": 41.36622, "price": 1.327, "name": "COOPERATIVA MAIALS"}, {"lat": -0.98111, "lng": 41.65144, "price": 1.327, "name": "EROSKI"}, {"lat": -0.45558, "lng": 39.53947, "price": 1.327, "name": "BZ ESTACION DE SERVICIO"}, {"lat": 2.10217, "lng": 41.34983, "price": 1.328, "name": "EVOLUTION"}, {"lat": -0.06792, "lng": 41.24906, "price": 1.328, "name": "REPSOL"}, {"lat": -2.91264, "lng": 43.12094, "price": 1.328, "name": "BENGOETXEA"}, {"lat": 2.03294, "lng": 41.58156, "price": 1.329, "name": "PETRO VALLES"}, {"lat": 0.39467, "lng": 40.41022, "price": 1.329, "name": "SARAS ENERGIA"}, {"lat": -0.73528, "lng": 37.92861, "price": 1.329, "name": "ALCAMPO"}, {"lat": 2.26783, "lng": 41.55711, "price": 1.329, "name": "EL SURTIDOR"}, {"lat": -0.39253, "lng": 39.40256, "price": 1.329, "name": "BIOMAR OIL"}, {"lat": 2.7555, "lng": 41.66775, "price": 1.329, "name": "GALP"}, {"lat": -1.22883, "lng": 38.05403, "price": 1.329, "name": "E L   P U E N T E,  S.L."}, {"lat": -2.95175, "lng": 42.6955, "price": 1.329, "name": "E.LECLERC"}, {"lat": 0.75136, "lng": 41.70778, "price": 1.329, "name": "SAV SERVEIS"}, {"lat": 2.27728, "lng": 41.60994, "price": 1.329, "name": "SHELL"}, {"lat": -0.32186, "lng": 39.58439, "price": 1.329, "name": "SARAS"}, {"lat": 2.03817, "lng": 41.52042, "price": 1.329, "name": "PETROCAT DIRECTE"}, {"lat": 3.1525, "lng": 41.91261, "price": 1.329, "name": "BALLENOIL"}, {"lat": 2.28203, "lng": 41.59694, "price": 1.329, "name": "AUTONET OIL"}, {"lat": 2.28631, "lng": 41.62678, "price": 1.329, "name": "PETRO VALLES"}, {"lat": -5.93758, "lng": 37.28097, "price": 1.329, "name": "BALLENOIL"}, {"lat": -2.781, "lng": 43.13411, "price": 1.329, "name": "ARTEA OIL , S.A."}, {"lat": -2.68694, "lng": 43.2965, "price": 1.329, "name": "AVIA"}, {"lat": -1.06756, "lng": 41.61686, "price": 1.329, "name": "BOLA"}, {"lat": -2.77756, "lng": 43.16378, "price": 1.329, "name": "E.S. IGORRE S.L."}, {"lat": -5.93431, "lng": 37.27719, "price": 1.329, "name": "SHELL"}, {"lat": -0.25458, "lng": 41.84483, "price": 1.329, "name": "REPSOL"}, {"lat": 2.27722, "lng": 41.60306, "price": 1.329, "name": "GALP"}, {"lat": 2.75503, "lng": 41.66753, "price": 1.329, "name": "ZONA DIESEL"}, {"lat": 1.81133, "lng": 41.72986, "price": 1.329, "name": "GALP"}, {"lat": 2.02519, "lng": 41.58117, "price": 1.329, "name": "PETROCAT DIRECTE"}, {"lat": -1.37933, "lng": 41.47728, "price": 1.329, "name": "COSANSE"}, {"lat": -1.22833, "lng": 38.05469, "price": 1.329, "name": "E L   P U E N T E,  S.L."}, {"lat": -1.21678, "lng": 37.95667, "price": 1.329, "name": "E.LECLERC"}, {"lat": -1.63153, "lng": 41.353, "price": 1.329, "name": "SIMPLY"}, {"lat": 0.52158, "lng": 42.60319, "price": 1.329, "name": "E.S. LA MALAGUETA"}, {"lat": -3.01925, "lng": 38.73894, "price": 1.33, "name": "NTRA. SRA. ANTIGUA"}, {"lat": -8.70089, "lng": 42.21408, "price": 1.33, "name": "ALCAMPO VIGO"}, {"lat": -0.02994, "lng": 41.22769, "price": 1.33, "name": "GANAR, S. COOP."}, {"lat": -1.17058, "lng": 37.96236, "price": 1.33, "name": "FROET-GAS"}, {"lat": -1.22314, "lng": 38.07725, "price": 1.33, "name": "FROET-GAS"}, {"lat": -1.95733, "lng": 42.37986, "price": 1.33, "name": "AN ENERGETICOS ANDOSILLA"}, {"lat": 0.15092, "lng": 40.87253, "price": 1.331, "name": "CEPSA"}, {"lat": -1.78997, "lng": 42.33594, "price": 1.331, "name": "EROSKI"}, {"lat": -5.96519, "lng": 37.37047, "price": 1.331, "name": "ALCAMPO S.A."}, {"lat": -2.19164, "lng": 42.44394, "price": 1.331, "name": "AN ENERGETICOS - MENDAVIA"}, {"lat": -1.588, "lng": 42.0355, "price": 1.331, "name": "EROSKI"}, {"lat": -1.78817, "lng": 42.24864, "price": 1.332, "name": "EROSKI"}, {"lat": -1.6095, "lng": 42.83522, "price": 1.332, "name": "REPSOL"}, {"lat": -1.84767, "lng": 42.56219, "price": 1.332, "name": "ENERGETICOS LARRAGA-ARTAJ"}, {"lat": -0.85108, "lng": 41.66756, "price": 1.332, "name": "SHELL"}, {"lat": -5.75783, "lng": 41.51939, "price": 1.332, "name": "VALCARCE"}, {"lat": -2.0635, "lng": 42.23397, "price": 1.333, "name": "ADELFAS"}, {"lat": -0.43083, "lng": 39.81306, "price": 1.333, "name": "COOP. Na Sa DE LA ASUNCIO"}, {"lat": -6.34847, "lng": 37.83108, "price": 1.333, "name": "ZUFRE SERVICIOS E.S.C"}, {"lat": 2.95942, "lng": 42.231, "price": 1.333, "name": "PETRONIEVES"}, {"lat": -0.50408, "lng": 41.43272, "price": 1.333, "name": "REPSOL"}, {"lat": -1.95369, "lng": 42.31225, "price": 1.333, "name": "ADELFAS"}, {"lat": -0.42856, "lng": 39.81044, "price": 1.333, "name": "TRANSPORTES RODOLFO Y VEN"}, {"lat": -0.32447, "lng": 39.50453, "price": 1.333, "name": "ALCAMPO S.A."}, {"lat": -2.87894, "lng": 38.69917, "price": 1.333, "name": "E.S. SANTISIMO CRISTO EXP"}, {"lat": -3.48069, "lng": 40.4735, "price": 1.333, "name": "ALCAMPO"}, {"lat": -0.58283, "lng": 39.59964, "price": 1.333, "name": "ESTACION SERVICIO DURA"}, {"lat": -0.80181, "lng": 41.75081, "price": 1.333, "name": "E.S. PENAFLOR"}, {"lat": 2.16911, "lng": 42.21586, "price": 1.333, "name": "SARAS"}, {"lat": -0.15322, "lng": 41.79233, "price": 1.333, "name": "REPSOL"}, {"lat": -1.27211, "lng": 42.28333, "price": 1.333, "name": "PETRONOR"}, {"lat": 2.19075, "lng": 42.19708, "price": 1.333, "name": "CAMPSA EXPRESS"}, {"lat": -0.36933, "lng": 41.93961, "price": 1.333, "name": "REPSOL"}, {"lat": -0.46567, "lng": 41.404, "price": 1.333, "name": "REPSOL"}, {"lat": -6.41131, "lng": 38.69381, "price": 1.334, "name": "SHELL"}, {"lat": -0.835, "lng": 41.61111, "price": 1.334, "name": "SHELL"}, {"lat": 2.10542, "lng": 41.53261, "price": 1.334, "name": "REPSOL"}, {"lat": 2.10336, "lng": 41.53022, "price": 1.334, "name": "REPSOL"}, {"lat": 2.85472, "lng": 41.8055, "price": 1.334, "name": "REPSOL"}, {"lat": 2.85494, "lng": 41.80483, "price": 1.334, "name": "REPSOL"}, {"lat": -2.64497, "lng": 43.14561, "price": 1.334, "name": "AVIA"}, {"lat": -8.54378, "lng": 42.53619, "price": 1.334, "name": "CEPSA"}, {"lat": -2.66197, "lng": 43.06314, "price": 1.334, "name": "AVIA"}, {"lat": -1.63028, "lng": 41.35308, "price": 1.334, "name": "SARAS"}, {"lat": -2.98847, "lng": 43.38222, "price": 1.335, "name": "GALP"}, {"lat": -3.83694, "lng": 43.42889, "price": 1.335, "name": "EROSKI"}, {"lat": 2.22856, "lng": 41.42781, "price": 1.335, "name": "ALCAMPO"}, {"lat": -7.84511, "lng": 43.65803, "price": 1.335, "name": "ORTEGAL OIL"}, {"lat": -2.98736, "lng": 43.38258, "price": 1.335, "name": "GALP"}, {"lat": 2.03767, "lng": 41.55928, "price": 1.335, "name": "BALLENOIL"}, {"lat": 3.13661, "lng": 41.86406, "price": 1.335, "name": "GALP"}, {"lat": -1.65836, "lng": 42.76936, "price": 1.335, "name": "AN ENERGETICOS COMARCA 2"}, {"lat": -1.87811, "lng": 39.00964, "price": 1.335, "name": "ALCAMPO"}, {"lat": 0.59344, "lng": 41.18083, "price": 1.335, "name": "PETRONOR"}, {"lat": -0.94894, "lng": 41.58772, "price": 1.335, "name": "E.S.SANTA FE"}, {"lat": -2.27403, "lng": 43.27356, "price": 1.335, "name": "AVIA"}, {"lat": -2.47792, "lng": 42.75319, "price": 1.335, "name": "(SIN ROTULO)"}, {"lat": -2.35728, "lng": 42.67022, "price": 1.335, "name": "PETRONOR"}, {"lat": -0.81383, "lng": 41.66717, "price": 1.335, "name": "MEROIL"}, {"lat": 0.49008, "lng": 41.97828, "price": 1.336, "name": "CEPSA"}, {"lat": 0.15361, "lng": 41.95014, "price": 1.336, "name": "CEPSA-E.S.JAIME I"}, {"lat": -3.64742, "lng": 38.08975, "price": 1.336, "name": "ALCAMPO"}, {"lat": -1.31294, "lng": 41.86253, "price": 1.336, "name": "COSANPE"}, {"lat": -0.04375, "lng": 41.23594, "price": 1.336, "name": "CEPSA"}, {"lat": -1.63511, "lng": 41.82461, "price": 1.336, "name": "ESTACION DE SERVICIO BULB"}, {"lat": 2.02433, "lng": 41.47081, "price": 1.336, "name": "ENERGETICS"}, {"lat": 2.24239, "lng": 42.00419, "price": 1.336, "name": "PETROCAT"}, {"lat": 2.03397, "lng": 41.50311, "price": 1.336, "name": "ENERGETICS"}, {"lat": -1.72128, "lng": 41.89397, "price": 1.337, "name": "CEPSA"}, {"lat": 2.08689, "lng": 41.60153, "price": 1.337, "name": "BTP"}, {"lat": -1.98125, "lng": 42.31258, "price": 1.337, "name": "EROSKI"}, {"lat": -0.42528, "lng": 42.14806, "price": 1.337, "name": "EROSKI"}, {"lat": 2.03469, "lng": 41.56236, "price": 1.337, "name": "PETROCAT DIRECTE"}, {"lat": 1.88547, "lng": 41.39047, "price": 1.337, "name": "ANG PETROLIS"}, {"lat": 2.02358, "lng": 41.48317, "price": 1.338, "name": "PUNTA SOLERA"}, {"lat": -7.40114, "lng": 37.22297, "price": 1.338, "name": "BTP"}, {"lat": -1.97117, "lng": 42.30639, "price": 1.338, "name": "E.S. LOPEZ ARAQUISTAIN NA"}, {"lat": -8.20719, "lng": 43.49067, "price": 1.338, "name": "ALCAMPO FERROL"}, {"lat": -1.85203, "lng": 42.55181, "price": 1.338, "name": "AN ENERGETICOS LARRAGA"}, {"lat": -1.03897, "lng": 41.35047, "price": 1.338, "name": "CEPSA"}, {"lat": 2.10422, "lng": 41.53508, "price": 1.338, "name": "GALP"}, {"lat": -8.52031, "lng": 42.90228, "price": 1.338, "name": "SBC"}, {"lat": -1.80978, "lng": 42.33769, "price": 1.338, "name": "A.N. ENERGETICOS, S.L"}, {"lat": -8.46789, "lng": 43.23061, "price": 1.339, "name": "LOW COST ATENDIDO O CORGO"}, {"lat": -1.68744, "lng": 43.30936, "price": 1.339, "name": "AVIA"}, {"lat": 0.82676, "lng": 41.78814, "price": 1.339, "name": "CARREFOUR"}, {"lat": 2.78797, "lng": 41.96733, "price": 1.339, "name": "MEROIL"}, {"lat": -5.74047, "lng": 37.20069, "price": 1.339, "name": "TAMOIL"}, {"lat": -1.62125, "lng": 42.18544, "price": 1.339, "name": "CARBURANTES VALTIERRA S.L"}, {"lat": -0.379, "lng": 39.41731, "price": 1.339, "name": "FEMESA"}, {"lat": -8.23742, "lng": 43.28122, "price": 1.339, "name": "E.S. CORTINAN"}, {"lat": -3.75542, "lng": 39.00281, "price": 1.339, "name": "ENERGIAS AF"}, {"lat": -5.63344, "lng": 37.46842, "price": 1.339, "name": "SEDIGAS, S.L."}, {"lat": 1.99197, "lng": 41.55589, "price": 1.339, "name": "GALP"}, {"lat": 2.083, "lng": 41.37233, "price": 1.339, "name": "MEROIL"}, {"lat": 0.5365, "lng": 41.56872, "price": 1.339, "name": "SARAS"}, {"lat": -3.57056, "lng": 42.94039, "price": 1.339, "name": "E.S. RIVERA"}, {"lat": -6.59381, "lng": 37.29972, "price": 1.339, "name": "SAT CONDADO"}, {"lat": -4.81883, "lng": 37.36561, "price": 1.339, "name": "MINIOIL"}, {"lat": -1.61986, "lng": 42.18731, "price": 1.339, "name": "ENERGETICOS VALTIERRA"}, {"lat": -2.05042, "lng": 42.32547, "price": 1.339, "name": "REPSOL"}, {"lat": -1.99047, "lng": 42.21372, "price": 1.339, "name": "CAMPSA"}, {"lat": -3.00244, "lng": 43.05128, "price": 1.339, "name": "PETRONOR"}, {"lat": -7.39219, "lng": 37.217, "price": 1.339, "name": "SARAS"}, {"lat": 0.61108, "lng": 41.01244, "price": 1.339, "name": "REPSOL"}, {"lat": -0.78764, "lng": 37.84333, "price": 1.339, "name": "HERMANOS NAVARRO"}, {"lat": -2.95136, "lng": 43.14864, "price": 1.339, "name": "PETRONOR"}, {"lat": 2.10872, "lng": 41.35464, "price": 1.339, "name": "OILPRIX"}, {"lat": 0.53292, "lng": 42.61489, "price": 1.339, "name": "LOW COST 24 H. BENASQUE"}, {"lat": -3.76378, "lng": 40.25119, "price": 1.339, "name": "GALP"}, {"lat": 2.28461, "lng": 41.58592, "price": 1.339, "name": "GALP"}, {"lat": 0.09506, "lng": 38.83692, "price": 1.339, "name": "SARAS ENERGIA"}, {"lat": -2.69892, "lng": 42.83678, "price": 1.339, "name": "GALP"}, {"lat": -2.43228, "lng": 42.49061, "price": 1.339, "name": "E.S. OION"}, {"lat": -7.38186, "lng": 37.23983, "price": 1.339, "name": "SARAS"}, {"lat": 2.38457, "lng": 41.51236, "price": 1.339, "name": "BENZINERA   38"}, {"lat": -2.59756, "lng": 43.17056, "price": 1.339, "name": "EUSKOIL-STAR PETROLEUM"}, {"lat": -2.94114, "lng": 43.15286, "price": 1.339, "name": "REPSOL"}, {"lat": -1.14453, "lng": 42.12681, "price": 1.339, "name": "CEPSA"}, {"lat": 2.80833, "lng": 41.96583, "price": 1.339, "name": "GALP"}, {"lat": -3.32883, "lng": 40.50511, "price": 1.339, "name": "ALCAMPO"}, {"lat": -3.62103, "lng": 37.13033, "price": 1.339, "name": "MINIOIL"}, {"lat": -7.39856, "lng": 37.22069, "price": 1.339, "name": "BP"}, {"lat": -1.23917, "lng": 41.66581, "price": 1.339, "name": "REPSOL"}, {"lat": -1.14286, "lng": 42.11839, "price": 1.339, "name": "CEPSA"}, {"lat": -0.68592, "lng": 42.27486, "price": 1.339, "name": "LABOIL, S.L."}, {"lat": -1.68154, "lng": 42.84325, "price": 1.339, "name": "ESTACION DE SERVICIO ARAL"}, {"lat": 2.00762, "lng": 41.55581, "price": 1.339, "name": "GALP"}, {"lat": -1.47006, "lng": 41.81572, "price": 1.339, "name": "CEPSA"}, {"lat": -1.97458, "lng": 42.30269, "price": 1.339, "name": "CAMPSA"}, {"lat": -2.08531, "lng": 42.23017, "price": 1.339, "name": "CARMINA II"}, {"lat": 0.54772, "lng": 41.22175, "price": 1.339, "name": "REPSOL"}, {"lat": 2.25467, "lng": 41.93808, "price": 1.339, "name": "DYNEFF"}, {"lat": -3.56581, "lng": 40.3905, "price": 1.339, "name": "TOP-OIL"}, {"lat": -0.06539, "lng": 39.97948, "price": 1.339, "name": "ALCAMPO"}, {"lat": 2.98444, "lng": 42.26725, "price": 1.339, "name": "SHELL"}, {"lat": 2.03811, "lng": 41.50567, "price": 1.339, "name": "JULIA OIL (FINA)"}, {"lat": -1.18331, "lng": 37.95264, "price": 1.339, "name": "CAMPSA EXPRESS"}, {"lat": -3.56497, "lng": 40.39122, "price": 1.339, "name": "LOW PRICE BUSINESS(LPB)"}, {"lat": 0.54769, "lng": 41.22178, "price": 1.339, "name": "REPSOL"}, {"lat": -0.16239, "lng": 39.84103, "price": 1.339, "name": "NINGUNO"}, {"lat": -1.11308, "lng": 41.57944, "price": 1.339, "name": "E.S.LA MUELA"}, {"lat": -5.78164, "lng": 43.24608, "price": 1.339, "name": "SARAS"}, {"lat": -2.83508, "lng": 43.33647, "price": 1.339, "name": "GAMIZ"}, {"lat": -0.46667, "lng": 39.54336, "price": 1.339, "name": "E.S. METROARTE"}, {"lat": -1.02803, "lng": 42.61372, "price": 1.34, "name": "(SIN ROTULO)"}, {"lat": -5.80319, "lng": 43.39197, "price": 1.34, "name": "EROSKI"}, {"lat": -6.39101, "lng": 38.68738, "price": 1.34, "name": "E. S. SAN ISIDRO"}, {"lat": -3.76317, "lng": 42.27531, "price": 1.34, "name": "NORPETROL"}, {"lat": -0.25889, "lng": 41.49567, "price": 1.34, "name": "CEPSA"}, {"lat": -1.501, "lng": 38.03847, "price": 1.34, "name": "FRUCIMU"}, {"lat": -1.48322, "lng": 37.75696, "price": 1.34, "name": "COATO"}, {"lat": 2.89653, "lng": 41.82883, "price": 1.34, "name": "REPSOL"}, {"lat": -1.13997, "lng": 38.61036, "price": 1.34, "name": "OIL BAROL SL"}, {"lat": -1.56792, "lng": 42.82694, "price": 1.34, "name": "GALP"}, {"lat": -3.93711, "lng": 38.99233, "price": 1.34, "name": "E.LECLERC"}, {"lat": -0.26067, "lng": 41.49647, "price": 1.34, "name": "CEPSA"}, {"lat": 2.94775, "lng": 41.82664, "price": 1.34, "name": "REPSOL"}, {"lat": -6.72117, "lng": 43.54508, "price": 1.34, "name": "EROSKI"}, {"lat": -0.13006, "lng": 41.04397, "price": 1.341, "name": "CEPSA"}, {"lat": -0.34389, "lng": 41.32253, "price": 1.341, "name": "CEPSA"}, {"lat": -1.79336, "lng": 42.07261, "price": 1.341, "name": "AN ENERGETICOS/BODEGA CIR"}, {"lat": -5.79682, "lng": 43.26756, "price": 1.341, "name": "DAM,S.L."}, {"lat": -1.62492, "lng": 42.77008, "price": 1.341, "name": "AN ENERGETICOS"}, {"lat": -1.64617, "lng": 42.33872, "price": 1.341, "name": "AN ENERGETICOS"}, {"lat": -1.66506, "lng": 42.49464, "price": 1.341, "name": "AN ENERGETICOS"}, {"lat": -1.74225, "lng": 42.2825, "price": 1.341, "name": "AN ENERGETICOS VILLAFRANC"}, {"lat": -1.69661, "lng": 42.17922, "price": 1.341, "name": "AN ENERGETICOS CASTEJON"}, {"lat": -1.59761, "lng": 42.82781, "price": 1.341, "name": "AN ENERGETICOS HUARTE"}, {"lat": -1.51337, "lng": 41.9935, "price": 1.341, "name": "AN ENERGETICOS S.L."}, {"lat": -2.05381, "lng": 42.38925, "price": 1.341, "name": "AN ENERGETICOS SARTAGUDA"}, {"lat": -1.90217, "lng": 42.31567, "price": 1.341, "name": "AN ENERGETICOS AZAGRA"}, {"lat": -1.5155, "lng": 41.99439, "price": 1.341, "name": "AGRICOLA SAN BLAS"}, {"lat": -2.09075, "lng": 42.58422, "price": 1.341, "name": "AN ENERGETICOS EZKIBEL"}, {"lat": -1.44323, "lng": 42.37383, "price": 1.341, "name": "ANENERGETICOS"}, {"lat": -1.84009, "lng": 42.49295, "price": 1.341, "name": "AN ENERGETICOS MIRANDA AR"}, {"lat": -1.64094, "lng": 42.05919, "price": 1.341, "name": "AN ENERGETICOS S.L."}, {"lat": -8.42597, "lng": 43.34739, "price": 1.341, "name": "GALP"}, {"lat": -1.55794, "lng": 42.35514, "price": 1.341, "name": "AN ENERGETICOS MELIDA"}, {"lat": -2.092, "lng": 42.47619, "price": 1.341, "name": "AN ENERGETICOS SESMA"}, {"lat": -1.58794, "lng": 42.17114, "price": 1.341, "name": "AN ENERGETICOS"}, {"lat": -0.43956, "lng": 38.952, "price": 1.342, "name": "CAMPSA EXPRESS"}, {"lat": -0.447, "lng": 38.93886, "price": 1.342, "name": "GASOLBEN"}, {"lat": -2.09442, "lng": 42.23156, "price": 1.342, "name": "CARMINA I"}, {"lat": -5.72094, "lng": 41.52142, "price": 1.343, "name": "LOSADA-VISTALEGRE"}, {"lat": -0.23194, "lng": 40.94339, "price": 1.343, "name": "HERMANOS LLOP"}, {"lat": -3.50933, "lng": 40.45247, "price": 1.343, "name": "GALP"}, {"lat": -1.25497, "lng": 41.92528, "price": 1.343, "name": "REPSOL"}, {"lat": 1.09881, "lng": 41.14558, "price": 1.343, "name": "SIMPLY"}, {"lat": -0.20161, "lng": 40.82469, "price": 1.343, "name": "E.S. AGUAVIVA"}, {"lat": -0.30653, "lng": 39.53947, "price": 1.343, "name": "MAKRO"}, {"lat": -0.23044, "lng": 40.94664, "price": 1.343, "name": "CEPSA"}, {"lat": -1.41944, "lng": 41.84006, "price": 1.343, "name": "REPSOL"}, {"lat": -2.92261, "lng": 43.26383, "price": 1.343, "name": "CAMPSA"}, {"lat": -0.53806, "lng": 39.59156, "price": 1.343, "name": "GASOLEOS LA ELIANA"}, {"lat": -0.99656, "lng": 41.53989, "price": 1.343, "name": "REPSOL"}, {"lat": -1.09492, "lng": 41.46408, "price": 1.343, "name": "CAMPSA"}, {"lat": -2.78744, "lng": 36.78217, "price": 1.344, "name": "BP - COOP STA Ma AGUILA"}, {"lat": -0.87694, "lng": 41.66622, "price": 1.344, "name": "GALP"}, {"lat": 1.07128, "lng": 41.16294, "price": 1.344, "name": "ENTREAUTO"}, {"lat": -0.43475, "lng": 39.46425, "price": 1.344, "name": "E.S. XIRIVELLA,S.L."}, {"lat": 2.09017, "lng": 41.34697, "price": 1.344, "name": "REPSOL"}, {"lat": 0.55933, "lng": 41.57947, "price": 1.344, "name": "SHELL"}, {"lat": 1.23606, "lng": 41.27453, "price": 1.345, "name": "SIMON GRUP"}, {"lat": 2.02792, "lng": 41.53744, "price": 1.345, "name": "CAMPSA EXPRESS"}, {"lat": 2.03378, "lng": 41.53447, "price": 1.345, "name": "PETRO7"}, {"lat": -5.74742, "lng": 41.51603, "price": 1.345, "name": "EROSKI"}, {"lat": 2.23842, "lng": 41.43689, "price": 1.345, "name": "EVOLUTION"}, {"lat": 2.03533, "lng": 41.55747, "price": 1.345, "name": "PETROLOWCOST"}, {"lat": -4.11202, "lng": 40.92264, "price": 1.345, "name": "EROSKI"}, {"lat": 1.87108, "lng": 41.75411, "price": 1.345, "name": "PETRO-PINTO,S.L."}, {"lat": 2.03292, "lng": 41.39728, "price": 1.346, "name": "SHELL"}, {"lat": 1.63622, "lng": 41.57872, "price": 1.346, "name": "SHELL"}, {"lat": 2.03108, "lng": 41.48858, "price": 1.346, "name": "CORRAL"}, {"lat": 1.62233, "lng": 41.58906, "price": 1.346, "name": "PETROMIRALLES"}, {"lat": -4.01792, "lng": 39.90242, "price": 1.346, "name": "ALCAMPO"}, {"lat": 1.61375, "lng": 41.576, "price": 1.346, "name": "PETROMIRALLES"}, {"lat": -3.6075, "lng": 38.11167, "price": 1.346, "name": "S.C.A. SANAGUSTIN"}, {"lat": -3.60328, "lng": 37.13325, "price": 1.347, "name": "LA RIOLA"}, {"lat": 2.098, "lng": 41.53672, "price": 1.347, "name": "U.S.SABADELL"}, {"lat": -1.21964, "lng": 41.33564, "price": 1.347, "name": "CEPSA"}, {"lat": -0.54594, "lng": 39.59875, "price": 1.347, "name": "(SIN ROTULO)"}, {"lat": -3.52725, "lng": 39.47594, "price": 1.347, "name": "E.S. ABOX-OIL"}, {"lat": -0.44783, "lng": 40.98228, "price": 1.347, "name": "REPSOL"}, {"lat": -0.52978, "lng": 42.57719, "price": 1.347, "name": "EROSKI"}, {"lat": -0.19925, "lng": 38.94458, "price": 1.347, "name": "EXOIL REAL DE GANDIA"}, {"lat": 1.62242, "lng": 41.59136, "price": 1.348, "name": "FER PREU JUST"}, {"lat": -1.64278, "lng": 41.33539, "price": 1.348, "name": "REPSOL"}, {"lat": -2.19428, "lng": 42.57397, "price": 1.348, "name": "CAN S.L."}, {"lat": -8.16897, "lng": 43.40683, "price": 1.348, "name": "COMBUSTIBLES RIO EUME"}, {"lat": -0.23058, "lng": 39.96383, "price": 1.348, "name": "BDMED"}, {"lat": -1.67578, "lng": 42.51447, "price": 1.348, "name": "AVIA"}, {"lat": -0.48483, "lng": 39.47072, "price": 1.348, "name": "ALCAMPO, S.A."}, {"lat": 0.65806, "lng": 41.74983, "price": 1.348, "name": "COOPERATIVA SANT ROC"}, {"lat": -1.64653, "lng": 41.35214, "price": 1.348, "name": "REPSOL"}, {"lat": 2.20167, "lng": 41.39756, "price": 1.348, "name": "LUVIRR"}, {"lat": -4.39881, "lng": 40.15869, "price": 1.348, "name": "FARRUCO S.A."}, {"lat": -0.77119, "lng": 38.698, "price": 1.348, "name": "ESTACIONES DE SERVICIO DI"}, {"lat": -0.67119, "lng": 38.72011, "price": 1.348, "name": "BANERES"}, {"lat": -0.49328, "lng": 41.30025, "price": 1.348, "name": "CEPSA"}, {"lat": 1.42194, "lng": 41.655, "price": 1.348, "name": "E.S.SANT GUIM"}, {"lat": -5.97444, "lng": 37.45847, "price": 1.348, "name": "E.S. LA CATRIA"}, {"lat": -5.77408, "lng": 37.17633, "price": 1.348, "name": "AGLA"}, {"lat": 2.19308, "lng": 41.39739, "price": 1.348, "name": "EVOLUTION"}, {"lat": -0.32333, "lng": 41.28631, "price": 1.349, "name": "REPSOL"}, {"lat": -2.82711, "lng": 43.23192, "price": 1.349, "name": "REPSOL"}, {"lat": 2.10794, "lng": 41.35831, "price": 1.349, "name": "TAMOIL"}, {"lat": -0.439, "lng": 39.36406, "price": 1.349, "name": "BALLENOIL"}, {"lat": -0.87994, "lng": 37.85247, "price": 1.349, "name": "EL PORRAS"}, {"lat": -1.94083, "lng": 41.84017, "price": 1.349, "name": "GASOLEOS EL MAYORIA"}, {"lat": 0.906, "lng": 41.62969, "price": 1.349, "name": "AUTOSERVEI M3"}, {"lat": -3.99908, "lng": 40.25153, "price": 1.349, "name": "E.S. EL ALAMO, S.L."}, {"lat": 0.51721, "lng": 41.57575, "price": 1.349, "name": "COOPERATIVA D'ALCARR\u00c0S"}, {"lat": -3.97192, "lng": 37.70056, "price": 1.349, "name": "PETROPRIX"}, {"lat": 2.99994, "lng": 42.26842, "price": 1.349, "name": "CARREFOUR"}, {"lat": -1.11167, "lng": 37.98178, "price": 1.349, "name": "SHELL"}, {"lat": 1.77811, "lng": 41.43556, "price": 1.349, "name": "HAM"}, {"lat": -1.62686, "lng": 41.53169, "price": 1.349, "name": "D P S"}, {"lat": 3.04847, "lng": 42.25958, "price": 1.349, "name": "GALP"}, {"lat": -1.79439, "lng": 43.35644, "price": 1.349, "name": "GALP"}, {"lat": 0.33786, "lng": 42.18822, "price": 1.349, "name": "LABOIL, S.L."}, {"lat": -2.86486, "lng": 43.37725, "price": 1.349, "name": "PETRONOR"}, {"lat": -2.78103, "lng": 43.20939, "price": 1.349, "name": "REPSOL"}, {"lat": 2.41333, "lng": 42.04131, "price": 1.349, "name": "ZONA DIESEL"}, {"lat": -3.75717, "lng": 40.65872, "price": 1.349, "name": "ALCAMPO"}, {"lat": 2.10444, "lng": 41.80806, "price": 1.349, "name": "AREA DIESEL"}, {"lat": 1.86175, "lng": 41.54553, "price": 1.349, "name": "BALLENOIL"}, {"lat": -2.88911, "lng": 43.22631, "price": 1.349, "name": "PETRONOR"}, {"lat": -2.72986, "lng": 43.22947, "price": 1.349, "name": "CAMPSA"}, {"lat": -3.75281, "lng": 40.24053, "price": 1.349, "name": "SERPARLA"}, {"lat": -7.40097, "lng": 37.21425, "price": 1.349, "name": "GALP"}, {"lat": -0.81536, "lng": 41.66892, "price": 1.349, "name": "CAMPSA EXPRESS"}, {"lat": -2.01681, "lng": 42.60739, "price": 1.349, "name": "LA VENTA DE MORENTIN"}, {"lat": -2.93003, "lng": 43.36619, "price": 1.349, "name": "PETRONOR"}, {"lat": -2.88903, "lng": 43.25067, "price": 1.349, "name": "REPSOL"}, {"lat": -0.51683, "lng": 39.65987, "price": 1.349, "name": "PETROMAR"}, {"lat": -1.94222, "lng": 42.34342, "price": 1.349, "name": "GASOMATICA"}, {"lat": -2.83819, "lng": 43.22739, "price": 1.349, "name": "REPSOL"}, {"lat": -3.83333, "lng": 43.43414, "price": 1.349, "name": "E.E.S.S. MAS, S.L."}, {"lat": -3.65453, "lng": 40.39381, "price": 1.349, "name": "ALCAMPO"}, {"lat": -5.68017, "lng": 43.50744, "price": 1.349, "name": "LA COOPERATIVA"}, {"lat": -1.50581, "lng": 43.29056, "price": 1.349, "name": "REPSOL"}, {"lat": -3.63681, "lng": 40.53519, "price": 1.349, "name": "ALCAMPO"}, {"lat": -0.89, "lng": 41.67789, "price": 1.349, "name": "CARREFOUR"}, {"lat": -0.67961, "lng": 37.98444, "price": 1.349, "name": "THADEROIL"}, {"lat": -2.41172, "lng": 42.42006, "price": 1.349, "name": "CAMPSA"}, {"lat": -1.04244, "lng": 41.61839, "price": 1.349, "name": "GALP"}, {"lat": -1.67379, "lng": 42.49839, "price": 1.349, "name": "REPSOL"}, {"lat": -3.01025, "lng": 43.34761, "price": 1.349, "name": "PETRONOR"}, {"lat": -2.67822, "lng": 43.30494, "price": 1.349, "name": "REPSOL"}, {"lat": -0.56161, "lng": 39.6005, "price": 1.349, "name": "GASOLEOS LA ELIANA"}, {"lat": 2.15928, "lng": 41.49417, "price": 1.349, "name": "AUTONET OIL"}, {"lat": -1.56025, "lng": 41.44722, "price": 1.349, "name": "NO"}, {"lat": -5.86531, "lng": 43.50842, "price": 1.349, "name": "CORVERA"}, {"lat": -0.39072, "lng": 39.41031, "price": 1.349, "name": "BALLENOIL"}, {"lat": -2.39675, "lng": 42.47536, "price": 1.349, "name": "CARREFOUR"}, {"lat": -2.72944, "lng": 43.22925, "price": 1.349, "name": "CAMPSA"}, {"lat": -2.78103, "lng": 43.20897, "price": 1.349, "name": "REPSOL"}, {"lat": -1.83178, "lng": 42.92317, "price": 1.349, "name": "BI AHIZPAK"}, {"lat": 3.04683, "lng": 42.25931, "price": 1.349, "name": "GALP"}, {"lat": -1.99189, "lng": 41.78383, "price": 1.349, "name": "SIN DETERMINAR"}, {"lat": -3.65567, "lng": 40.10461, "price": 1.349, "name": "E.S. SESENA"}, {"lat": -3.12253, "lng": 43.12336, "price": 1.349, "name": "AVIA - E.S. SAN MATEO"}, {"lat": -2.33403, "lng": 42.39953, "price": 1.349, "name": "CAMPSA"}, {"lat": -1.18422, "lng": 37.93664, "price": 1.349, "name": "CAMPSA EXPRESS"}, {"lat": -6.03494, "lng": 36.91706, "price": 1.349, "name": "HERBI"}, {"lat": 2.08086, "lng": 41.35453, "price": 1.349, "name": "BALLENOIL"}, {"lat": -0.04694, "lng": 39.9945, "price": 1.349, "name": "TECNOIL"}, {"lat": -0.02864, "lng": 40.00072, "price": 1.349, "name": "LOW COST GAS"}, {"lat": -3.85725, "lng": 37.782, "price": 1.349, "name": "E/S  RIO GORDILLO"}, {"lat": -2.37403, "lng": 42.51258, "price": 1.349, "name": "REPSOL"}, {"lat": -1.67244, "lng": 42.53175, "price": 1.349, "name": "REPSOL"}, {"lat": -2.89858, "lng": 43.2012, "price": 1.349, "name": "E.S. AJARTE S.A."}, {"lat": -2.88844, "lng": 43.25081, "price": 1.349, "name": "REPSOL"}, {"lat": 1.73686, "lng": 41.22167, "price": 1.349, "name": "SIMPLY"}, {"lat": -0.33297, "lng": 39.56294, "price": 1.349, "name": "SIMPLY"}, {"lat": -3.60961, "lng": 37.21467, "price": 1.349, "name": "BALLENOIL"}, {"lat": -2.85333, "lng": 43.27967, "price": 1.349, "name": "CEPSA"}, {"lat": 0.13628, "lng": 42.04367, "price": 1.349, "name": "E.S.BELLAVISTA"}, {"lat": -1.19783, "lng": 37.93194, "price": 1.349, "name": "OMEGA SANGONERA"}, {"lat": -7.94586, "lng": 43.47786, "price": 1.349, "name": "ESTACION DE SERVICIO PENA"}, {"lat": -2.87306, "lng": 43.24011, "price": 1.349, "name": "PETRONOR"}, {"lat": -1.04658, "lng": 41.61808, "price": 1.349, "name": "GALP"}, {"lat": -0.52961, "lng": 39.52083, "price": 1.349, "name": "CHEMABALLESTER"}, {"lat": -3.78569, "lng": 37.79467, "price": 1.349, "name": "PETROPRIX"}, {"lat": -0.40489, "lng": 39.42669, "price": 1.349, "name": "BALLENOIL"}, {"lat": -2.4975, "lng": 43.0487, "price": 1.349, "name": "AVIA"}, {"lat": -2.86936, "lng": 43.23525, "price": 1.349, "name": "CAMPSA"}, {"lat": -3.01017, "lng": 43.28869, "price": 1.349, "name": "GALP"}, {"lat": -1.09961, "lng": 41.58575, "price": 1.349, "name": "SHELL"}, {"lat": -5.71189, "lng": 43.52536, "price": 1.349, "name": "SARAS"}, {"lat": -5.74297, "lng": 43.17183, "price": 1.349, "name": "GALP"}, {"lat": -0.91897, "lng": 41.65928, "price": 1.349, "name": "CARREFOUR"}, {"lat": 0.633, "lng": 41.68792, "price": 1.349, "name": "RAMELL"}, {"lat": -2.94392, "lng": 43.39033, "price": 1.349, "name": "REPSOL"}, {"lat": -0.349, "lng": 39.53919, "price": 1.349, "name": "PEMAX"}, {"lat": -0.66117, "lng": 38.73606, "price": 1.349, "name": "SAN ANTONIO"}, {"lat": -0.50978, "lng": 39.41642, "price": 1.349, "name": "BERNABE MARI"}, {"lat": -5.61833, "lng": 42.59017, "price": 1.349, "name": "E.LECLERC LEON"}, {"lat": 1.00756, "lng": 41.61886, "price": 1.35, "name": "NADAL"}, {"lat": 0.76247, "lng": 41.71556, "price": 1.35, "name": "NO ESTA ABANDERADO"}, {"lat": 0.76547, "lng": 41.49431, "price": 1.35, "name": "CASTELL-OIL"}, {"lat": -1.51331, "lng": 37.98547, "price": 1.35, "name": "SUMINISTROS PLIEGO S.L"}, {"lat": -5.22347, "lng": 38.73172, "price": 1.35, "name": "COOPERATIVA OLIVARERA CAB"}, {"lat": -0.63997, "lng": 41.74825, "price": 1.35, "name": "CEPSA"}, {"lat": -1.88628, "lng": 39.02178, "price": 1.35, "name": "AB OIL"}, {"lat": 1.16461, "lng": 41.37436, "price": 1.35, "name": "REPSOL"}, {"lat": -0.58694, "lng": 39.63572, "price": 1.35, "name": "BENZINERA VIDAGANY"}, {"lat": 0.90975, "lng": 41.01253, "price": 1.35, "name": "PETROTAPIES"}, {"lat": -2.32036, "lng": 42.8635, "price": 1.351, "name": "TRUCK CENTER"}, {"lat": -7.56786, "lng": 43.03667, "price": 1.351, "name": "EROSKI"}, {"lat": -1.61806, "lng": 41.53194, "price": 1.351, "name": "CEPSA"}, {"lat": -1.37936, "lng": 41.48306, "price": 1.351, "name": "CEPSA"}, {"lat": -5.64222, "lng": 40.94631, "price": 1.351, "name": "E.LECLERC"}, {"lat": -2.26558, "lng": 43.28458, "price": 1.352, "name": "CEPSA"}, {"lat": -1.68406, "lng": 43.30931, "price": 1.352, "name": "NAFAROIL"}, {"lat": -5.64281, "lng": 40.95089, "price": 1.352, "name": "GALP"}, {"lat": -2.26411, "lng": 43.28489, "price": 1.352, "name": "CEPSA"}, {"lat": 0.14006, "lng": 42.00569, "price": 1.353, "name": "CAMPSA"}, {"lat": 0.13103, "lng": 42.03839, "price": 1.353, "name": "REPSOL"}, {"lat": 0.10558, "lng": 42.03397, "price": 1.353, "name": "REPSOL"}, {"lat": 0.20589, "lng": 41.90122, "price": 1.353, "name": "CAMPSA"}, {"lat": -2.75314, "lng": 36.77261, "price": 1.353, "name": "SUMINISTROS ACIEN Y BARRA"}, {"lat": -0.98964, "lng": 41.69569, "price": 1.353, "name": "CEPSA"}, {"lat": -8.61103, "lng": 42.18586, "price": 1.353, "name": "EL SOL"}, {"lat": 0.12819, "lng": 42.03469, "price": 1.353, "name": "REPSOL"}, {"lat": -0.24025, "lng": 40.83147, "price": 1.353, "name": "CAMPSA"}, {"lat": -0.44494, "lng": 40.36303, "price": 1.353, "name": "SIN ROTULO"}, {"lat": -1.19672, "lng": 37.93489, "price": 1.353, "name": "SHELL"}, {"lat": -3.51153, "lng": 36.73697, "price": 1.353, "name": "MINIOIL"}, {"lat": 0.19675, "lng": 41.91106, "price": 1.353, "name": "REPSOL"}, {"lat": 0.23158, "lng": 41.88708, "price": 1.353, "name": "PETRONOR"}, {"lat": -8.64775, "lng": 42.04144, "price": 1.353, "name": "REPSOL"}, {"lat": -0.53083, "lng": 41.97264, "price": 1.353, "name": "REPSOL"}, {"lat": -0.52678, "lng": 39.00008, "price": 1.353, "name": "SARAS ENERGIA"}, {"lat": -0.93083, "lng": 41.66339, "price": 1.353, "name": "CEPSA"}, {"lat": 2.27081, "lng": 41.55444, "price": 1.353, "name": "BP"}, {"lat": -0.01522, "lng": 42.05214, "price": 1.353, "name": "REPSOL"}, {"lat": -0.84886, "lng": 40.43808, "price": 1.353, "name": "CEPSA"}, {"lat": -1.1265, "lng": 41.76681, "price": 1.353, "name": "REPSOL"}, {"lat": -0.99017, "lng": 41.69531, "price": 1.353, "name": "CEPSA"}, {"lat": -2.58461, "lng": 43.16661, "price": 1.354, "name": "CEPSA"}, {"lat": -0.13389, "lng": 39.97367, "price": 1.354, "name": "BDMED"}, {"lat": -0.84644, "lng": 41.62286, "price": 1.354, "name": "BP"}, {"lat": 2.09036, "lng": 41.55506, "price": 1.354, "name": "MEROIL"}, {"lat": -2.58683, "lng": 43.16881, "price": 1.354, "name": "CEPSA"}, {"lat": -0.87725, "lng": 41.64881, "price": 1.354, "name": "GARAJE ARAGON"}, {"lat": -1.10889, "lng": 41.57981, "price": 1.354, "name": "SARAS"}, {"lat": 2.11211, "lng": 41.53417, "price": 1.354, "name": "MEROIL"}, {"lat": -2.41694, "lng": 42.47258, "price": 1.354, "name": "(SIN ROTULO)"}, {"lat": -3.61108, "lng": 37.19822, "price": 1.354, "name": "ALCAMPO"}, {"lat": -0.84592, "lng": 41.62317, "price": 1.354, "name": "LA CARTUJA"}, {"lat": -3.60772, "lng": 40.1595, "price": 1.354, "name": "SHELL"}, {"lat": 2.2655, "lng": 41.54853, "price": 1.355, "name": "REPSOL"}, {"lat": -1.84736, "lng": 38.98897, "price": 1.355, "name": "EROSKI"}, {"lat": -5.77889, "lng": 43.23694, "price": 1.355, "name": "REPSOL"}, {"lat": -1.56289, "lng": 37.41047, "price": 1.355, "name": "EROSKI"}, {"lat": 2.28508, "lng": 41.55178, "price": 1.355, "name": "REPSOL"}, {"lat": -1.13458, "lng": 37.96031, "price": 1.355, "name": "MAKRO"}, {"lat": -8.50011, "lng": 42.17039, "price": 1.355, "name": "CARBUNOR"}, {"lat": -5.46239, "lng": 36.14306, "price": 1.355, "name": "EROSKI"}, {"lat": -8.72864, "lng": 43.19317, "price": 1.355, "name": "MEROIL"}, {"lat": -3.24769, "lng": 40.56981, "price": 1.355, "name": "EROSKI"}, {"lat": -3.64967, "lng": 37.22689, "price": 1.355, "name": "EROSKI"}, {"lat": 2.96056, "lng": 42.25778, "price": 1.355, "name": "EROSKI"}, {"lat": -1.00047, "lng": 40.62767, "price": 1.355, "name": "GALP"}, {"lat": 2.29308, "lng": 41.52561, "price": 1.355, "name": "BP"}, {"lat": -5.84647, "lng": 37.35228, "price": 1.355, "name": "ZACATIN"}, {"lat": -5.77706, "lng": 43.25797, "price": 1.355, "name": "REPSOL"}, {"lat": -2.04028, "lng": 39.38308, "price": 1.355, "name": "U.S. ESCOBAR RUIZ"}, {"lat": -1.43661, "lng": 38.26222, "price": 1.355, "name": "SERMUCO"}, {"lat": -4.18933, "lng": 39.02886, "price": 1.355, "name": "GP ENERGIA"}, {"lat": -0.94136, "lng": 41.59517, "price": 1.355, "name": "CEPSA"}, {"lat": -5.98008, "lng": 37.43074, "price": 1.355, "name": "ESTACION DE SERVICIO SAN"}, {"lat": 2.19653, "lng": 42.18478, "price": 1.355, "name": "AUTOEQUIP"}, {"lat": 0.67081, "lng": 40.78789, "price": 1.356, "name": "PETROCAT DIRECTE"}, {"lat": 0.34744, "lng": 41.52533, "price": 1.356, "name": "CAMPSA"}, {"lat": -0.48506, "lng": 39.49817, "price": 1.356, "name": "EXOIL MANISES"}, {"lat": -3.69361, "lng": 40.46489, "price": 1.356, "name": "SARAS ENERGIA"}, {"lat": 0.13253, "lng": 42.44644, "price": 1.356, "name": "ESTACION DE SERVICIO RV"}, {"lat": 1.87431, "lng": 41.85803, "price": 1.356, "name": "COMBUSTIBLES BALSARENY"}, {"lat": -5.62267, "lng": 40.93022, "price": 1.356, "name": "GALP"}, {"lat": 0.59419, "lng": 41.69156, "price": 1.356, "name": "FRU-ROSE, SCCL"}, {"lat": -5.58675, "lng": 40.89417, "price": 1.356, "name": "EL TREBOL"}, {"lat": -5.62739, "lng": 40.93303, "price": 1.356, "name": "SHELL"}, {"lat": -2.67342, "lng": 43.31817, "price": 1.356, "name": "CEPSA"}, {"lat": 1.96917, "lng": 41.45281, "price": 1.357, "name": "CTW"}, {"lat": -0.93517, "lng": 41.64728, "price": 1.357, "name": "REPSOL"}, {"lat": -4.48258, "lng": 37.41969, "price": 1.357, "name": "SHELL"}, {"lat": -1.28629, "lng": 40.44681, "price": 1.357, "name": "LA FUENSANTA"}, {"lat": -0.15272, "lng": 41.0525, "price": 1.357, "name": "REPSOL"}, {"lat": -0.55861, "lng": 38.18761, "price": 1.357, "name": "COFRADIA DE PESCADORES"}, {"lat": -2.88642, "lng": 43.23133, "price": 1.357, "name": "CEPSA"}, {"lat": -0.03556, "lng": 40.78811, "price": 1.357, "name": "PREPSOL"}, {"lat": -3.67744, "lng": 40.19842, "price": 1.357, "name": "SHELL"}, {"lat": 0.51489, "lng": 41.87819, "price": 1.357, "name": "REPSOL"}, {"lat": -8.74281, "lng": 42.28883, "price": 1.357, "name": "GASOLEOS"}, {"lat": 1.96961, "lng": 41.56858, "price": 1.358, "name": "PETRONIEVES"}, {"lat": -0.99011, "lng": 41.63653, "price": 1.358, "name": "REPSOL"}, {"lat": 1.85775, "lng": 42.16031, "price": 1.358, "name": "PETROMIRALLES"}, {"lat": -8.69686, "lng": 42.22142, "price": 1.358, "name": "BYE"}, {"lat": 2.0815, "lng": 41.35078, "price": 1.358, "name": "PETROMIRALLES"}, {"lat": 3.15683, "lng": 41.91792, "price": 1.358, "name": "PROPERLY, S.A."}, {"lat": 1.96908, "lng": 41.45261, "price": 1.358, "name": "SARAS ENERGIA"}, {"lat": 1.13347, "lng": 41.66278, "price": 1.358, "name": "PETROMIRALLES"}, {"lat": 2.10953, "lng": 41.34583, "price": 1.358, "name": "GALP"}, {"lat": -0.99233, "lng": 41.64272, "price": 1.358, "name": "REPSOL"}, {"lat": -8.17011, "lng": 43.44994, "price": 1.358, "name": "ORTEGAL OIL"}, {"lat": -8.19522, "lng": 43.53181, "price": 1.358, "name": "ORTEGAL OIL"}, {"lat": -0.07575, "lng": 39.97172, "price": 1.358, "name": "BDMED"}, {"lat": 2.11783, "lng": 41.36142, "price": 1.358, "name": "GALP"}, {"lat": 2.11175, "lng": 41.34647, "price": 1.358, "name": "GALP"}, {"lat": 0.72967, "lng": 41.04781, "price": 1.358, "name": "REPSOL"}, {"lat": 3.15389, "lng": 41.91225, "price": 1.358, "name": "REPSOL"}, {"lat": 0.66192, "lng": 41.0795, "price": 1.358, "name": "REPSOL"}, {"lat": 0.66139, "lng": 41.07939, "price": 1.358, "name": "REPSOL"}, {"lat": -3.89711, "lng": 40.02747, "price": 1.358, "name": "FARRUCO"}, {"lat": 1.85761, "lng": 42.15956, "price": 1.358, "name": "PETROMIRALLES"}, {"lat": -5.22933, "lng": 41.08394, "price": 1.358, "name": "GASOLINERA VILLAFLORES"}, {"lat": -3.96672, "lng": 39.67694, "price": 1.358, "name": "PETROLEOS MARTIN CORPORAT"}, {"lat": -0.88592, "lng": 41.66139, "price": 1.358, "name": "REPSOL"}, {"lat": 0.64792, "lng": 41.09372, "price": 1.358, "name": "CAMPSA"}, {"lat": 1.51344, "lng": 41.49097, "price": 1.358, "name": "PETROMIRALLES"}, {"lat": -0.86889, "lng": 41.66028, "price": 1.358, "name": "DAGO"}, {"lat": -0.88992, "lng": 41.67892, "price": 1.358, "name": "CEPSA"}, {"lat": -0.88342, "lng": 41.61019, "price": 1.358, "name": "REPSOL"}, {"lat": 1.89825, "lng": 41.81242, "price": 1.358, "name": "PETROMIRALLES"}, {"lat": 2.03756, "lng": 41.38703, "price": 1.358, "name": "PETROMIRALLES"}, {"lat": -0.88742, "lng": 41.66211, "price": 1.358, "name": "REPSOL"}, {"lat": 1.99725, "lng": 41.40294, "price": 1.358, "name": "PETROMIRALLES"}, {"lat": 0.81622, "lng": 41.14347, "price": 1.358, "name": "REPSOL"}, {"lat": 1.87694, "lng": 41.52642, "price": 1.358, "name": "PETRONIEVES"}, {"lat": -8.19661, "lng": 43.48894, "price": 1.359, "name": "CONFORT AUTO"}, {"lat": -3.75947, "lng": 40.66256, "price": 1.359, "name": "CLAXON"}, {"lat": 2.59322, "lng": 41.59206, "price": 1.359, "name": "ESTACIO SERVEI MAS ROGER"}, {"lat": -2.90194, "lng": 42.81125, "price": 1.359, "name": "E.S. TOCALU S.L."}, {"lat": -2.98464, "lng": 43.31306, "price": 1.359, "name": "REPSOL"}, {"lat": -7.57203, "lng": 43.00569, "price": 1.359, "name": "GALP"}, {"lat": -3.69269, "lng": 40.1855, "price": 1.359, "name": "GALP"}, {"lat": 2.03064, "lng": 41.3215, "price": 1.359, "name": "GALP"}, {"lat": -3.62508, "lng": 40.39217, "price": 1.359, "name": "CERRO DE LA CABANA"}, {"lat": 2.01586, "lng": 41.31219, "price": 1.359, "name": "GALP"}, {"lat": 2.68989, "lng": 41.62947, "price": 1.359, "name": "ESSER"}, {"lat": 2.94778, "lng": 42.25808, "price": 1.359, "name": "E.S.AVINYONET"}, {"lat": -3.61008, "lng": 40.55197, "price": 1.359, "name": "BALLENOIL"}, {"lat": -2.43533, "lng": 42.41319, "price": 1.359, "name": "EL SOTILLO"}, {"lat": -3.72569, "lng": 40.32928, "price": 1.359, "name": "REPSOL"}, {"lat": -2.94356, "lng": 43.30786, "price": 1.359, "name": "PETRONOR"}, {"lat": -1.78703, "lng": 43.34728, "price": 1.359, "name": "REPSOL"}, {"lat": 0.33433, "lng": 41.52014, "price": 1.359, "name": "REPSOL"}, {"lat": 1.87747, "lng": 41.93569, "price": 1.359, "name": "BALLUS BAIXCOST"}, {"lat": 2.12803, "lng": 41.50047, "price": 1.359, "name": "BALLENOIL"}, {"lat": -1.81903, "lng": 43.33092, "price": 1.359, "name": "GALP"}, {"lat": 1.51367, "lng": 41.72972, "price": 1.359, "name": "(SIN ROTULO)"}, {"lat": -0.88981, "lng": 37.65447, "price": 1.359, "name": "ADRIDAN"}, {"lat": 1.74876, "lng": 41.53003, "price": 1.359, "name": "GASOILS CARRERAS DE PIERA"}, {"lat": -3.69517, "lng": 40.26528, "price": 1.359, "name": "BP NASSICA 365"}, {"lat": -0.40531, "lng": 39.505, "price": 1.359, "name": "E.S. BURJASSOT"}, {"lat": -3.01322, "lng": 42.33256, "price": 1.359, "name": "GALP"}, {"lat": -0.74006, "lng": 40.1115, "price": 1.359, "name": "GALP"}, {"lat": -2.21222, "lng": 42.44961, "price": 1.359, "name": "CAMPSA"}, {"lat": -1.78225, "lng": 43.33931, "price": 1.359, "name": "AVIA"}, {"lat": -0.65592, "lng": 40.19075, "price": 1.359, "name": "REPSOL"}, {"lat": 2.30269, "lng": 41.61153, "price": 1.359, "name": "SARAS ENERGIA"}, {"lat": -2.42947, "lng": 42.48792, "price": 1.359, "name": "REPSOL"}, {"lat": -4.06467, "lng": 43.24879, "price": 1.359, "name": "E.S. MARJA"}, {"lat": 2.13942, "lng": 41.50614, "price": 1.359, "name": "PETROCAT DIRECTE"}, {"lat": 2.10003, "lng": 41.52, "price": 1.359, "name": "CEPSA"}, {"lat": -0.75985, "lng": 40.24773, "price": 1.359, "name": "SAN MIGUEL"}, {"lat": -0.35042, "lng": 39.52417, "price": 1.359, "name": "AGRICOLA SAN ISIDRO"}, {"lat": 2.10019, "lng": 41.53333, "price": 1.359, "name": "SHELL"}, {"lat": -5.92061, "lng": 37.27038, "price": 1.359, "name": "GM"}, {"lat": -4.848, "lng": 37.58008, "price": 1.359, "name": "HBC"}, {"lat": -1.64514, "lng": 42.43286, "price": 1.359, "name": "REPSOL"}, {"lat": -3.00528, "lng": 43.36092, "price": 1.359, "name": "REPSOL"}, {"lat": -4.07387, "lng": 43.2686, "price": 1.359, "name": "E.S. SOMAHOZ"}, {"lat": -8.48714, "lng": 42.92292, "price": 1.359, "name": "GALP"}, {"lat": -1.86919, "lng": 43.32864, "price": 1.359, "name": "AS-24"}, {"lat": -3.72597, "lng": 37.19272, "price": 1.359, "name": "ES 12 DE OCTUBRE"}, {"lat": -3.15103, "lng": 40.64042, "price": 1.359, "name": "SHELL"}, {"lat": -6.52089, "lng": 39.96897, "price": 1.359, "name": "SARAS"}, {"lat": -0.46686, "lng": 39.35442, "price": 1.359, "name": "COOPIC"}, {"lat": -0.44531, "lng": 38.94039, "price": 1.359, "name": "COARVAL CARBURANTS"}, {"lat": -3.66394, "lng": 37.17631, "price": 1.359, "name": "LOW COST"}, {"lat": -8.47589, "lng": 43.18814, "price": 1.359, "name": "SHELL"}, {"lat": -2.94625, "lng": 43.26194, "price": 1.359, "name": "GARAGE SAN MAMES"}, {"lat": -3.85239, "lng": 40.34864, "price": 1.359, "name": "ALCAMPO"}, {"lat": -3.83042, "lng": 40.30193, "price": 1.359, "name": "ALCAMPO FUENLABRADA"}, {"lat": -0.4105, "lng": 42.14119, "price": 1.359, "name": "REPSOL"}, {"lat": -2.97619, "lng": 43.32044, "price": 1.359, "name": "REPSOL"}, {"lat": -1.76333, "lng": 43.34253, "price": 1.359, "name": "CAMPSA"}, {"lat": 2.04939, "lng": 41.33389, "price": 1.359, "name": "BP SAN BOI"}, {"lat": -4.25878, "lng": 40.72139, "price": 1.359, "name": "CARLOS DIEZ SEGOVIA"}, {"lat": -3.69878, "lng": 37.22011, "price": 1.359, "name": "LOS ALAMOS"}, {"lat": -8.98283, "lng": 42.56953, "price": 1.359, "name": "SHELL"}, {"lat": -0.53022, "lng": 38.90578, "price": 1.359, "name": "MAS DEL PI"}, {"lat": 2.31006, "lng": 41.98456, "price": 1.359, "name": "FEIXAS AULET"}, {"lat": -0.53708, "lng": 39.47981, "price": 1.359, "name": "EXOIL RIBA-ROJA"}, {"lat": -1.63822, "lng": 37.69614, "price": 1.359, "name": "CAMPSA EXPRESS"}, {"lat": -3.62519, "lng": 40.39097, "price": 1.359, "name": "CERRO DE LA CABANA"}, {"lat": -4.37969, "lng": 40.07872, "price": 1.359, "name": "MEROIL"}, {"lat": -3.76511, "lng": 40.24708, "price": 1.359, "name": "BP"}, {"lat": -2.97575, "lng": 43.31944, "price": 1.359, "name": "REPSOL"}, {"lat": -6.96756, "lng": 38.85094, "price": 1.359, "name": "SANCHA BRAVA"}, {"lat": -4.07542, "lng": 40.22342, "price": 1.359, "name": "SHELL"}, {"lat": -1.79642, "lng": 43.33661, "price": 1.359, "name": "ELIZATXO-SHELL"}, {"lat": -3.68286, "lng": 40.10544, "price": 1.359, "name": "SHELL"}, {"lat": 1.68868, "lng": 41.93022, "price": 1.359, "name": "AVANTI"}, {"lat": 2.45797, "lng": 41.54169, "price": 1.359, "name": "CAMPSA EXPRESS"}, {"lat": -2.64139, "lng": 43.17517, "price": 1.359, "name": "REPSOL"}, {"lat": -2.27847, "lng": 43.27647, "price": 1.359, "name": "PETRONOR L-S: 8:00-20:00;"}, {"lat": 0.362, "lng": 41.52406, "price": 1.359, "name": "CEPSA"}, {"lat": 1.75079, "lng": 41.52411, "price": 1.359, "name": "GALP"}, {"lat": -1.87044, "lng": 43.32694, "price": 1.359, "name": "GALP"}, {"lat": -1.762, "lng": 43.34256, "price": 1.359, "name": "REPSOL"}, {"lat": -3.00617, "lng": 43.36106, "price": 1.359, "name": "REPSOL"}, {"lat": 0.14103, "lng": 42.4155, "price": 1.359, "name": "CEPSA"}, {"lat": -3.48733, "lng": 40.66053, "price": 1.359, "name": "SHELL"}, {"lat": -0.52161, "lng": 38.99739, "price": 1.359, "name": "ENERXAT"}, {"lat": 2.34631, "lng": 41.61403, "price": 1.359, "name": "SHELL"}, {"lat": -0.42744, "lng": 39.43594, "price": 1.359, "name": "E.S. FAITANAR"}, {"lat": -0.83217, "lng": 37.80906, "price": 1.359, "name": "BTP"}, {"lat": -5.17211, "lng": 41.24469, "price": 1.359, "name": "COCETRA SCL"}, {"lat": -3.72589, "lng": 40.32739, "price": 1.359, "name": "REPSOL"}, {"lat": -0.35339, "lng": 39.53647, "price": 1.359, "name": "PETROMAR"}, {"lat": -2.94483, "lng": 43.30753, "price": 1.359, "name": "PETRONOR"}, {"lat": -1.78736, "lng": 43.34722, "price": 1.359, "name": "REPSOL"}, {"lat": 2.12267, "lng": 41.50536, "price": 1.359, "name": "REPSOL"}, {"lat": -1.50581, "lng": 43.28958, "price": 1.359, "name": "CEPSA"}, {"lat": -7.78736, "lng": 42.62125, "price": 1.359, "name": "ICOS OIL"}, {"lat": -3.63542, "lng": 37.22158, "price": 1.359, "name": "BRIN EXPRESS"}, {"lat": 0.32817, "lng": 41.51494, "price": 1.359, "name": "SHELL"}, {"lat": -5.14272, "lng": 36.78681, "price": 1.359, "name": "AGLA"}, {"lat": -6.18747, "lng": 38.94753, "price": 1.359, "name": "IBERDOEX"}, {"lat": -1.94964, "lng": 43.30456, "price": 1.359, "name": "AVIA"}, {"lat": 2.7785, "lng": 42.10908, "price": 1.359, "name": "POSTE DE MATA"}, {"lat": -3.54537, "lng": 38.3299, "price": 1.359, "name": "E.S. MIRA, S.L."}, {"lat": -1.61114, "lng": 43.13747, "price": 1.359, "name": "REPSOL"}, {"lat": -1.51236, "lng": 43.14864, "price": 1.359, "name": "CAMPSA"}, {"lat": -1.76047, "lng": 43.34211, "price": 1.359, "name": "REPSOL"}, {"lat": -2.7105, "lng": 42.86494, "price": 1.359, "name": "AVIA"}, {"lat": -3.66469, "lng": 40.16325, "price": 1.359, "name": "GALP"}, {"lat": -3.62386, "lng": 42.63703, "price": 1.359, "name": "E.S. LAS BRUJAS"}, {"lat": -6.23044, "lng": 42.59922, "price": 1.36, "name": "EASYGAS"}, {"lat": -0.86919, "lng": 41.65375, "price": 1.36, "name": "CEPSA"}, {"lat": -0.8375, "lng": 41.75444, "price": 1.36, "name": "US SAN MIGUEL"}, {"lat": -8.63199, "lng": 42.06963, "price": 1.36, "name": "SERTUY"}, {"lat": 0.71784, "lng": 41.67922, "price": 1.36, "name": "RESTAURANTE LA VINA"}, {"lat": -3.84597, "lng": 39.15831, "price": 1.36, "name": "CARBURANTES SEAL"}, {"lat": -3.81206, "lng": 37.60056, "price": 1.36, "name": "ESTACION DE SERVICIO ORTE"}, {"lat": -2.02717, "lng": 42.65697, "price": 1.36, "name": "DEL VILLAR ENERGIA"}, {"lat": -0.91872, "lng": 41.64883, "price": 1.36, "name": "CEPSA"}, {"lat": -1.35539, "lng": 41.84611, "price": 1.36, "name": "AVIA"}, {"lat": 0.516, "lng": 40.81942, "price": 1.36, "name": "SIMPLY"}, {"lat": 0.68153, "lng": 41.68053, "price": 1.36, "name": "RESTAURANTE LA VINA"}, {"lat": -2.03417, "lng": 42.66097, "price": 1.36, "name": "SIMPLY"}, {"lat": -0.86211, "lng": 41.67253, "price": 1.36, "name": "CEPSA"}, {"lat": -2.15147, "lng": 40.07822, "price": 1.36, "name": "C.C ALCAMPO"}, {"lat": -1.10793, "lng": 40.36048, "price": 1.36, "name": "CIVERA"}, {"lat": -1.43983, "lng": 38.035, "price": 1.36, "name": "ANWALT OIL"}, {"lat": -5.97814, "lng": 37.44456, "price": 1.36, "name": "SARAS"}, {"lat": -8.63146, "lng": 42.06951, "price": 1.36, "name": "SERTUY"}, {"lat": 1.73917, "lng": 41.35489, "price": 1.36, "name": "CARREFOUR"}, {"lat": -1.50714, "lng": 37.99547, "price": 1.36, "name": "LA VEGA DE PLIEGO"}, {"lat": -1.11594, "lng": 38.03881, "price": 1.36, "name": "RED AHORRO"}, {"lat": -2.02081, "lng": 42.66597, "price": 1.36, "name": "AVIA"}, {"lat": -1.35575, "lng": 41.84564, "price": 1.36, "name": "AVIA"}, {"lat": -2.32408, "lng": 42.86358, "price": 1.361, "name": "IS-XXI"}, {"lat": -7.06022, "lng": 43.54028, "price": 1.361, "name": "EROSKI"}, {"lat": -8.70808, "lng": 42.22178, "price": 1.361, "name": "SHELL"}, {"lat": 2.09078, "lng": 41.54703, "price": 1.361, "name": "SHELL"}, {"lat": -8.69799, "lng": 42.2231, "price": 1.361, "name": "GALP"}, {"lat": 2.09947, "lng": 41.53894, "price": 1.361, "name": "CEPSA"}, {"lat": -1.00997, "lng": 41.62508, "price": 1.361, "name": "REPSOL"}, {"lat": -1.07894, "lng": 41.74039, "price": 1.361, "name": "REPSOL"}, {"lat": -8.10369, "lng": 42.66889, "price": 1.361, "name": "EROSKI"}, {"lat": 3.1045, "lng": 42.2635, "price": 1.361, "name": "E.S.MEX"}, {"lat": -1.61397, "lng": 42.73258, "price": 1.361, "name": "ANDAMUR"}, {"lat": -1.00414, "lng": 41.70369, "price": 1.361, "name": "CEPSA"}, {"lat": 2.09639, "lng": 41.55886, "price": 1.361, "name": "CEPSA"}, {"lat": -1.01003, "lng": 41.62456, "price": 1.361, "name": "REPSOL"}, {"lat": -0.86822, "lng": 41.64856, "price": 1.361, "name": "CEPSA"}, {"lat": -0.92519, "lng": 41.66014, "price": 1.361, "name": "REPSOL"}, {"lat": -5.92925, "lng": 43.57503, "price": 1.362, "name": "GRUPO ARIAS"}, {"lat": -2.57817, "lng": 37.58308, "price": 1.362, "name": "A.AGUAZA"}, {"lat": -8.71722, "lng": 43.19922, "price": 1.362, "name": "CARREFOUR"}, {"lat": -0.81636, "lng": 41.60075, "price": 1.362, "name": "CEPSA"}, {"lat": -5.76308, "lng": 43.20992, "price": 1.362, "name": "SHELL"}, {"lat": -8.30833, "lng": 42.78419, "price": 1.362, "name": "EE.SS. CAMANZO"}, {"lat": -8.42311, "lng": 43.35717, "price": 1.362, "name": "ESTACION DE SERVICIO BENS"}, {"lat": -8.16842, "lng": 42.68281, "price": 1.362, "name": "GALP"},