[{"lat": -16.35686, "lng": 28.52039, "price": 0.969, "name": "DISA EL SOCORRO"}, {"lat": -16.51519, "lng": 28.38825, "price": 0.979, "name": "CEPSA LA CANADA"}, {"lat": -16.39314, "lng": 28.33553, "price": 0.984, "name": "BP"}, {"lat": -16.68206, "lng": 28.09939, "price": 1.01, "name": "BP.ARONA"}, {"lat": -16.27881, "lng": 28.4435, "price": 1.018, "name": "CEPSA"}, {"lat": -15.41475, "lng": 28.0065, "price": 1.047, "name": "CEPSA EL CUBILLO"}, {"lat": -15.79497, "lng": 27.98903, "price": 1.051, "name": "DISA"}, {"lat": -15.42917, "lng": 27.91789, "price": 1.055, "name": "CEPSA INGENIO"}, {"lat": -15.47433, "lng": 27.805, "price": 1.058, "name": "CEPSA JUAN GRANDE"}, {"lat": -16.69214, "lng": 28.06133, "price": 1.063, "name": "DISA LLANO AZUL"}, {"lat": -16.79939, "lng": 28.24458, "price": 1.063, "name": "E.S. CEPSA CHIO"}, {"lat": -15.41753, "lng": 28.07364, "price": 1.068, "name": "DISA"}, {"lat": -13.54278, "lng": 28.98822, "price": 1.079, "name": "CEPSA TAHICHE 1"}, {"lat": -13.54381, "lng": 28.98767, "price": 1.079, "name": "CEPSA TAHICHE 2"}, {"lat": -0.90928, "lng": 42.05022, "price": 1.199, "name": "ARENTO SIERRA DE LUNA"}, {"lat": -1.94381, "lng": 42.28947, "price": 1.199, "name": "COMBUSTIBLES CALAHORRA S."}, {"lat": -6.98956, "lng": 38.90039, "price": 1.202, "name": "AREA SAN MARTIN"}, {"lat": -6.99628, "lng": 38.89483, "price": 1.202, "name": "E.S. NEVERO, S.L."}, {"lat": 2.79153, "lng": 42.10133, "price": 1.209, "name": "CONDIS"}, {"lat": 3.03122, "lng": 41.96753, "price": 1.209, "name": "CONDIS"}, {"lat": -4.07386, "lng": 43.26858, "price": 1.229, "name": "E.S. SOMAHOZ"}, {"lat": -4.06467, "lng": 43.24879, "price": 1.229, "name": "E.S. MARJA"}, {"lat": 2.10444, "lng": 41.80806, "price": 1.239, "name": "AREA DIESEL"}, {"lat": 2.97661, "lng": 42.26122, "price": 1.248, "name": "CENTRES AUTOEQUIP FIGUERE"}, {"lat": -0.47014, "lng": 38.46283, "price": 1.249, "name": "TEXAS-OIL"}, {"lat": -0.47142, "lng": 38.46306, "price": 1.249, "name": "TEXAS-OIL"}, {"lat": -6.22244, "lng": 41.0305, "price": 1.249, "name": "ESTACION DE SERVICIO PRIE"}, {"lat": -5.70903, "lng": 37.40019, "price": 1.249, "name": "GALP"}, {"lat": 2.10806, "lng": 41.80406, "price": 1.249, "name": "SERVIAUTO ECOLOGIC"}, {"lat": -3.66297, "lng": 37.14844, "price": 1.249, "name": "ES.LA NARANJA"}, {"lat": -4.22508, "lng": 36.94408, "price": 1.25, "name": "COOPERATIVA ACEITE MONDRO"}, {"lat": -1.02269, "lng": 42.36022, "price": 1.255, "name": "ARENTO-COOP. SAN ESTEBAN"}, {"lat": 1.76483, "lng": 41.83567, "price": 1.258, "name": "U. S. SURIA"}, {"lat": 1.83772, "lng": 41.73594, "price": 1.258, "name": "U.S. MANRESA"}, {"lat": 2.098, "lng": 41.53672, "price": 1.258, "name": "U.S.SABADELL"}, {"lat": 0.76247, "lng": 41.71556, "price": 1.259, "name": "NO ESTA ABANDERADO"}, {"lat": -5.68278, "lng": 40.97119, "price": 1.265, "name": "RONDA OESTE"}, {"lat": 0.519, "lng": 41.53372, "price": 1.266, "name": "COOP VERGE DE CARRASSUMAD"}, {"lat": -6.67633, "lng": 40.173, "price": 1.269, "name": "IBERDOEX"}, {"lat": -6.35447, "lng": 38.50972, "price": 1.269, "name": "E.S. ARIMIR"}, {"lat": -5.77408, "lng": 37.17633, "price": 1.269, "name": "AGLA"}, {"lat": -1.78225, "lng": 43.33931, "price": 1.269, "name": "AVIA"}, {"lat": -1.48322, "lng": 37.75697, "price": 1.27, "name": "COATO"}, {"lat": -2.89672, "lng": 43.29328, "price": 1.274, "name": "GALP"}, {"lat": 1.92858, "lng": 42.42642, "price": 1.274, "name": "AUTOSERVEI PUIGCERD\u00c0"}, {"lat": -3.60536, "lng": 40.02628, "price": 1.275, "name": "CEPSA"}, {"lat": -3.929, "lng": 41.25539, "price": 1.278, "name": "CAMPSA"}, {"lat": -0.25989, "lng": 39.16847, "price": 1.278, "name": "PEGASOLINA STAR"}, {"lat": -0.38253, "lng": 39.41558, "price": 1.279, "name": "ESTACIONES TAIGO"}, {"lat": 0.26964, "lng": 41.60594, "price": 1.279, "name": "CEPSA"}, {"lat": 0.19414, "lng": 41.62433, "price": 1.279, "name": "SHELL"}, {"lat": 2.81961, "lng": 41.99642, "price": 1.279, "name": "G P  - GIRONA -"}, {"lat": 2.00906, "lng": 41.38519, "price": 1.284, "name": "EXPRESS"}, {"lat": -2.87894, "lng": 38.69917, "price": 1.285, "name": "E.S. SANTISIMO CRISTO EXP"}, {"lat": -3.46278, "lng": 40.30564, "price": 1.288, "name": "LA ARGANDENA"}, {"lat": -3.80547, "lng": 40.34322, "price": 1.289, "name": "VALDERAS"}, {"lat": 2.27311, "lng": 41.83475, "price": 1.289, "name": "BLANCA"}, {"lat": -1.78728, "lng": 41.46606, "price": 1.289, "name": "PETRONOR"}, {"lat": 2.22286, "lng": 42.09672, "price": 1.289, "name": "NADA"}, {"lat": 2.28381, "lng": 41.88353, "price": 1.289, "name": "AREA DE SERVEIS TARADELL,"}, {"lat": -3.01017, "lng": 43.28869, "price": 1.289, "name": "GALP"}, {"lat": -5.43986, "lng": 40.39461, "price": 1.289, "name": "CEPSA"}, {"lat": 2.23594, "lng": 41.82125, "price": 1.289, "name": "ESTACIO DE SERVEIS BALENY"}, {"lat": -3.0185, "lng": 40.00678, "price": 1.289, "name": "EESS ROTONDA"}, {"lat": -4.90986, "lng": 39.92383, "price": 1.289, "name": "C. ORTIZ"}, {"lat": -6.39101, "lng": 38.68738, "price": 1.29, "name": "E. S. SAN ISIDRO"}, {"lat": -1.76817, "lng": 41.31278, "price": 1.295, "name": "ARENTO"}, {"lat": 0.53292, "lng": 42.61489, "price": 1.299, "name": "LOW COST BENASQUE"}, {"lat": -1.07572, "lng": 39.13831, "price": 1.299, "name": "E.S. JARAFUEL"}, {"lat": -4.12214, "lng": 38.99069, "price": 1.299, "name": "CARBURANTES APB 24 HORAS"}, {"lat": -5.54964, "lng": 38.73289, "price": 1.299, "name": "FAST FUEL"}, {"lat": -6.08011, "lng": 37.37347, "price": 1.299, "name": "QUICK   EASY"}, {"lat": -7.03089, "lng": 37.27917, "price": 1.299, "name": "SAN REMO"}, {"lat": -0.45831, "lng": 39.11367, "price": 1.299, "name": "PEMAX LEVANTE"}, {"lat": -4.92867, "lng": 41.19478, "price": 1.299, "name": "AVIA"}, {"lat": -5.01992, "lng": 41.20619, "price": 1.299, "name": "AVIA"}, {"lat": -4.61664, "lng": 42.34117, "price": 1.299, "name": "RIO NUBIS"}, {"lat": 2.48797, "lng": 41.55222, "price": 1.299, "name": "PETROLIS MIRAMAR"}, {"lat": -6.42972, "lng": 38.68739, "price": 1.3, "name": "AQUOIL"}, {"lat": -3.26658, "lng": 37.32303, "price": 1.302, "name": "CARBURANTES A92"}, {"lat": -2.0145, "lng": 42.92211, "price": 1.302, "name": "CEPSA"}, {"lat": -3.57761, "lng": 36.99969, "price": 1.304, "name": "AGLA E.S. VALLE ZAHOR S.L"}, {"lat": 0.15092, "lng": 40.87253, "price": 1.306, "name": "CEPSA"}, {"lat": -3.83047, "lng": 43.45006, "price": 1.307, "name": "EASYGAS"}, {"lat": -3.01053, "lng": 39.93147, "price": 1.308, "name": "E.S. VIRGEN DE LA SOLEDAD"}, {"lat": -6.46453, "lng": 42.04297, "price": 1.309, "name": "E.S. EL PINO"}, {"lat": -6.85975, "lng": 38.88653, "price": 1.309, "name": "IBERDOEX"}, {"lat": -4.309, "lng": 43.31956, "price": 1.309, "name": "E.S. TRECENO S.L."}, {"lat": 1.12475, "lng": 41.11767, "price": 1.309, "name": "SIN ROTULO"}, {"lat": 1.12406, "lng": 41.11711, "price": 1.309, "name": "SIN ROTULO"}, {"lat": -6.23444, "lng": 36.58889, "price": 1.309, "name": "LA PUNTILLA"}, {"lat": -4.04902, "lng": 39.31456, "price": 1.309, "name": "LA LOMA"}, {"lat": -5.60111, "lng": 42.58783, "price": 1.309, "name": "CARBUNOR"}, {"lat": -2.62517, "lng": 36.80328, "price": 1.309, "name": "CAMPO ROQUETAS"}, {"lat": -5.80883, "lng": 36.76967, "price": 1.309, "name": "ES EL PERAL"}, {"lat": -7.53717, "lng": 43.68742, "price": 1.309, "name": "E.S. CAMBA"}, {"lat": -1.56025, "lng": 41.44722, "price": 1.31, "name": "NO"}, {"lat": -1.50317, "lng": 42.93717, "price": 1.312, "name": "AVIA"}, {"lat": -0.03358, "lng": 40.17831, "price": 1.315, "name": "COOP. AGRARIA SAN ISIDRO"}, {"lat": -4.76808, "lng": 41.66181, "price": 1.317, "name": "REPOSTAR--ZARATAN"}, {"lat": -0.42636, "lng": 39.02144, "price": 1.318, "name": "PETROMAR"}, {"lat": -0.51444, "lng": 39.28936, "price": 1.319, "name": "E.S. ALTAMAR J.A."}, {"lat": -0.434, "lng": 39.36697, "price": 1.319, "name": "CEPSA"}, {"lat": 1.33025, "lng": 42.21211, "price": 1.319, "name": "PETRONOR"}, {"lat": -5.78164, "lng": 43.24608, "price": 1.319, "name": "SARAS"}, {"lat": -2.70228, "lng": 42.89567, "price": 1.319, "name": "AVIA"}, {"lat": -2.61636, "lng": 42.87686, "price": 1.319, "name": "AVIA"}, {"lat": -5.96592, "lng": 42.44767, "price": 1.319, "name": "REPSOL"}, {"lat": -0.434, "lng": 39.36692, "price": 1.319, "name": "CEPSA"}, {"lat": -5.93425, "lng": 37.34503, "price": 1.319, "name": "RM"}, {"lat": -6.233, "lng": 38.55372, "price": 1.319, "name": "CAMPSA"}, {"lat": -2.71272, "lng": 42.86378, "price": 1.319, "name": "AVIA"}, {"lat": -5.76783, "lng": 42.51692, "price": 1.319, "name": "CEPSA"}, {"lat": -1.41653, "lng": 38.03272, "price": 1.319, "name": "TANAMIL"}, {"lat": -5.54419, "lng": 40.98164, "price": 1.319, "name": "LA FLECHA"}, {"lat": -6.13433, "lng": 36.65178, "price": 1.32, "name": "A3.81"}, {"lat": -4.97236, "lng": 37.60258, "price": 1.322, "name": "AGIP"}, {"lat": -4.27975, "lng": 42.03731, "price": 1.324, "name": "BP"}, {"lat": -3.29978, "lng": 40.29022, "price": 1.324, "name": "CEPSA"}, {"lat": -5.08517, "lng": 38.97686, "price": 1.325, "name": "C.CERRO/E.S. QUINTO P."}, {"lat": -5.04703, "lng": 39.17083, "price": 1.329, "name": "CAMPSA"}, {"lat": -5.33119, "lng": 39.45183, "price": 1.329, "name": "IBERDOEX CHIPI"}, {"lat": -3.68931, "lng": 37.22903, "price": 1.329, "name": "CTM.ATARFE.S.L."}, {"lat": -7.00008, "lng": 39.47875, "price": 1.329, "name": "ES SALORINO"}, {"lat": 2.36294, "lng": 41.6265, "price": 1.329, "name": "BP"}, {"lat": -5.13453, "lng": 41.41056, "price": 1.329, "name": "LA LOBA 2000"}, {"lat": -4.97956, "lng": 41.44103, "price": 1.329, "name": "LALOBA"}, {"lat": -3.95836, "lng": 38.9745, "price": 1.329, "name": "REPSOL"}, {"lat": -3.36447, "lng": 36.93014, "price": 1.329, "name": "E.S MIRADOR DE POQUEIRA"}, {"lat": -3.83664, "lng": 38.91481, "price": 1.329, "name": "CEPSA"}, {"lat": -5.31858, "lng": 39.44819, "price": 1.329, "name": "REPSOL"}, {"lat": -0.63675, "lng": 41.51497, "price": 1.329, "name": "REPSOL"}, {"lat": -3.14111, "lng": 40.40506, "price": 1.329, "name": "REPSOL"}, {"lat": 1.70353, "lng": 41.91189, "price": 1.329, "name": "VILALTA"}, {"lat": -0.51881, "lng": 39.16281, "price": 1.33, "name": "RIBERCOST"}, {"lat": -5.69369, "lng": 43.30081, "price": 1.33, "name": "CASTRONALON"}, {"lat": -5.71919, "lng": 40.11339, "price": 1.332, "name": "(SIN ROTULO)"}, {"lat": -0.51339, "lng": 38.99058, "price": 1.335, "name": "CEPSA"}, {"lat": 2.27972, "lng": 42.00881, "price": 1.335, "name": "MOVIL AUSONA, S.A."}, {"lat": 2.28231, "lng": 41.99489, "price": 1.335, "name": "MOVIL TER, S.A."}, {"lat": 2.27472, "lng": 42.03981, "price": 1.335, "name": "MOVIL SANT ROC, S.A."}, {"lat": -5.85453, "lng": 36.74139, "price": 1.335, "name": "GARRUCHO"}, {"lat": -3.59414, "lng": 41.09712, "price": 1.335, "name": "Q8"}, {"lat": -5.38997, "lng": 37.78839, "price": 1.336, "name": "AGLA"}, {"lat": 0.69483, "lng": 40.79533, "price": 1.338, "name": "AVIA"}, {"lat": -3.39031, "lng": 38.78092, "price": 1.339, "name": "E.S LAGUNA"}, {"lat": -6.96608, "lng": 38.90617, "price": 1.339, "name": "REPSOL"}, {"lat": -3.04236, "lng": 40.032, "price": 1.339, "name": "CEPSA"}, {"lat": -3.04106, "lng": 40.03294, "price": 1.339, "name": "CEPSA"}, {"lat": -6.38056, "lng": 38.88503, "price": 1.339, "name": "IBERDOEX"}, {"lat": -5.68026, "lng": 38.74865, "price": 1.339, "name": "IBERDOEX"}, {"lat": 2.6935, "lng": 41.79603, "price": 1.339, "name": "PETRONOR"}, {"lat": -0.53819, "lng": 42.67767, "price": 1.339, "name": "REPSOL"}, {"lat": -2.10917, "lng": 38.00106, "price": 1.339, "name": "TANAMIL"}, {"lat": -3.76511, "lng": 40.24708, "price": 1.339, "name": "BP"}, {"lat": -0.17061, "lng": 40.21942, "price": 1.339, "name": "PETRONOR"}, {"lat": -3.00531, "lng": 40.00658, "price": 1.339, "name": "REPSOL"}, {"lat": -4.93919, "lng": 41.78475, "price": 1.339, "name": "CEPSA"}, {"lat": -4.94175, "lng": 41.78625, "price": 1.339, "name": "CEPSA"}, {"lat": -6.96498, "lng": 38.90627, "price": 1.339, "name": "REPSOL"}, {"lat": -4.90497, "lng": 37.23481, "price": 1.339, "name": "AGLA"}, {"lat": -5.72167, "lng": 37.65103, "price": 1.339, "name": "SENDA"}, {"lat": -5.33633, "lng": 36.61881, "price": 1.34, "name": "HEMEGAS"}, {"lat": -4.32917, "lng": 37.22694, "price": 1.345, "name": "LAS TRES PROVINCIAS"}, {"lat": 2.28283, "lng": 41.68439, "price": 1.345, "name": "REPSOL"}, {"lat": -8.79039, "lng": 42.471, "price": 1.346, "name": "CS"}, {"lat": -4.05753, "lng": 40.24467, "price": 1.346, "name": "SHELL"}, {"lat": -2.74881, "lng": 36.78044, "price": 1.347, "name": "PARKING LA REDONDA"}, {"lat": -3.00953, "lng": 37.39233, "price": 1.347, "name": "GOR"}, {"lat": -2.61708, "lng": 39.27225, "price": 1.348, "name": "ESTACION DE SERVICIO AVEN"}, {"lat": 2.97664, "lng": 42.26122, "price": 1.348, "name": "GALP"}, {"lat": 2.95589, "lng": 42.22978, "price": 1.348, "name": "GALP"}, {"lat": -3.93531, "lng": 43.27297, "price": 1.349, "name": "REPSOL"}, {"lat": 2.77678, "lng": 42.11683, "price": 1.349, "name": "AVIA"}, {"lat": -4.74939, "lng": 37.88781, "price": 1.349, "name": "E.S. EL GRANADAL"}, {"lat": -4.57081, "lng": 36.65906, "price": 1.349, "name": "BP"}, {"lat": -5.46711, "lng": 39.88833, "price": 1.349, "name": "REPSOL"}, {"lat": 2.92833, "lng": 41.72181, "price": 1.349, "name": "ASUNCION PALOU COLL"}, {"lat": -0.52858, "lng": 40.06483, "price": 1.349, "name": "CARLA"}, {"lat": -0.7035, "lng": 39.91083, "price": 1.349, "name": "CEPSA"}, {"lat": 2.09639, "lng": 41.55886, "price": 1.349, "name": "AVIA"}, {"lat": 0.91569, "lng": 41.75433, "price": 1.349, "name": "REPSOL"}, {"lat": 0.63594, "lng": 41.81436, "price": 1.349, "name": "ES ALGERRI"}, {"lat": -4.86444, "lng": 38.98047, "price": 1.349, "name": "PETRONOR"}, {"lat": -1.35961, "lng": 39.90281, "price": 1.349, "name": "INVERSIONES CASTELLANO CA"}, {"lat": -5.73069, "lng": 37.15358, "price": 1.349, "name": "MEROIL"}, {"lat": -8.59303, "lng": 43.02806, "price": 1.35, "name": "EESSBENZA"}, {"lat": -5.54339, "lng": 39.00203, "price": 1.35, "name": "EESS ORELLANA"}, {"lat": -3.99078, "lng": 37.00367, "price": 1.35, "name": "HEREDEROS JUAN PEREZ CASE"}, {"lat": -5.85239, "lng": 36.67906, "price": 1.352, "name": "E.S. JUNTA DE LOS RIOS"}, {"lat": -2.28753, "lng": 37.485, "price": 1.352, "name": "CEPSA"}, {"lat": -2.07156, "lng": 37.46339, "price": 1.352, "name": "CEPSA"}, {"lat": -5.64925, "lng": 41.00453, "price": 1.354, "name": "REPSOL"}, {"lat": -0.45381, "lng": 38.37547, "price": 1.354, "name": "VISTAHERMOSA"}, {"lat": -4.55958, "lng": 37.02297, "price": 1.355, "name": "LA VEGA-ANTEQUERA"}, {"lat": -3.56697, "lng": 37.68289, "price": 1.355, "name": "AGLA"}, {"lat": -5.02953, "lng": 38.18525, "price": 1.355, "name": "MEROIL"}, {"lat": -5.21864, "lng": 36.96608, "price": 1.356, "name": "CEPSA"}, {"lat": -4.86475, "lng": 37.63211, "price": 1.359, "name": "E.S.NTRA . SNRA. DEL ROSA"}, {"lat": -1.64317, "lng": 40.04333, "price": 1.359, "name": "CANETE"}, {"lat": -3.46392, "lng": 40.84506, "price": 1.359, "name": "BP"}, {"lat": -0.46758, "lng": 39.45683, "price": 1.359, "name": "GALP"}, {"lat": -1.09506, "lng": 39.48386, "price": 1.359, "name": "PETRONOR"}, {"lat": -0.70328, "lng": 39.79997, "price": 1.359, "name": "E.S-TALLER CABANES SANZ S"}, {"lat": 1.81708, "lng": 41.72639, "price": 1.359, "name": "HERMANOS CODINA"}, {"lat": -0.80594, "lng": 37.599, "price": 1.359, "name": "REPSOL"}, {"lat": -8.12158, "lng": 42.66481, "price": 1.359, "name": "CAMPSA"}, {"lat": -3.84489, "lng": 39.96414, "price": 1.359, "name": "LA ERMITA S.L."}, {"lat": -1.19978, "lng": 38.07375, "price": 1.359, "name": "REPSOL"}, {"lat": -2.47694, "lng": 42.39042, "price": 1.359, "name": "SHELL"}, {"lat": 1.84575, "lng": 41.71672, "price": 1.359, "name": "BP OIL ESPANA"}, {"lat": -6.00158, "lng": 36.62831, "price": 1.359, "name": "AGLA"}, {"lat": -6.09356, "lng": 37.31378, "price": 1.362, "name": "E.S. BEFFA PONTA"}, {"lat": -4.64683, "lng": 37.73742, "price": 1.364, "name": "E.S.LA REINA, SL"}, {"lat": -2.20583, "lng": 36.94925, "price": 1.365, "name": "NIJAR"}, {"lat": -2.31692, "lng": 40.45078, "price": 1.365, "name": "REPSOL"}, {"lat": -4.45539, "lng": 37.47242, "price": 1.365, "name": "SARAS"}, {"lat": -6.37325, "lng": 37.29231, "price": 1.365, "name": "BP OIL ESPANA S.A."}, {"lat": 2.54206, "lng": 41.57517, "price": 1.365, "name": "PETRO FUEL"}, {"lat": -4.21897, "lng": 40.12625, "price": 1.365, "name": "BP OIL"}, {"lat": -8.57733, "lng": 43.24689, "price": 1.368, "name": "CEPSA"}, {"lat": -0.76142, "lng": 38.21661, "price": 1.369, "name": "CEPSA"}, {"lat": -4.14858, "lng": 37.24447, "price": 1.369, "name": "COMB.QUINTANA QUINTANA"}, {"lat": -6.50786, "lng": 37.25406, "price": 1.369, "name": "BP"}, {"lat": -8.55194, "lng": 42.29356, "price": 1.369, "name": "A CHAN DE AMOEDO"}, {"lat": -0.73272, "lng": 38.08397, "price": 1.369, "name": "BP ROJALES"}, {"lat": -0.73069, "lng": 38.08789, "price": 1.369, "name": "BP LOS PALACIOS"}, {"lat": -1.34608, "lng": 39.10039, "price": 1.369, "name": "CAMPSA"}, {"lat": -6.13942, "lng": 37.39286, "price": 1.369, "name": "REPSOL"}, {"lat": -2.16833, "lng": 37.70797, "price": 1.369, "name": "REPSOL"}, {"lat": -5.89442, "lng": 37.42864, "price": 1.369, "name": "SEVILLA AEROPUERTO"}, {"lat": -5.01461, "lng": 40.26397, "price": 1.369, "name": "REPSOL"}, {"lat": -4.67183, "lng": 38.48078, "price": 1.369, "name": "CAMPSA"}, {"lat": -5.96889, "lng": 37.38725, "price": 1.374, "name": "GALP"}, {"lat": -2.41919, "lng": 39.78353, "price": 1.375, "name": "CEPSA"}, {"lat": -2.92628, "lng": 39.96114, "price": 1.375, "name": "BLANCA"}, {"lat": -5.93231, "lng": 37.47306, "price": 1.375, "name": "SHELL"}, {"lat": -1.28303, "lng": 43.10908, "price": 1.377, "name": "AVIA"}, {"lat": -7.48211, "lng": 42.63358, "price": 1.377, "name": "PETRONOR"}, {"lat": -8.38044, "lng": 43.15264, "price": 1.379, "name": "REPSOL"}, {"lat": -4.76242, "lng": 43.42464, "price": 1.379, "name": "GALP"}, {"lat": -2.22331, "lng": 39.71678, "price": 1.379, "name": "SANTOYO HERMANOS"}, {"lat": -2.17836, "lng": 36.90433, "price": 1.379, "name": "CASI  COOPERATIVA AGRICO"}, {"lat": -5.10003, "lng": 37.69203, "price": 1.379, "name": "REPSOL"}, {"lat": 1.27167, "lng": 41.15861, "price": 1.379, "name": "CEPSA"}, {"lat": -0.53878, "lng": 38.276, "price": 1.384, "name": "REPSOL"}, {"lat": -3.72317, "lng": 38.02189, "price": 1.385, "name": "E.S. LOPEZ JIMENEZ S.L."}, {"lat": -6.96675, "lng": 37.79564, "price": 1.385, "name": "REPSOL"}, {"lat": -2.93406, "lng": 37.69981, "price": 1.385, "name": "REPSOL"}, {"lat": -5.98489, "lng": 37.38378, "price": 1.386, "name": "CEPSA"}, {"lat": -4.97497, "lng": 38.38011, "price": 1.389, "name": "PUERTA LOS PEDROCHES"}, {"lat": -1.68092, "lng": 38.60228, "price": 1.389, "name": "REPSOL"}, {"lat": -1.16531, "lng": 39.53056, "price": 1.389, "name": "REPSOL"}, {"lat": 1.54436, "lng": 41.23628, "price": 1.389, "name": "GALP"}, {"lat": -2.76919, "lng": 37.50489, "price": 1.389, "name": "BP BAZA"}, {"lat": -6.39058, "lng": 38.74047, "price": 1.39, "name": "0"}, {"lat": -2.77278, "lng": 37.14475, "price": 1.392, "name": "CEPSA"}, {"lat": -3.68256, "lng": 36.73458, "price": 1.396, "name": "ESSA"}, {"lat": 2.19922, "lng": 41.399, "price": 1.399, "name": "REPSOL"}, {"lat": -0.56317, "lng": 39.37542, "price": 1.399, "name": "REPSOL"}, {"lat": 2.39636, "lng": 41.75861, "price": 1.399, "name": "BLANCA"}, {"lat": -5.73081, "lng": 37.58958, "price": 1.415, "name": "REPSOL"}, {"lat": 3.04639, "lng": 39.34133, "price": 1.42, "name": "CEPSA"}, {"lat": -0.42069, "lng": 39.28881, "price": 1.429, "name": "(SIN ROTULO)"}]