[{"id":"16-01-7-16-BIO","openingHours":"L-D: 24H","addressRegion":"\u00c1LAVA","addressMunicipality":"Arrazua-Ubarrundia","addressLocality":"ZURBANO","postalCode":"01520","address":"AUTOVIA N-1 km 358","latitude":42.876861,"longitude":-2.616361,"brand":"AVIA","price":1.139},{"id":"16-01-39-11651-BIO","openingHours":"L-D: 24H","addressRegion":"\u00c1LAVA","addressMunicipality":"Ribera Baja\/Erribera Beitia","addressLocality":"RIBABELLOSA","postalCode":"01213","address":"AVENIDA ALAVA, 12","latitude":42.692917,"longitude":-2.920667,"brand":"EESS ROMPETROL","price":1.155},{"id":"16-01-42-12644-BIO","openingHours":"L-D: 24H","addressRegion":"\u00c1LAVA","addressMunicipality":"San Mill\u00e1n\/Donemiliaga","addressLocality":"DURRUMA\/SAN ROMAN DE SAN","postalCode":"01207","address":"CALLE POLIGONO OKITURRI, 4","latitude":42.863583,"longitude":-2.324083,"brand":"IS-XXI","price":1.149},{"id":"16-01-46-12416-BIO","openingHours":"L-D: 06:30-22:30","addressRegion":"\u00c1LAVA","addressMunicipality":"Vitoria-Gasteiz","addressLocality":"VITORIA-GASTEIZ","postalCode":"01010","address":"CALLE URARTEA, 23","latitude":42.863778,"longitude":-2.712722,"brand":"AVIA","price":1.139},{"id":"10-03-152-3731-BIO","openingHours":"L-D: 07:00-22:00","addressRegion":"ALICANTE","addressMunicipality":"Alicante\/Alacant","addressLocality":"ALICANTE\/ALACANT","postalCode":"03008","address":"POL. IND. BABEL C\/ ARTES GR?FICAS, 89","latitude":38.335861,"longitude":-0.512472,"brand":"TAMOIL","price":1.108},{"id":"08-05-396-4919-BIO","openingHours":"L-D: 07:00-23:00","addressRegion":"\u00c1VILA","addressMunicipality":"Barco de \u00c1vila (El)","addressLocality":"BARCO DE AVILA (EL)","postalCode":"05600","address":"CARRETERA NACIONAL 110 KM. 335,2","latitude":40.3585,"longitude":-5.516528,"brand":"BELLAVISTA S.L.","price":1.066},{"id":"09-08-881-1840-BIO","openingHours":"L-D: 24H","addressRegion":"BARCELONA","addressMunicipality":"Barcelona","addressLocality":"BARCELONA","postalCode":"08015","address":"AVINGUDA DEL PARALELO, 132","latitude":41.375278,"longitude":2.160556,"brand":"GALP","price":1.004},{"id":"09-08-881-11988-BIO","openingHours":"L-V: 06:00-22:00","addressRegion":"BARCELONA","addressMunicipality":"Barcelona","addressLocality":"BARCELONA","postalCode":"08040","address":"PASSATGE MO\u00c7ANVIC, S\/N","latitude":41.332917,"longitude":2.137083,"brand":"PETROZAL","price":1.135},{"id":"09-08-881-12192-BIO","openingHours":"L-D: 24H","addressRegion":"BARCELONA","addressMunicipality":"Barcelona","addressLocality":"BARCELONA","postalCode":"08033","address":"AVENIDA MERIDIANA, 666","latitude":41.448,"longitude":2.188278,"brand":"MEROIL","price":1.136},{"id":"09-08-881-3006-BIO","openingHours":"L-D: 24H","addressRegion":"BARCELONA","addressMunicipality":"Barcelona","addressLocality":"BARCELONA","postalCode":"08019","address":"CALLE PUJADES, 309","latitude":41.406694,"longitude":2.207028,"brand":"TAMOIL","price":0.999},{"id":"09-08-931-2042-BIO","openingHours":"L-D: 24H","addressRegion":"BARCELONA","addressMunicipality":"Cerdanyola del Vall\u00e8s","addressLocality":"CERDANYOLA DEL VALLES","postalCode":"08290","address":"CALLE SANTA ANNA, 133","latitude":41.500278,"longitude":2.124972,"brand":"SABATER NURI CARBURANTS SA","price":1.1},{"id":"09-08-931-2040-BIO","openingHours":"L-D: 24H","addressRegion":"BARCELONA","addressMunicipality":"Cerdanyola del Vall\u00e8s","addressLocality":"CERDANYOLA DEL VALLES","postalCode":"08290","address":"CALLE BOSC TANCAT, S\/N","latitude":41.499722,"longitude":2.13525,"brand":"SABATER NURI CARBURANTS SA","price":1.1},{"id":"09-08-940-2079-BIO","openingHours":"L-D: 24H","addressRegion":"BARCELONA","addressMunicipality":"Esparreguera","addressLocality":"ESPARREGUERA","postalCode":"08292","address":"CR A-2, 581,5","latitude":41.528278,"longitude":1.881222,"brand":"REPSOL","price":1.239},{"id":"09-08-965-3026-BIO","openingHours":"L-D: 24H","addressRegion":"BARCELONA","addressMunicipality":"Hospitalet de Llobregat (L')","addressLocality":"HOSPITALET DE LLOBREGAT (L')","postalCode":"08901","address":"AVENIDA FABREGADA, 55","latitude":41.358306,"longitude":2.107944,"brand":"TAMOIL","price":0.979},{"id":"09-08-965-2999-BIO","openingHours":"L-D: 06:00-22:00","addressRegion":"BARCELONA","addressMunicipality":"Hospitalet de Llobregat (L')","addressLocality":"HOSPITALET DE LLOBREGAT (L')","postalCode":"08902","address":"CALLE JUAN RAMON JIMENEZ, 20","latitude":41.361417,"longitude":2.117833,"brand":"TAMOIL","price":1.019},{"id":"09-08-967-2035-BIO","openingHours":"L-D: 24H","addressRegion":"BARCELONA","addressMunicipality":"Igualada","addressLocality":"IGUALADA","postalCode":"08700","address":"CALLE GUIMARAES, S\/N","latitude":41.589056,"longitude":1.622333,"brand":"PETROMIRALLES","price":1.029},{"id":"09-08-987-1637-BIO","openingHours":"L-D: 06:00-00:00","addressRegion":"BARCELONA","addressMunicipality":"Matar\u00f3","addressLocality":"MATARO","postalCode":"08302","address":"CARRETERA N-2 KM. 644","latitude":41.523194,"longitude":2.428167,"brand":"GALP","price":1.039},{"id":"09-08-1079-1671-BIO","openingHours":"L-D: 06:00-22:00","addressRegion":"BARCELONA","addressMunicipality":"Sant Joan de Vilatorrada","addressLocality":"SANT JOAN DE VILATORRADA","postalCode":"08250","address":"CARRETERA C-55 KM. 39","latitude":41.769639,"longitude":1.789444,"brand":"TAMOIL","price":1.069},{"id":"09-08-1117-1774-BIO","openingHours":"L-V: 04:00-23:00; S-D: 07:00-23:00","addressRegion":"BARCELONA","addressMunicipality":"Santa Margarida i els Monjos","addressLocality":"MONJOS (ELS)","postalCode":"08730","address":"POLIGONO PLA DE L'ESTACIO, S\/N","latitude":41.313861,"longitude":1.652389,"brand":"GALP","price":1.165},{"id":"09-08-1162-2033-BIO","openingHours":"L-D: 24H","addressRegion":"BARCELONA","addressMunicipality":"Vilafranca del Pened\u00e8s","addressLocality":"VILAFRANCA DEL PENEDES","postalCode":"08720","address":"CALLE LA MUNIA, 2","latitude":41.338944,"longitude":1.687583,"brand":"PETROMIRALLES","price":1.099},{"id":"11-10-1630-7601-BIO","openingHours":"L: 06:30-22:00","addressRegion":"C\u00c1CERES","addressMunicipality":"Guijo de Galisteo","addressLocality":"BATAN (EL)","postalCode":"10692","address":"CTRA. C-511 km 74,600","latitude":39.972694,"longitude":-6.373083,"brand":"BATAN","price":1.048},{"id":"01-11-1782-6991-BIO","openingHours":"L-D: 24H","addressRegion":"C\u00c1DIZ","addressMunicipality":"Jerez de la Frontera","addressLocality":"JEREZ DE LA FRONTERA","postalCode":"11408","address":"POLIGONO SUR MANZANA 23 UE-2H, 1","latitude":36.670222,"longitude":-6.145167,"brand":"TAMOIL","price":1.049},{"id":"01-11-1795-9407-BIO","openingHours":"L-D: 24H","addressRegion":"C\u00c1DIZ","addressMunicipality":"San Roque","addressLocality":"SAN ROQUE","postalCode":"11360","address":"AUTOVIA POL.IND.GUADARRANQUE PARC.9A (N-340 AUTOVIA A-7 (E-15) CADIZ-MADRID SALIDA116 KM.","latitude":36.203889,"longitude":-5.411194,"brand":"CODES","price":1.171},{"id":"06-39-5751-10896-BIO","openingHours":"L-S: 07:00-13:00","addressRegion":"CANTABRIA","addressMunicipality":"Astillero (El)","addressLocality":"GUARNIZO","postalCode":"39611","address":"CALLE PROSPERIDAD, 61","latitude":43.404417,"longitude":-3.836111,"brand":"AREA DE SERVICIO LA PALMERA","price":1.109},{"id":"06-39-5762-998-BIO","openingHours":"L-D: 07:00-23:00","addressRegion":"CANTABRIA","addressMunicipality":"Cartes","addressLocality":"CARTES","postalCode":"39311","address":"BARRIO DE RIOCORVO, 2 (N-611 PALENCIA-SANTANDER km 179,8)","latitude":43.314472,"longitude":-4.069278,"brand":"MEROIL","price":1.099},{"id":"10-12-1842-12373-BIO","openingHours":"L-D: 24H","addressRegion":"CASTELL\u00d3N \/ CASTELL\u00d3","addressMunicipality":"Castell\u00f3n de la Plana\/Castell\u00f3 de la Plana","addressLocality":"CASTELLON DE LA PLANA","postalCode":"12006","address":"AVENIDA EUROPA ESQ. C\/ B\u00c9LGICA, 138","latitude":39.971722,"longitude":-0.07575,"brand":"BDMED","price":1.019},{"id":"10-12-1882-12114-BIO","openingHours":"L-D: 24H","addressRegion":"CASTELL\u00d3N \/ CASTELL\u00d3","addressMunicipality":"Onda","addressLocality":"ONDA","postalCode":"12200","address":"AVENIDA REAL DE EXTREMADURA, 9","latitude":39.963833,"longitude":-0.230583,"brand":"BDMED","price":1.079},{"id":"10-12-1882-12808-BIO","openingHours":"L-D: 24H","addressRegion":"CASTELL\u00d3N \/ CASTELL\u00d3","addressMunicipality":"Onda","addressLocality":"APEADERO DE BECHI","postalCode":"12200","address":"CARRETERA APEADERO DE BETXI POLIG. 19 PARC. 34 KM. 2","latitude":39.951278,"longitude":-0.182472,"brand":"BDMED","price":1.039},{"id":"12-15-2153-672-BIO","openingHours":"L-D: 24H","addressRegion":"CORU\u00d1A (A)","addressMunicipality":"Fene","addressLocality":"FENE","postalCode":"15500","address":"CARRETERA N-651 KM. 27,2","latitude":43.450889,"longitude":-8.166556,"brand":"ORTEGAL OIL","price":1.004},{"id":"12-15-2158-10144-BIO","openingHours":"L-S: 07:00-22:00","addressRegion":"CORU\u00d1A (A)","addressMunicipality":"Laracha (A)","addressLocality":"CORGO","postalCode":"15145","address":"LUGAR CORGO ARRIBA, 10","latitude":43.230611,"longitude":-8.467889,"brand":"LOW COST ATENDIDO O CORGO","price":1.07},{"id":"12-15-2172-12423-BIO","openingHours":"L-D: 24H","addressRegion":"CORU\u00d1A (A)","addressMunicipality":"Nar\u00f3n","addressLocality":"O'VAL-NAR\u00d3N","postalCode":"15578","address":"RUA BERNARDO ROMERO, 3","latitude":43.531806,"longitude":-8.195222,"brand":"ORTEGAL OIL","price":1.024},{"id":"09-17-2460-12237-BIO","openingHours":"L-D: 24H","addressRegion":"GIRONA","addressMunicipality":"Avinyonet de Puigvent\u00f3s","addressLocality":"AVINYONET DE PUIGVENTOS","postalCode":"17742","address":"CARRETERA C-260 DE BESALU A ROSES KM. 41,000","latitude":42.258083,"longitude":2.947778,"brand":"E.S.AVINYONET","price":1.109},{"id":"09-17-2590-3023-BIO","openingHours":"L-D: 06:00-22:00","addressRegion":"GIRONA","addressMunicipality":"Riudellots de la Selva","addressLocality":"RIUDELLOTS DE LA SELVA","postalCode":"17457","address":"CARRETERA C-25 KM. 240","latitude":41.896889,"longitude":2.810833,"brand":"TAMOIL","price":1.039},{"id":"09-17-2664-12680-BIO","openingHours":"L-D: 24H","addressRegion":"GIRONA","addressMunicipality":"Vilamalla","addressLocality":"POLIGON EMPORDA INTERNACIONAL","postalCode":"17469","address":"POLIGONO LA BISBAL, 10","latitude":42.229111,"longitude":2.990833,"brand":"IS-XXI","price":1.195},{"id":"01-18-2745-7010-BIO","openingHours":"L-D: 24H","addressRegion":"GRANADA","addressMunicipality":"Granada","addressLocality":"GRANADA","postalCode":"18015","address":"AVENIDA ANDALUCIA, S\/N","latitude":37.195611,"longitude":-3.632667,"brand":"TAMOIL","price":1.039},{"id":"16-20-3157-6-BIO","openingHours":"L-D: 24H","addressRegion":"GUIP\u00daZCOA","addressMunicipality":"Donostia-San Sebasti\u00e1n","addressLocality":"DONOSTIA-SAN SEBASTIAN","postalCode":"20014","address":"PASEO DR. BEGIRISTAIN, 75","latitude":43.297083,"longitude":-1.96625,"brand":"AVIA","price":1.119},{"id":"16-20-3158-18-BIO","openingHours":"L-D: 24H","addressRegion":"GUIP\u00daZCOA","addressMunicipality":"Eibar","addressLocality":"EIBAR","postalCode":"20600","address":"CALLE OTAOLA, 13","latitude":43.181611,"longitude":-2.482917,"brand":"AVIA-KANTOI","price":1.099},{"id":"16-20-3181-21-BIO","openingHours":"L-D: 06:30-22:30","addressRegion":"GUIP\u00daZCOA","addressMunicipality":"Lazkao","addressLocality":"LAZKAO","postalCode":"20210","address":"GI-120 km 65","latitude":43.041944,"longitude":-2.188333,"brand":"AVIA","price":1.129},{"id":"16-20-3211-11754-BIO","openingHours":"L-V: 08:30-20:00; S: 09:00-14:00","addressRegion":"GUIP\u00daZCOA","addressMunicipality":"Zestoa","addressLocality":"ARROA-BEKOA","postalCode":"20749","address":"POLIGONO SANSINENEA ERREKA, 14","latitude":43.273556,"longitude":-2.274028,"brand":"AVIA","price":1.048},{"id":"01-21-3216-7013-BIO","openingHours":"L-D: 07:00-23:00","addressRegion":"HUELVA","addressMunicipality":"Aljaraque","addressLocality":"ALJARAQUE","postalCode":"21110","address":"CARRETERA A-492 KM. 0,100","latitude":37.273944,"longitude":-6.991028,"brand":"TAMOIL","price":1.059},{"id":"01-21-3227-9091-BIO","openingHours":"L-D: 24H","addressRegion":"HUELVA","addressMunicipality":"Bollullos Par del Condado","addressLocality":"BOLLULLOS PAR DEL CONDADO","postalCode":"21710","address":"CARRETERA CARRETERA H 611 KM 4,7 KM. SN","latitude":37.355222,"longitude":-6.540861,"brand":"AGLA","price":1.139},{"id":"02-22-3313-12014-BIO","openingHours":"L-D: 24H","addressRegion":"HUESCA","addressMunicipality":"Almud\u00e9var","addressLocality":"ALMUDEVAR","postalCode":"22270","address":"AVENIDA COOP.SANTIAGO MAXIMO SAMPER, 0","latitude":42.040111,"longitude":-0.588028,"brand":"VIRGEN DE LA CORONA","price":1.07},{"id":"01-23-3543-7027-BIO","openingHours":"L-D: 24H","addressRegion":"JA\u00c9N","addressMunicipality":"Ja\u00e9n","addressLocality":"JAEN","postalCode":"23008","address":"CARRETERA N-323 KM. 332,6","latitude":37.787667,"longitude":-3.782917,"brand":"TAMOIL","price":1.039},{"id":"01-23-3553-7021-BIO","openingHours":"L-D: 24H","addressRegion":"JA\u00c9N","addressMunicipality":"Marmolejo","addressLocality":"MARMOLEJO","postalCode":"23770","address":"CARRETERA N-IV KM. 339","latitude":38.005583,"longitude":-4.193028,"brand":"TAMOIL","price":1.019},{"id":"08-24-3765-6076-BIO","openingHours":"L-D: 06:00-00:00","addressRegion":"LE\u00d3N","addressMunicipality":"Valencia de Don Juan","addressLocality":"VALENCIA DE DON JUAN","postalCode":"24200","address":"AVENIDA PALANQUINOS, 2","latitude":42.296694,"longitude":-5.515528,"brand":"SAENZ DE MIERA SL","price":1.05},{"id":"09-25-3938-2027-BIO","openingHours":"L-S: 06:30-22:00; D: 07:30-22:00","addressRegion":"LLEIDA","addressMunicipality":"Oliana","addressLocality":"OLIANA","postalCode":"25790","address":"CARRETERA C-14 KM. 141,000","latitude":42.064333,"longitude":1.312917,"brand":"ESTACIO SERVEI OLIANA","price":0.996},{"id":"09-25-3997-2014-BIO","openingHours":"L-D: 24H","addressRegion":"LLEIDA","addressMunicipality":"T\u00e0rrega","addressLocality":"TARREGA","postalCode":"25300","address":"PG IND. LA CANALETA S\/N (BARCELONA-MADRID km 507)","latitude":41.662778,"longitude":1.133472,"brand":"PETROMIRALLES","price":1.099},{"id":"13-28-4354-11445-BIO","openingHours":"L-D: 24H","addressRegion":"MADRID","addressMunicipality":"Madrid","addressLocality":"MADRID","postalCode":"28000","address":"CALLE SANTO DOMINGO, 10","latitude":40.508056,"longitude":-3.679083,"brand":"SHELL","price":1.339},{"id":"13-28-4359-2907-BIO","openingHours":"L-D: 06:00-00:00","addressRegion":"MADRID","addressMunicipality":"Miraflores de la Sierra","addressLocality":"MIRAFLORES DE LA SIERRA","postalCode":"28792","address":"CARRETERA M -611 KM. 7,6 GENERAL SANJURJO KM. 7,6","latitude":40.81,"longitude":-3.7705,"brand":"EDV","price":1.138},{"id":"13-28-4418-12143-BIO","openingHours":"L-D: 24H","addressRegion":"MADRID","addressMunicipality":"Torrej\u00f3n de Ardoz","addressLocality":"TORREJON DE ARDOZ","postalCode":"28850","address":"AVENIDA DE LA CONSTITUCION, 262","latitude":40.465694,"longitude":-3.439,"brand":"SHELL","price":1.104},{"id":"14-30-4585-11835-BIO","openingHours":"L-D: 24H","addressRegion":"MURCIA","addressMunicipality":"Murcia","addressLocality":"CHURRA","postalCode":"30110","address":"PARQUE EMPRESARIAL THADER, 18","latitude":38.031,"longitude":-1.145889,"brand":"THADER","price":1.079},{"id":"14-30-4585-12284-BIO","openingHours":"L-D: 24H","addressRegion":"MURCIA","addressMunicipality":"Murcia","addressLocality":"CHURRA","postalCode":"30110","address":"AVENIDA DON JUAN DE BORBON, S\/","latitude":38.018528,"longitude":-1.1375,"brand":"THADER","price":1.089},{"id":"14-30-4595-10004-BIO","openingHours":"L-S: 08:00-22:00","addressRegion":"MURCIA","addressMunicipality":"Totana","addressLocality":"TOTANA","postalCode":"30850","address":"CARRETERA MAZARRON KM. 2","latitude":37.756972,"longitude":-1.483222,"brand":"COATO","price":1.232},{"id":"12-32-4904-12180-BIO","openingHours":"L-D: 24H","addressRegion":"OURENSE","addressMunicipality":"Gudi\u00f1a (A)","addressLocality":"GUDI\u00d1A (A)","postalCode":"32540","address":"AUTOVIA A52 KM. 132","latitude":42.024889,"longitude":-7.182083,"brand":"STAROIL","price":1.169},{"id":"08-34-5134-9704-BIO","openingHours":"L-D: 24H","addressRegion":"PALENCIA","addressMunicipality":"Palencia","addressLocality":"PALENCIA","postalCode":"34005","address":"CTRA. PALENCIA-ORENSE km 2,00","latitude":42.016167,"longitude":-4.545917,"brand":"SUANCES","price":1.119},{"id":"01-41-6148-11143-BIO","openingHours":"L: 06:00-23:00","addressRegion":"SEVILLA","addressMunicipality":"Sevilla","addressLocality":"SEVILLA","postalCode":"41015","address":"CTRA. DE BRENES, A-8008, KM. 1 VALDEZORRAS","latitude":37.431528,"longitude":-5.933861,"brand":"SANCARISA","price":1.11},{"id":"01-41-6152-7464-BIO","openingHours":"L-D: 24H","addressRegion":"SEVILLA","addressMunicipality":"Utrera","addressLocality":"UTRERA","postalCode":"41710","address":"CARRETERA A-394 KM. 16","latitude":37.200694,"longitude":-5.740472,"brand":"TAMOIL","price":1.019},{"id":"09-43-6346-3374-BIO","openingHours":"L-S: 07:00-21:00; D: 08:00-14:00","addressRegion":"TARRAGONA","addressMunicipality":"Alcanar","addressLocality":"ALCANAR","postalCode":"43530","address":"CARRETERA TV-3321 KM. 0,9","latitude":40.539583,"longitude":0.471889,"brand":"TAMOIL","price":1.069},{"id":"09-43-6359-3373-BIO","openingHours":"L-D: 06:00-22:00","addressRegion":"TARRAGONA","addressMunicipality":"Arbo\u00e7 (L')","addressLocality":"ARBO\u00c7 (L')","postalCode":"43720","address":"CARRETERA TP-2124 KM. 1,6","latitude":41.275472,"longitude":1.592806,"brand":"TAMOIL","price":1.099},{"id":"09-43-6494-8536-BIO","openingHours":"L-D: 24H","addressRegion":"TARRAGONA","addressMunicipality":"Tarragona","addressLocality":"TARRAGONA","postalCode":"43007","address":"AUTOVIA AP-01 KM. 0,450","latitude":41.114,"longitude":1.217083,"brand":"TAMOIL","price":0.999},{"id":"09-43-6494-10755-BIO","openingHours":"L-D: 24H","addressRegion":"TARRAGONA","addressMunicipality":"Tarragona","addressLocality":"TARRAGONA","postalCode":"43006","address":"POL. INDUSTRIAL RIU-CLAR, C\/ SOFRE N\u00ba 3","latitude":41.1385,"longitude":1.221797,"brand":"BIONET","price":1.02},{"id":"10-46-7153-4116-BIO","openingHours":"L-D: 24H","addressRegion":"VALENCIA \/ VAL\u00c8NCIA","addressMunicipality":"Picassent","addressLocality":"PICASSENT","postalCode":"46220","address":"CARRETERA VP-3065 KM. 18,4","latitude":39.368778,"longitude":-0.505639,"brand":"TAMOIL","price":0.999},{"id":"08-47-7455-5510-BIO","openingHours":"L-D: 07:00-22:00","addressRegion":"VALLADOLID","addressMunicipality":"Zarat\u00e1n","addressLocality":"ZARAT\u00c1N","postalCode":"47610","address":"ADVA. GIJON, N-601 km 194,6","latitude":41.661806,"longitude":-4.768083,"brand":"REPOSTAR--ZARATAN","price":1.092},{"id":"16-48-7486-12025-BIO","openingHours":"L-D: 06:00-22:00","addressRegion":"VIZCAYA","addressMunicipality":"Derio","addressLocality":"ALDEKONA (SAN ISIDRO)","postalCode":"48160","address":"POLIGONO ZONA COMERCIAL AEROPUERTO LOIU, 9","latitude":43.306083,"longitude":-2.900389,"brand":"AVIA USOA","price":1.139},{"id":"02-50-8001-11885-BIO","openingHours":"L-D: 24H","addressRegion":"ZARAGOZA","addressMunicipality":"Novallas","addressLocality":"NOVALLAS","postalCode":"50510","address":"POLIGONO EL NAVALLO PARCELA B2, S\/N","latitude":41.948917,"longitude":-1.698444,"brand":"COOP. NTRA.SRA. PILAR","price":1.035},{"id":"02-50-8097-8984-BIO","openingHours":"L-D: 24H","addressRegion":"ZARAGOZA","addressMunicipality":"Villamayor de G\u00e1llego","addressLocality":"VILLAMAYOR DE GALLEGO","postalCode":"50162","address":"CAMINO MOLINO, DEL, 105","latitude":41.692917,"longitude":-0.775972,"brand":"EL PUEYO","price":1.05}]