{"type":"FeatureCollection","features":[{"type":"Feature","geometry":{"type":"Point","coordinates":[42.824389,-2.770694]},"properties":{"name":"GAS NATURAL FENOSA","price":0.851,"openingHours":"L-D: 24H","address":"CALLE A-1 KM 342. POL. IND. SUBILLABIDE (SUVILLAVIDE BIDEA), 2 01230 NANCLARES DE LA OCA"}},{"type":"Feature","geometry":{"type":"Point","coordinates":[38.169806,-0.852389]},"properties":{"name":"GAS NATURAL FENOSA","price":0.913,"openingHours":"L-D: 24H","address":"CALLE ANTONIO MACHADO \/ FIDEL, POL. IND. LA GRANADINA, S\/N 03349 SAN ISIDRO"}},{"type":"Feature","geometry":{"type":"Point","coordinates":[41.514583,1.897944]},"properties":{"name":"HAM","price":0.72,"openingHours":"L-D: 24H","address":"CALLE TREBALL, 1 08630 ABRERA"}},{"type":"Feature","geometry":{"type":"Point","coordinates":[41.331861,2.134861]},"properties":{"name":"GAS NATURAL FENOSA","price":0.913,"openingHours":"L-D: 24H","address":"CALLE B, ZONA FRANCA, 13 08004 BARCELONA"}},{"type":"Feature","geometry":{"type":"Point","coordinates":[41.435556,1.778111]},"properties":{"name":"GALP","price":0.72,"openingHours":"L-D: 24H","address":"CALLE DE FRAN\u00c7A, 5 08770 SANT SADURNI D'ANOIA"}},{"type":"Feature","geometry":{"type":"Point","coordinates":[41.53875,2.164111]},"properties":{"name":"GAS NATURAL FENOSA","price":0.913,"openingHours":"L-D: 24H","address":"CALLE GUIFR\u00c9 EL PIL\u00d3S, 10 08130 SANTA PERPETUA DE MOGODA"}},{"type":"Feature","geometry":{"type":"Point","coordinates":[41.916222,-3.751139]},"properties":{"name":"REPSOL","price":0.914,"openingHours":"L-D: 24H","address":"CR A-1, 187,7 09349 FONTIOSO"}},{"type":"Feature","geometry":{"type":"Point","coordinates":[42.37675,-3.590833]},"properties":{"name":"BEROIL, S.L.","price":0.72,"openingHours":"L-D: 07:00-23:00","address":"N-I km 249 09199 RUBENA"}},{"type":"Feature","geometry":{"type":"Point","coordinates":[39.974083,-0.0755]},"properties":{"name":"MONFORT","price":0.79,"openingHours":"L-D: 24H","address":"CALLE DINAMARCA - ESQUINA C\/SABONER, S\/N 12006 CASTELLON DE LA PLANA"}},{"type":"Feature","geometry":{"type":"Point","coordinates":[43.450389,-8.170167]},"properties":{"name":"HAM VILAR DO COLO","price":0.72,"openingHours":"L-D: 24H","address":"POLIGONO ESTRADA VILAR COLO, S\/N 15500 FENE"}},{"type":"Feature","geometry":{"type":"Point","coordinates":[39.553778,-1.902944]},"properties":{"name":"GAS NATURAL FENOSA","price":0.851,"openingHours":"L-D: 24H","address":"CARRETERA ALBACETE, N-320 KM. 72 16200 MOTILLA DEL PALANCAR"}},{"type":"Feature","geometry":{"type":"Point","coordinates":[40.595139,-3.225778]},"properties":{"name":"GAS NATURAL FENOSA","price":0.913,"openingHours":"L-D: 05:00-23:00","address":"CARRETERA A-2 KM 47,5 (SALIDA 48). CTRA. MADRID, KM47 KM. 47,5 19208 ALOVERA"}},{"type":"Feature","geometry":{"type":"Point","coordinates":[40.972278,-2.615972]},"properties":{"name":"HAM TORREMOCHA","price":0.72,"openingHours":"L-D: 24H","address":"CARRETERA A2 KM. 117,4 19268 TORREMOCHA DEL CAMPO"}},{"type":"Feature","geometry":{"type":"Point","coordinates":[43.038889,-2.216667]},"properties":{"name":"AVIA","price":0.89,"openingHours":"L-D: 24H","address":"CARRETERA NACIONAL N-1 (IRUN-MADRID) KM. 417 20212 OLABERRIA"}},{"type":"Feature","geometry":{"type":"Point","coordinates":[38.193306,-3.671972]},"properties":{"name":"REPSOL","price":0.914,"openingHours":"L-D: 24H","address":"CARRETERA N4 KM. 280,5 23210 GUARROMAN"}},{"type":"Feature","geometry":{"type":"Point","coordinates":[40.562417,-3.710556]},"properties":{"name":"HAM TRES CANTOS","price":0.72,"openingHours":"L-D: 24H","address":"CARRETERA M-607 KM. 17,7 28049 MADRID"}},{"type":"Feature","geometry":{"type":"Point","coordinates":[37.376111,-5.909917]},"properties":{"name":"HAM SEVILLA","price":0.72,"openingHours":"L-D: 24H","address":"CARRETERA A-8028 KM. 3 41500 ALCALA DE GUADAIRA"}},{"type":"Feature","geometry":{"type":"Point","coordinates":[41.1385,1.221806]},"properties":{"name":"HAM BIONET","price":0.72,"openingHours":"L-V: 06:00-22:00; S: 07:00-15:00","address":"CALLE SOFRE, 5 43006 TARRAGONA"}},{"type":"Feature","geometry":{"type":"Point","coordinates":[40.105139,-3.645056]},"properties":{"name":"REPSOL","price":0.914,"openingHours":"L-D: 06:00-22:00","address":"AUTOVIA A-4 KM. 36,5 45223 SESE\u00d1A"}},{"type":"Feature","geometry":{"type":"Point","coordinates":[39.445944,-0.487417]},"properties":{"name":"HAM","price":0.72,"openingHours":"L-D: 24H","address":"CALLE MARIANA PINEDA, 7 46970 ALAQUAS"}},{"type":"Feature","geometry":{"type":"Point","coordinates":[39.475861,-0.54825]},"properties":{"name":"GAS NATURAL FENOSA","price":0.851,"openingHours":"L-D: 24H","address":"CARRETERA DELS PEDRAPIQUERS KM. S\/N 46190 RIBA-ROJA DE TURIA"}},{"type":"Feature","geometry":{"type":"Point","coordinates":[43.349972,-3.07225]},"properties":{"name":"HAM BILBAO","price":0.72,"openingHours":"L-D: 24H","address":"CALLE REFRADIGAS, 1 48001 BILBAO"}}]}