{"type":"FeatureCollection","features":[{"type":"Feature","geometry":{"type":"Point","coordinates":[43.044333,-2.989111]},"properties":{"name":"ESTACIONES GB","price":1.279,"openingHours":"L-D: 24H","address":"POLIGONO ZANKUETA, 0 01468 LARRINBE"}},{"type":"Feature","geometry":{"type":"Point","coordinates":[43.031889,-2.967611]},"properties":{"name":"CEPSA","price":1.328,"openingHours":"L-D: 06:00-22:00","address":"CARRETERA A-624 KM. 37,8 01450 LEZAMA"}},{"type":"Feature","geometry":{"type":"Point","coordinates":[42.753194,-2.477917]},"properties":{"name":"(SIN R\u00d3TULO)","price":1.31,"openingHours":"L-D: 07:00-23:00","address":"CARRETERA A-132 VITORIA-ESTELLA KM. 23 01120 MAEZTU\/MAESTU"}},{"type":"Feature","geometry":{"type":"Point","coordinates":[42.941417,-2.639528]},"properties":{"name":"CEPSA","price":1.328,"openingHours":"L-D: 06:00-22:00","address":"N-240-B km 11,8 01510 LUKO"}},{"type":"Feature","geometry":{"type":"Point","coordinates":[42.876861,-2.616361]},"properties":{"name":"AVIA","price":1.339,"openingHours":"L-D: 24H","address":"AUTOVIA N-1 km 358 01520 ZURBANO"}},{"type":"Feature","geometry":{"type":"Point","coordinates":[43.123361,-3.122528]},"properties":{"name":"AVIA","price":1.325,"openingHours":"L-D: 24H","address":"AVENIDA DE GARAY, 23 (CARRETERA DE VITORIA A BALMASE km 56) 01474 ARTZINIEGA"}},{"type":"Feature","geometry":{"type":"Point","coordinates":[42.878556,-2.518167]},"properties":{"name":"REPSOL","price":1.349,"openingHours":"L-D: 06:00-22:00","address":"CARRETERA N-1 KM. 364,4 01192 ELBURGO\/BURGELU"}},{"type":"Feature","geometry":{"type":"Point","coordinates":[42.635194,-2.849833]},"properties":{"name":"REPSOL","price":1.359,"openingHours":"L-V: 07:00-21:45; S-D: 08:00-21:45","address":"CARRETERA N-124 KM. 35 01212 SALINILLAS DE BURADON"}},{"type":"Feature","geometry":{"type":"Point","coordinates":[43.148639,-2.951361]},"properties":{"name":"PETRONOR","price":1.349,"openingHours":"L-D: 06:00-22:00","address":"CL ARETA, 2 01400 LAUDIO\/LLODIO"}},{"type":"Feature","geometry":{"type":"Point","coordinates":[43.138,-2.968]},"properties":{"name":"EROSKI","price":1.243,"openingHours":"L-S: 07:30-21:30","address":"AVENIDA ZUMALACARREGUI (C.C. EROSKI), S\/N 01400 LAUDIO\/LLODIO"}},{"type":"Feature","geometry":{"type":"Point","coordinates":[42.490611,-2.432278]},"properties":{"name":"E.S. OION","price":1.329,"openingHours":"L-D: 07:00-23:00","address":"CARRETERA LOGRO\u00d1O KM. 10 01320 OYON-OION"}},{"type":"Feature","geometry":{"type":"Point","coordinates":[42.741361,-2.913222]},"properties":{"name":"PETRONOR","price":1.335,"openingHours":"L-D: 24H","address":"AU AP-68, 63,5 01213 IGAY"}},{"type":"Feature","geometry":{"type":"Point","coordinates":[42.743111,-2.913306]},"properties":{"name":"PETRONOR","price":1.335,"openingHours":"L-D: 24H","address":"AU AP-68, 63 D 01213 IGAY"}},{"type":"Feature","geometry":{"type":"Point","coordinates":[42.704639,-2.917639]},"properties":{"name":"EROSKI","price":1.17,"openingHours":"L-S: 10:00-22:00","address":"POLIGONO SUI 1, (C.C. EROSKI), 1 01213 RIBABELLOSA"}},{"type":"Feature","geometry":{"type":"Point","coordinates":[42.692917,-2.920667]},"properties":{"name":"EESS ROMPETROL","price":1.299,"openingHours":"L-D: 24H","address":"AVENIDA ALAVA, 12 01213 RIBABELLOSA"}},{"type":"Feature","geometry":{"type":"Point","coordinates":[42.848944,-2.394583]},"properties":{"name":"GALP","price":1.313,"openingHours":"L-D: 06:00-22:00","address":"CARRETERA ANTIGUA NACIONAL I KM. 375 01200 SALVATIERRA O AGURAIN"}},{"type":"Feature","geometry":{"type":"Point","coordinates":[42.8635,-2.320361]},"properties":{"name":"ANDAMUR \"SAN ROMAN\"","price":1.331,"openingHours":"L-D: 24H","address":"POLIGONO OKITURRI, S\/N 01207 DURRUMA\/SAN ROMAN DE SAN"}},{"type":"Feature","geometry":{"type":"Point","coordinates":[42.849778,-2.648306]},"properties":{"name":"REPSOL","price":1.339,"openingHours":"L-D: 06:00-22:00","address":"CL PORTAL DE ELORRIAGA,17 01002 VITORIA-GASTEIZ"}},{"type":"Feature","geometry":{"type":"Point","coordinates":[42.836778,-2.698917]},"properties":{"name":"GALP","price":1.323,"openingHours":"L-D: 06:00-22:00","address":"CALLE ALTO DE ARMENTIA, 2 01007 VITORIA-GASTEIZ"}},{"type":"Feature","geometry":{"type":"Point","coordinates":[42.842833,-2.682278]},"properties":{"name":"REPSOL","price":1.379,"openingHours":"L-S: 06:00-23:00; D: 07:30-23:00","address":"CL CASTILLA, 30 01008 VITORIA-GASTEIZ"}},{"type":"Feature","geometry":{"type":"Point","coordinates":[42.863778,-2.712722]},"properties":{"name":"AVIA","price":1.339,"openingHours":"L-D: 06:30-22:30","address":"CALLE URARTEA, 23 01010 VITORIA-GASTEIZ"}},{"type":"Feature","geometry":{"type":"Point","coordinates":[42.852417,-2.709972]},"properties":{"name":"CEPSA","price":1.328,"openingHours":"L-D: 24H","address":"CALLE DUSSELDORF, 1 01010 VITORIA-GASTEIZ"}},{"type":"Feature","geometry":{"type":"Point","coordinates":[42.849028,-2.693722]},"properties":{"name":"CEPSA","price":1.334,"openingHours":"L-D: 06:00-22:00","address":"AVENIDA MEDITERRANEO, 7 01010 VITORIA-GASTEIZ"}},{"type":"Feature","geometry":{"type":"Point","coordinates":[42.857194,-2.716389]},"properties":{"name":"ONAINDIA","price":1.325,"openingHours":"L-D: 06:00-22:00","address":"AVENIDA AVDA. DE LOS HUETOS, 56 01010 VITORIA-GASTEIZ"}},{"type":"Feature","geometry":{"type":"Point","coordinates":[42.864944,-2.7105]},"properties":{"name":"AVIA","price":1.338,"openingHours":"L-V: 07:00-21:30","address":"ALIBARRA, 34 01010 VITORIA-GASTEIZ"}},{"type":"Feature","geometry":{"type":"Point","coordinates":[42.836833,-2.658222]},"properties":{"name":"CEPSA","price":1.328,"openingHours":"L-V: 07:00-22:00; S: 07:00-21:00; D: 08:00-21:00","address":"CALLE VENTA DE LA ESTRELLA, 3 01006 VITORIA-GASTEIZ"}},{"type":"Feature","geometry":{"type":"Point","coordinates":[42.838722,-2.6645]},"properties":{"name":"REPSOL","price":1.379,"openingHours":"L-D: 06:00-22:00","address":"CL TRIANAS, 17 01006 VITORIA-GASTEIZ"}},{"type":"Feature","geometry":{"type":"Point","coordinates":[42.859278,-2.661694]},"properties":{"name":"PETRONOR","price":1.339,"openingHours":"L-D: 06:00-22:00","address":"CL PORTAL BETO\u00bfO, 1 01013 VITORIA-GASTEIZ"}},{"type":"Feature","geometry":{"type":"Point","coordinates":[42.864667,-2.660222]},"properties":{"name":"REPSOL","price":1.339,"openingHours":"L-D: 06:00-22:00","address":"AV AVENIDA DEL CANTABRICO,8 -(PG PO 01013 VITORIA-GASTEIZ"}},{"type":"Feature","geometry":{"type":"Point","coordinates":[42.864694,-2.653139]},"properties":{"name":"SHELL","price":1.355,"openingHours":"L-D: 05:00-23:00","address":"CALLE PORTAL DE BERGARA, 2 01013 VITORIA-GASTEIZ"}},{"type":"Feature","geometry":{"type":"Point","coordinates":[42.865278,-2.661139]},"properties":{"name":"SHELL","price":1.365,"openingHours":"L-V: 06:00-22:00; S: 06:00-14:00","address":"PORTAL DE GAMARRA, 7 (BILBAO) 01013 VITORIA-GASTEIZ"}},{"type":"Feature","geometry":{"type":"Point","coordinates":[42.856194,-2.656861]},"properties":{"name":"BP VITORIA","price":1.381,"openingHours":"L-D: 24H","address":"CALLE DEBA, 1 01013 VITORIA-GASTEIZ"}},{"type":"Feature","geometry":{"type":"Point","coordinates":[42.868611,-2.678833]},"properties":{"name":"ONAINDIA","price":1.325,"openingHours":"L-D: 06:00-23:00","address":"CALLE PORTAL DE ARRIAGA, 66 01013 VITORIA-GASTEIZ"}},{"type":"Feature","geometry":{"type":"Point","coordinates":[42.855,-2.672944]},"properties":{"name":"ESASA","price":1.299,"openingHours":"L: 07:00-23:00","address":"CALLE REYES CATOLICOS, 2 01013 VITORIA-GASTEIZ"}},{"type":"Feature","geometry":{"type":"Point","coordinates":[42.857472,-2.721583]},"properties":{"name":"PETRONOR","price":1.359,"openingHours":"L-D: 06:00-23:00","address":"CL AVENIDA HUETOS, 81 01195 VITORIA-GASTEIZ"}},{"type":"Feature","geometry":{"type":"Point","coordinates":[42.852722,-2.632167]},"properties":{"name":"REPSOL","price":1.339,"openingHours":"L-D: 06:00-22:00","address":"CARRETERA N-1 KM. 354 01192 ARCAUTE"}},{"type":"Feature","geometry":{"type":"Point","coordinates":[42.818944,-2.778694]},"properties":{"name":"CEPSA","price":1.349,"openingHours":"L-V: 06:00-23:00; S: 06:00-22:00; D: 06:00-23:00","address":"CARRETERA NACIONAL 1 KM. 341,8 01195 SUBIJANA DE ALAVA"}},{"type":"Feature","geometry":{"type":"Point","coordinates":[42.878694,-2.714472]},"properties":{"name":"REPSOL","price":1.349,"openingHours":"L-D: 24H","address":"CR N-1, 350,5 01196 LOPIDANA"}},{"type":"Feature","geometry":{"type":"Point","coordinates":[42.877139,-2.712472]},"properties":{"name":"REPSOL","price":1.349,"openingHours":"L-D: 24H","address":"CR N-1, 350,5 01196 LOPIDANA"}},{"type":"Feature","geometry":{"type":"Point","coordinates":[42.966472,-2.873583]},"properties":{"name":"REPSOL","price":1.335,"openingHours":"L-D: 06:00-23:00","address":"AU AP-68, 36 01139 ALTUBE"}},{"type":"Feature","geometry":{"type":"Point","coordinates":[42.966111,-2.870083]},"properties":{"name":"PETRONOR","price":1.335,"openingHours":"L-D: 06:00-23:00","address":"AU AP-68, 36 01139 ALTUBE"}},{"type":"Feature","geometry":{"type":"Point","coordinates":[42.961583,-2.827722]},"properties":{"name":"CEPSA","price":1.338,"openingHours":"L-V: 06:00-22:00; S: 07:00-22:00; D: 08:00-22:00","address":"N-622 km 20,3 01130 MURGIA"}},{"type":"Feature","geometry":{"type":"Point","coordinates":[39.100389,-1.346083]},"properties":{"name":"REPSOL","price":1.459,"openingHours":"L-D: 7:00-23:00","address":"CR CM-332, 46,4 02152 ALATOZ"}},{"type":"Feature","geometry":{"type":"Point","coordinates":[39.054694,-1.832]},"properties":{"name":"SHELL","price":1.334,"openingHours":"L-D: 06:00-21:30","address":"CALLE PRINCIPE DE ASTURIAS (POL\u00cdGONO DE ROMICA), 5 02001 ALBACETE"}},{"type":"Feature","geometry":{"type":"Point","coordinates":[38.985667,-1.8685]},"properties":{"name":"CARREFOUR","price":1.359,"openingHours":"L-S: 07:00-22:00","address":"AVENIDA 1\u00ba DE MAYO, S\/N 02001 ALBACETE"}},{"type":"Feature","geometry":{"type":"Point","coordinates":[38.999722,-1.854556]},"properties":{"name":"REPSOL","price":1.329,"openingHours":"L-J: 06:00-23:00; V-D: 06:00-00:00","address":"CL PASEO DE LA CUBA, 15 02005 ALBACETE"}},{"type":"Feature","geometry":{"type":"Point","coordinates":[39.003333,-1.864917]},"properties":{"name":"TAMOS","price":1.339,"openingHours":"L-D: 24H","address":"AVENIDA MEN\u00c9NDEZ PIDAL, 58 02005 ALBACETE"}},{"type":"Feature","geometry":{"type":"Point","coordinates":[38.98925,-1.849028]},"properties":{"name":"CEPSA","price":1.379,"openingHours":"L-D: 24H","address":"CALLE HERMANOS FALC\u00d3, 2 02002 ALBACETE"}},{"type":"Feature","geometry":{"type":"Point","coordinates":[38.925833,-2.031861]},"properties":{"name":"REPSOL","price":1.415,"openingHours":"L-D: 06:30-22:30","address":"CR N-322, 337,8 02006 ALBACETE"}},{"type":"Feature","geometry":{"type":"Point","coordinates":[38.963972,-1.875944]},"properties":{"name":"LA PULGOSA","price":1.377,"openingHours":"L-D: 07:00-22:00","address":"CARRETERA M 3203 KM. 2,6 02006 ALBACETE"}},{"type":"Feature","geometry":{"type":"Point","coordinates":[38.988111,-1.883694]},"properties":{"name":"REPSOL","price":1.389,"openingHours":"L: 06:00-00:00","address":"CALLE CTRA. DE JAEN, 79 02006 ALBACETE"}},{"type":"Feature","geometry":{"type":"Point","coordinates":[38.994667,-1.871722]},"properties":{"name":"REPSOL","price":1.349,"openingHours":"L-D: 24H","address":"CARRETERA JAEN KM. 2 02006 ALBACETE"}},{"type":"Feature","geometry":{"type":"Point","coordinates":[39.033139,-1.845083]},"properties":{"name":"REPSOL","price":1.339,"openingHours":"L-S: 07:00-21:30; D: 09:00-15:00","address":"CARRETERA N-322 KM. 359 02006 ALBACETE"}},{"type":"Feature","geometry":{"type":"Point","coordinates":[39.027778,-1.892972]},"properties":{"name":"REPSOL","price":1.339,"openingHours":"L-D: 24H","address":"CR N-301, 244 02006 ALBACETE"}},{"type":"Feature","geometry":{"type":"Point","coordinates":[39.012583,-1.874972]},"properties":{"name":"REPSOL","price":1.339,"openingHours":"L-V: 06:00-22:00; S: 07:30-15:30; D: 09:00-15:00","address":"PG CAMPOLLANO-P. 2-CT, S.N. 02006 ALBACETE"}},{"type":"Feature","geometry":{"type":"Point","coordinates":[38.988972,-1.847361]},"properties":{"name":"EROSKI","price":1.28,"openingHours":"L-S: 07:00-23:00; D: 08:00-23:00","address":"CALLE ALCALDE CONANGLA (C.C. EROSKI), S\/N 02006 ALBACETE"}},{"type":"Feature","geometry":{"type":"Point","coordinates":[38.970167,-1.919778]},"properties":{"name":"CEPSA","price":1.389,"openingHours":"L-D: 24H","address":"CARRETERA N-322 KM. 349 02004 ALBACETE"}},{"type":"Feature","geometry":{"type":"Point","coordinates":[38.900944,-1.994028]},"properties":{"name":"REPSOL","price":1.329,"openingHours":"L-S: 07:00-22:00; D: 08:00-21:00","address":"AVENIDA PRINCIPE, 2 02328 SANTA ANA"}},{"type":"Feature","geometry":{"type":"Point","coordinates":[38.867556,-1.9205]},"properties":{"name":"LOZANO","price":1.327,"openingHours":"L-D: 07:00-22:30","address":"CM. 3203 km 14,1 02140 SALOBRAL (EL)"}},{"type":"Feature","geometry":{"type":"Point","coordinates":[38.923889,-1.915694]},"properties":{"name":"CEPSA","price":1.402,"openingHours":"L-V: 07:00-22:30; S-D: 08:00-22:30","address":"AVDA. ALBACETE, S\/N (AB-2 km 5) 02049 AGUAS NUEVAS"}},{"type":"Feature","geometry":{"type":"Point","coordinates":[39.015444,-1.871361]},"properties":{"name":"CEPSA","price":1.349,"openingHours":"L-V: 06:00-22:00; S: 07:30-15:30; D: 09:00-15:00","address":"POLIGONO CAMPOLLANO, 55 02007 ALBACETE"}},{"type":"Feature","geometry":{"type":"Point","coordinates":[39.009639,-1.878111]},"properties":{"name":"ALCAMPO","price":1.25,"openingHours":"L-J: 06:00-23:00; V: 08:00-23:00; S: 06:00-23:00; D: 08:00-23:00","address":"SECTOR PARCELA T-3 LOCAL52, 14 02007 ALBACETE"}},{"type":"Feature","geometry":{"type":"Point","coordinates":[38.998111,-1.831611]},"properties":{"name":"INLOCOR S.L. \"CEPSA\"","price":1.389,"openingHours":"L-D: 06:00-01:00","address":"CARRETERA C-M 332 KM. 2,6 02007 ALBACETE"}},{"type":"Feature","geometry":{"type":"Point","coordinates":[39.031528,-1.891361]},"properties":{"name":"REPSOL","price":1.359,"openingHours":"L-D: 06:00-23:00","address":"AUTOVIA A-31 KM. 69 02007 ALBACETE"}},{"type":"Feature","geometry":{"type":"Point","coordinates":[38.971722,-1.845278]},"properties":{"name":"LOS ANGELES DE LA MANCHA, S.L.","price":1.329,"openingHours":"L-D: 06:00-22:00","address":"MADRID-CARTAGENA km 248,5 02007 ALBACETE"}},{"type":"Feature","geometry":{"type":"Point","coordinates":[38.971778,-1.845306]},"properties":{"name":"LOS ANGELES DE LA MANCHA","price":1.329,"openingHours":"L-S: 06:00-22:00","address":"MADRID-CARTAGENA km 248,5 02007 ALBACETE"}},{"type":"Feature","geometry":{"type":"Point","coordinates":[39.018,-1.874333]},"properties":{"name":"ENERCOM CARBURANTES","price":1.319,"openingHours":"L-D: 24H","address":"POLIGONO AVDA. 3\u00aa, ESQUINA C\/AUTOVIA, 69 02007 ALBACETE"}},{"type":"Feature","geometry":{"type":"Point","coordinates":[39.021778,-1.886278]},"properties":{"name":"AB OIL","price":1.339,"openingHours":"L-D: 06:00-22:00","address":"AVENIDA 0, 48 02007 ALBACETE"}},{"type":"Feature","geometry":{"type":"Point","coordinates":[39.059806,-1.93325]},"properties":{"name":"CEPSA","price":1.334,"openingHours":"L-D: 24H","address":"AUTOVIA A-30 KM. 239,4 02080 ALBACETE"}},{"type":"Feature","geometry":{"type":"Point","coordinates":[39.060528,-1.933056]},"properties":{"name":"CEPSA","price":1.354,"openingHours":"L-D: 24H","address":"AUTOVIA A-30 KM. 239,4 02080 ALBACETE"}},{"type":"Feature","geometry":{"type":"Point","coordinates":[38.673111,-2.492222]},"properties":{"name":"CAMPSA","price":1.319,"openingHours":"L-D: 07:00-22:00","address":"CR N-322 276,5 02300 ALCARAZ"}},{"type":"Feature","geometry":{"type":"Point","coordinates":[38.808528,-2.327639]},"properties":{"name":"REPSOL","price":1.319,"openingHours":"L-D: 07:30-22:00","address":"CR N-322, 302,8 02330 JARDIN (EL)"}},{"type":"Feature","geometry":{"type":"Point","coordinates":[38.874583,-1.100528]},"properties":{"name":"REPSOL","price":1.329,"openingHours":"L-D: 06:00-23:00","address":"CL AVDA. DE AYORA, S.N. A 02640 ALMANSA"}},{"type":"Feature","geometry":{"type":"Point","coordinates":[38.878278,-1.143722]},"properties":{"name":"CEPSA","price":1.354,"openingHours":"L-D: 06:00-22:00","address":"AUTOVIA A-31 KM. 143,350 02640 ALMANSA"}},{"type":"Feature","geometry":{"type":"Point","coordinates":[38.879167,-1.098889]},"properties":{"name":"CEPSA","price":1.344,"openingHours":"L-D: 24H","address":"AVENIDA CIRCUNVALACION, 9 02640 ALMANSA"}},{"type":"Feature","geometry":{"type":"Point","coordinates":[38.875028,-1.17575]},"properties":{"name":"SHELL","price":1.359,"openingHours":"L-D: 06:00-22:00","address":"AUTOVIA A-31 KM. 140 02640 ALMANSA"}},{"type":"Feature","geometry":{"type":"Point","coordinates":[39.043139,-2.195139]},"properties":{"name":"E.S. BARRAX S.L.","price":1.395,"openingHours":"L-D: 06:00-23:00","address":"CALLE ALBACETE, 57 02639 BARRAX"}},{"type":"Feature","geometry":{"type":"Point","coordinates":[38.876111,-1.331611]},"properties":{"name":"REPSOL","price":1.335,"openingHours":"L-D: 06:00-22:00","address":"CR N-430, 566,3 02691 BONETE"}},{"type":"Feature","geometry":{"type":"Point","coordinates":[38.875861,-1.3315]},"properties":{"name":"REPSOL","price":1.335,"openingHours":"L-D: 06:00-22:00","address":"AUTOVIA A-31 KM. 126 02691 BONETE"}},{"type":"Feature","geometry":{"type":"Point","coordinates":[38.953361,-2.535056]},"properties":{"name":"CAMPSA","price":1.369,"openingHours":"L-D: 07:00-23:00","address":"CALLE CARRETERA MUNERA, 2 02610 BONILLO (EL)"}},{"type":"Feature","geometry":{"type":"Point","coordinates":[39.283944,-1.477806]},"properties":{"name":"CARMONED","price":1.349,"openingHours":"L-D: 07:00-21:00","address":"CARRETERA ALBACETE KM. 94 02200 CASAS-IBA\u00d1EZ"}},{"type":"Feature","geometry":{"type":"Point","coordinates":[38.756417,-0.955833]},"properties":{"name":"REPSOL","price":1.335,"openingHours":"L-D: 06:00-23:00","address":"CR N-330, 71,4 02660 CAUDETE"}},{"type":"Feature","geometry":{"type":"Point","coordinates":[38.727472,-0.943]},"properties":{"name":"PARGA I","price":1.375,"openingHours":"L-D: 06:00-22:00","address":"CR N-344 DIRC.VALENCIA, KM. 118.3 02660 CAUDETE"}},{"type":"Feature","geometry":{"type":"Point","coordinates":[38.728889,-0.939444]},"properties":{"name":"BP OIL","price":1.385,"openingHours":"L-D: 24H","address":"CARRETERA N-330 KM. 68 02660 CAUDETE"}},{"type":"Feature","geometry":{"type":"Point","coordinates":[38.708944,-0.982111]},"properties":{"name":"GALP","price":1.401,"openingHours":"L-D: 06:00-22:00","address":"AVENIDA VALENCIA DE, 16 02660 CAUDETE"}},{"type":"Feature","geometry":{"type":"Point","coordinates":[38.68275,-0.946306]},"properties":{"name":"ES CAUDETE","price":1.329,"openingHours":"L-V: 06:00-21:00; S-D: 07:00-21:00","address":"CARRETERA VILLENA-CAUDETE KM. 10 02660 CAUDETE"}},{"type":"Feature","geometry":{"type":"Point","coordinates":[38.937583,-1.758]},"properties":{"name":"REPSOL","price":1.335,"openingHours":"L: 06:00-23:00","address":"AUTOVIA A-31 KM. 86 02520 CHINCHILLA DE MONTE-ARAGO"}},{"type":"Feature","geometry":{"type":"Point","coordinates":[38.938611,-1.757611]},"properties":{"name":"REPSOL","price":1.335,"openingHours":"L-D: 06:00-23:00","address":"AUTOVIA A-31 KM. 86 02520 CHINCHILLA DE MONTE-ARAGO"}},{"type":"Feature","geometry":{"type":"Point","coordinates":[38.915972,-1.726278]},"properties":{"name":"PETRONOR","price":1.335,"openingHours":"L: 06:00-22:00","address":"Ctra. AB-430 KM 530,3 02520 CHINCHILLA DE MONTE-ARAGO"}},{"type":"Feature","geometry":{"type":"Point","coordinates":[38.803389,-1.731861]},"properties":{"name":"REPSOL","price":1.353,"openingHours":"L-D: 06:00-22:00","address":"CL AVENIDA GENERALISIMO 107 (N-301 km 276) 02510 POZO BUENO"}},{"type":"Feature","geometry":{"type":"Point","coordinates":[38.898306,-1.502806]},"properties":{"name":"CEPSA","price":1.379,"openingHours":"L-V: 06:00-23:00; S-D: 07:00-23:00","address":"AUTOVIA A31 KM. 111 02695 VILLAR DE CHINCHILLA"}},{"type":"Feature","geometry":{"type":"Point","coordinates":[38.451306,-2.044778]},"properties":{"name":"CAMPSA","price":1.369,"openingHours":"L: 06:00-22:00","address":"CL BOLEA, 36 (CM-412 km 235,65) 02430 ELCHE DE LA SIERRA"}},{"type":"Feature","geometry":{"type":"Point","coordinates":[38.689833,-1.433306]},"properties":{"name":"N\u00ba 7374","price":1.369,"openingHours":"L-S: 07:00-21:00; D: 08:00-20:00","address":"AVDA. DOCTOR PEREZ GIL, 25 02651 FUENTE-ALAMO"}},{"type":"Feature","geometry":{"type":"Point","coordinates":[39.107667,-1.990194]},"properties":{"name":"CAMPSA","price":1.339,"openingHours":"L-D: 07:00-21:00","address":"CR N-301, 231,8 02110 GINETA (LA)"}},{"type":"Feature","geometry":{"type":"Point","coordinates":[39.086278,-1.963944]},"properties":{"name":"REPSOL","price":1.359,"openingHours":"L-J: 00:00-00:00; V-S: 06:00-22:00; D: 00:00-00:00","address":"CR A-31, 235 02110 GINETA (LA)"}},{"type":"Feature","geometry":{"type":"Point","coordinates":[39.238111,-1.635111]},"properties":{"name":"CEPSA","price":1.334,"openingHours":"L: 06:00-22:00","address":"CARRETERA NACIONAL 322 KM. 390 02253 GOLOSALVO"}},{"type":"Feature","geometry":{"type":"Point","coordinates":[38.46425,-1.596722]},"properties":{"name":"GALP","price":1.389,"openingHours":"L-D: 06:00-23:00","address":"AUTOVIA A-30 KM. 322,5 02400 HELLIN"}},{"type":"Feature","geometry":{"type":"Point","coordinates":[38.511222,-1.696972]},"properties":{"name":"DLP","price":1.359,"openingHours":"L: 06:00-23:00","address":"MELCHOR DE MACANAZ, 66 02400 HELLIN"}},{"type":"Feature","geometry":{"type":"Point","coordinates":[38.495972,-1.636389]},"properties":{"name":"HELLIN GAS S.L.","price":1.359,"openingHours":"L-D: 24H","address":"CARRETERA TORREUCHEA KM. 1 02400 HELLIN"}},{"type":"Feature","geometry":{"type":"Point","coordinates":[38.502889,-1.714556]},"properties":{"name":"REPSOL","price":1.359,"openingHours":"L-D: 06:00-23:00","address":"CL CARRETERA JAEN, 47 02400 HELLIN"}},{"type":"Feature","geometry":{"type":"Point","coordinates":[38.524444,-1.703056]},"properties":{"name":"REPSOL","price":1.359,"openingHours":"L-D: 06:00-23:00","address":"CARRETERA N-301 KM. 316 02400 HELLIN"}},{"type":"Feature","geometry":{"type":"Point","coordinates":[38.506806,-1.687833]},"properties":{"name":"PETRONOR","price":1.359,"openingHours":"L: 06:00-23:00","address":"CARRETERA MURCIA KM. 33 02400 HELLIN"}},{"type":"Feature","geometry":{"type":"Point","coordinates":[38.417306,-1.571667]},"properties":{"name":"CEPSA","price":1.334,"openingHours":"L-D: 06:00-22:00","address":"CARRETERA A-30 KM. 328,2 02400 HELLIN"}},{"type":"Feature","geometry":{"type":"Point","coordinates":[38.491861,-1.741111]},"properties":{"name":"REPSOL","price":1.359,"openingHours":"L: 06:00-14:30 y 14:31-23:00","address":"CARRETERA DE HELLIN KM. 104 02420 ISSO"}},{"type":"Feature","geometry":{"type":"Point","coordinates":[38.356556,-2.111056]},"properties":{"name":"E.S. SIERRA DEL SEGURA","price":1.358,"openingHours":"L-D: 07:30-22:00","address":"CARRETERA A 45 KM. 39,8 02434 LETUR"}},{"type":"Feature","geometry":{"type":"Point","coordinates":[39.233056,-1.799472]},"properties":{"name":"REPSOL","price":1.355,"openingHours":"L-D: 06:00-22:00","address":"AVENIDA LEVANTE, 15 02230 MADRIGUERAS"}},{"type":"Feature","geometry":{"type":"Point","coordinates":[39.276056,-2.330333]},"properties":{"name":"REPSOL","price":1.389,"openingHours":"L: 06:00-00:00","address":"CARRERA N-301, 195,2 02620 MINAYA"}},{"type":"Feature","geometry":{"type":"Point","coordinates":[38.151167,-2.293444]},"properties":{"name":"CAMPSA","price":1.369,"openingHours":"L-D: 07:00-21:00","address":"CR AB-702, 45,6 02530 NERPIO"}},{"type":"Feature","geometry":{"type":"Point","coordinates":[38.622944,-1.497667]},"properties":{"name":"CAMPSA","price":1.343,"openingHours":"L-D: 07:00-21:00","address":"CRTA.CM km KM297,5 02652 ONTUR"}},{"type":"Feature","geometry":{"type":"Point","coordinates":[38.967167,-2.7515]},"properties":{"name":"REPSOL","price":1.369,"openingHours":"L-D: 07:00-22:00","address":"CARRETERA N 430 KM. 429 02611 OSSA DE MONTIEL"}},{"type":"Feature","geometry":{"type":"Point","coordinates":[38.804722,-2.098778]},"properties":{"name":"INLOCOR S.L.","price":1.379,"openingHours":"L-D: 07:00-22:00","address":"CARRETERA M 313 KM. 50 02327 POZUELO"}},{"type":"Feature","geometry":{"type":"Point","coordinates":[38.493528,-2.411444]},"properties":{"name":"CEPSA","price":1.344,"openingHours":"L-D: 08:00-22:00","address":"CARRETERA CM-412 KM. 199,5 02450 RIOPAR"}},{"type":"Feature","geometry":{"type":"Point","coordinates":[39.212861,-2.171778]},"properties":{"name":"CEPSA","price":1.334,"openingHours":"L-V: 07:00-14:29 y 14:30-22:30; S-D: 08:00-15:00 y 15:01-22:30","address":"MARTIRES 209 02630 RODA (LA)"}},{"type":"Feature","geometry":{"type":"Point","coordinates":[39.201667,-2.149]},"properties":{"name":"REPSOL","price":1.349,"openingHours":"L-D: 24H","address":"CALLE ALFREDO ATIENZA, 156 02630 RODA (LA)"}},{"type":"Feature","geometry":{"type":"Point","coordinates":[39.212972,-2.166444]},"properties":{"name":"REPSOL","price":1.359,"openingHours":"L-D: 06:00-23:00","address":"AUTOVIA A-31 KM. 40 02630 RODA (LA)"}},{"type":"Feature","geometry":{"type":"Point","coordinates":[39.143972,-2.05125]},"properties":{"name":"GALP","price":1.355,"openingHours":"L-D: 06:00-22:00","address":"CARRETERA A-31 KM. 50 02630 RODA (LA)"}},{"type":"Feature","geometry":{"type":"Point","coordinates":[39.225,-2.186083]},"properties":{"name":"GALP","price":1.355,"openingHours":"L-D: 07:00-23:00","address":"AUTOVIA A-31 KM. 34,50 02630 RODA (LA)"}},{"type":"Feature","geometry":{"type":"Point","coordinates":[39.213722,-2.156667]},"properties":{"name":"CAMPSA","price":1.349,"openingHours":"L-S: 06:00-22:00","address":"CARRETERA CM-3114 KM. 0,1 02630 RODA (LA)"}},{"type":"Feature","geometry":{"type":"Point","coordinates":[38.331361,-1.981861]},"properties":{"name":"NAVARRO Y VALERO, S.L","price":1.369,"openingHours":"L-S: 06:00-22:00; D: 06:30-22:00","address":"AVENIDA DE LA PAZ, 3 02435 SOCOVOS"}},{"type":"Feature","geometry":{"type":"Point","coordinates":[38.594639,-1.685417]},"properties":{"name":"E.S. TOBARRA","price":1.379,"openingHours":"L-D: 07:00-22:00","address":"AVENIDA GUARDIA CIVIL, 114 02500 TOBARRA"}},{"type":"Feature","geometry":{"type":"Point","coordinates":[38.602278,-1.680917]},"properties":{"name":"REPSOL","price":1.389,"openingHours":"L-D: 24H","address":"AVENIDA GUARDIA CIVIL, 233 02500 TOBARRA"}},{"type":"Feature","geometry":{"type":"Point","coordinates":[39.131944,-1.679528]},"properties":{"name":"N\u00ba 15.526","price":1.38,"openingHours":"L-D: 07:00-23:00","address":"C\/. FEDERICO GARCIA LORCA, 47 02150 VALDEGANGA"}},{"type":"Feature","geometry":{"type":"Point","coordinates":[39.366861,-1.592778]},"properties":{"name":"REPSOL","price":1.369,"openingHours":"L-S: 06:00-22:00","address":"CARRETERA CM-3201 KM. 22,70 02270 VILLAMALEA"}},{"type":"Feature","geometry":{"type":"Point","coordinates":[38.581722,-2.626222]},"properties":{"name":"REPSOL","price":1.399,"openingHours":"L-D: 07:00-22:00","address":"CR N-322, 258,8 02350 VILLAPALACIOS"}},{"type":"Feature","geometry":{"type":"Point","coordinates":[39.278222,-2.602028]},"properties":{"name":"REPSOL","price":1.379,"openingHours":"L-D: 06:00-00:00","address":"CALLE DOS DE MAYO, 167 02600 VILLARROBLEDO"}},{"type":"Feature","geometry":{"type":"Point","coordinates":[39.276944,-2.590028]},"properties":{"name":"VEN Y VEN OIL","price":1.339,"openingHours":"L-D: 06:00-00:00","address":"AVENIDA REYES CATOLICOS, S\/N 02600 VILLARROBLEDO"}},{"type":"Feature","geometry":{"type":"Point","coordinates":[39.27225,-2.617083]},"properties":{"name":"ESTACI\u00d3N DE SERVICIO AVENIDA DEL OESTE","price":1.389,"openingHours":"L: 06:00-00:30","address":"CARRETERA DE LAS MESAS KM. 005 02600 VILLARROBLEDO"}},{"type":"Feature","geometry":{"type":"Point","coordinates":[39.277056,-2.591722]},"properties":{"name":"BP OIL ESPA\u00d1A, S.A.","price":1.379,"openingHours":"L-D: 24H","address":"AVENIDA REYES CATOLICOS, 133 02600 VILLARROBLEDO"}},{"type":"Feature","geometry":{"type":"Point","coordinates":[39.258778,-2.586778]},"properties":{"name":"REPSOL","price":1.329,"openingHours":"L-D: 24H","address":"AUTOVIA A-43 KM. 129 02600 VILLARROBLEDO"}},{"type":"Feature","geometry":{"type":"Point","coordinates":[39.285722,-2.579639]},"properties":{"name":"CARREFOUR","price":1.369,"openingHours":"L-S: 08:00-22:00","address":"AVENIDA REYES CAT\u00d3LICOS (APARCAMIENTO DEL CARREFOUR), S\/N 02600 VILLARROBLEDO"}},{"type":"Feature","geometry":{"type":"Point","coordinates":[39.293722,-2.567139]},"properties":{"name":"REPSOL","price":1.295,"openingHours":"L-D: 06:00-14:00 y 15:00-22:00","address":"CARRETERA NACIONAL 310 KM. 137,7 02600 VILLARROBLEDO"}},{"type":"Feature","geometry":{"type":"Point","coordinates":[39.257528,-2.613778]},"properties":{"name":"REPSOL","price":1.295,"openingHours":"L-S: 06:00-22:00; D: 06:00-14:00","address":"CARRETERA OSSA DE MONTIEL KM. 21 02600 VILLARROBLEDO"}},{"type":"Feature","geometry":{"type":"Point","coordinates":[39.205194,-2.708528]},"properties":{"name":"CEPSA","price":1.33,"openingHours":"L-D: 06:00-23:59","address":"AUTOVIA A-43 KM. 390 02600 VILLARROBLEDO"}},{"type":"Feature","geometry":{"type":"Point","coordinates":[39.198,-2.713722]},"properties":{"name":"CEPSA","price":1.338,"openingHours":"L-V: 06:00-22:00; D: 14:00-22:00","address":"CARRETERA N-310 KM. 120,5 02600 VILLARROBLEDO"}},{"type":"Feature","geometry":{"type":"Point","coordinates":[38.408861,-0.599444]},"properties":{"name":"GALP","price":1.407,"openingHours":"L-D: 24H","address":"AUTOPISTA AP 7 KM. 696 03698 AGOST"}},{"type":"Feature","geometry":{"type":"Point","coordinates":[38.406528,-0.599972]},"properties":{"name":"GALP","price":1.407,"openingHours":"L-D: 24H","address":"AUTOPISTA AP 7 KM. 696 03698 AGOST"}},{"type":"Feature","geometry":{"type":"Point","coordinates":[38.429417,-0.66225]},"properties":{"name":"VALCARCE","price":1.334,"openingHours":"L-D: 06:00-22:00","address":"CARRETERA AGOST-NOVELDA KM 2 KM. 2 03698 AGOST"}},{"type":"Feature","geometry":{"type":"Point","coordinates":[38.165222,-0.89475]},"properties":{"name":"REPSOL","price":1.349,"openingHours":"L-D: 24H","address":"CARRETERA N-340 KM. 696,7 03340 ALBATERA"}},{"type":"Feature","geometry":{"type":"Point","coordinates":[38.199417,-0.848722]},"properties":{"name":"REPSOL","price":1.349,"openingHours":"L-D: 24H","address":"N-340 km 696,7 03340 ALBATERA"}},{"type":"Feature","geometry":{"type":"Point","coordinates":[38.175028,-0.854056]},"properties":{"name":"REPSOL","price":1.329,"openingHours":"L-D: 24H","address":"CARRETERA CATRAL-ALBATERA KM. 4,2 03340 ALBATERA"}},{"type":"Feature","geometry":{"type":"Point","coordinates":[38.688639,-0.479611]},"properties":{"name":"SHELL","price":1.344,"openingHours":"L-D: 05:00-23:00","address":"CALLE ALICANTE, 62 03801 ALCOY\/ALCOI"}},{"type":"Feature","geometry":{"type":"Point","coordinates":[38.695083,-0.477972]},"properties":{"name":"GALP","price":1.293,"openingHours":"L-V: 07:00-21:00; S: 07:00-15:00","address":"Alicante, 1 - P.I. Beniata 03800 ALCOY\/ALCOI"}},{"type":"Feature","geometry":{"type":"Point","coordinates":[38.683389,-0.471306]},"properties":{"name":"GALP","price":1.343,"openingHours":"L-D: 24H","address":"N-340 km 131,000 03800 ALCOY\/ALCOI"}},{"type":"Feature","geometry":{"type":"Point","coordinates":[38.70875,-0.472556]},"properties":{"name":"REPSOL","price":1.375,"openingHours":"L-D: 06:00-22:00","address":"AVENIDA TIRANT, S\/N 03800 ALCOY\/ALCOI"}},{"type":"Feature","geometry":{"type":"Point","coordinates":[38.714361,-0.462528]},"properties":{"name":"REPSOL","price":1.375,"openingHours":"L-D: 06:00-00:00","address":"PG COTES BAIXES,CALLE C,PARC.1, 0 03800 ALCOY\/ALCOI"}},{"type":"Feature","geometry":{"type":"Point","coordinates":[38.691889,-0.489611]},"properties":{"name":"PETRONOR","price":1.375,"openingHours":"L-D: 06:00-22:00","address":"CL OLIVER, S.N. 03800 ALCOY\/ALCOI"}},{"type":"Feature","geometry":{"type":"Point","coordinates":[38.581361,-0.105389]},"properties":{"name":"ARBIT","price":1.318,"openingHours":"L-D: 24H","address":"CL AVDA. DEL PAIS VALENCIANO S.N. 03580 ALFAS DEL PI (L')"}},{"type":"Feature","geometry":{"type":"Point","coordinates":[38.567722,-0.082972]},"properties":{"name":"GALP","price":1.343,"openingHours":"L-D: 07:00-23:00","address":"AP-1535 km 2,000 03581 ALFAS DEL PI (L')"}},{"type":"Feature","geometry":{"type":"Point","coordinates":[38.058389,-0.746611]},"properties":{"name":"BP","price":1.395,"openingHours":"L-D: 24H","address":"POLIGONO SECTOR VIII - EL ZOCO, S\/N 03169 ALGORFA"}},{"type":"Feature","geometry":{"type":"Point","coordinates":[38.359278,-0.466972]},"properties":{"name":"CEPSA","price":1.354,"openingHours":"L-D: 24H","address":"AVENIDA DENIA, 80 03013 ALICANTE\/ALACANT"}},{"type":"Feature","geometry":{"type":"Point","coordinates":[38.359667,-0.467361]},"properties":{"name":"CEPSA","price":1.354,"openingHours":"L-D: 24H","address":"AVENIDA DENIA, 75 03013 ALICANTE\/ALACANT"}},{"type":"Feature","geometry":{"type":"Point","coordinates":[38.375333,-0.499444]},"properties":{"name":"REPSOL","price":1.359,"openingHours":"L-D: 06:00-22:00","address":"CALLE FORTUNY, S\/N 03009 ALICANTE\/ALACANT"}},{"type":"Feature","geometry":{"type":"Point","coordinates":[38.370222,-0.4975]},"properties":{"name":"REPSOL","price":1.359,"openingHours":"L-D: 24H","address":"AVENIDA NOVELDA, 179 03009 ALICANTE\/ALACANT"}},{"type":"Feature","geometry":{"type":"Point","coordinates":[38.376194,-0.508861]},"properties":{"name":"REPSOL","price":1.359,"openingHours":"L-D: 24H","address":"AVENIDA DE LA UNIVERSIDAD, SN 03009 ALICANTE\/ALACANT"}},{"type":"Feature","geometry":{"type":"Point","coordinates":[38.374139,-0.506833]},"properties":{"name":"SHELL","price":1.339,"openingHours":"L-D: 24H","address":"AVENIDA UNIVERSIDAD, S\/N 03009 ALICANTE\/ALACANT"}},{"type":"Feature","geometry":{"type":"Point","coordinates":[38.358556,-0.483944]},"properties":{"name":"REPSOL","price":1.389,"openingHours":"L-D: 06:30-22:30","address":"AVENIDA JIJONA, 88 03012 ALICANTE\/ALACANT"}},{"type":"Feature","geometry":{"type":"Point","coordinates":[38.375111,-0.486944]},"properties":{"name":"CEPSA","price":1.354,"openingHours":"L: 06:30-21:30","address":"AVENIDA GASTON CASTELLO, 58 03014 ALICANTE\/ALACANT"}},{"type":"Feature","geometry":{"type":"Point","coordinates":[38.370694,-0.466806]},"properties":{"name":"ALCAMPO","price":1.241,"openingHours":"L-D: 24H","address":"AVENIDA ANTONIO RAMOS CARRATALA, 56 03015 ALICANTE\/ALACANT"}},{"type":"Feature","geometry":{"type":"Point","coordinates":[38.363639,-0.434556]},"properties":{"name":"CEPSA","price":1.354,"openingHours":"L-D: 24H","address":"AVDA. DE LA CONDOMINA, 47 (C-190 km 3,7) 03540 ALICANTE\/ALACANT"}},{"type":"Feature","geometry":{"type":"Point","coordinates":[38.355389,-0.472306]},"properties":{"name":"LA GOTETA","price":1.354,"openingHours":"L-D: 24H","address":"AVENIDA DENIA, 60 03016 ALICANTE\/ALACANT"}},{"type":"Feature","geometry":{"type":"Point","coordinates":[38.375472,-0.453806]},"properties":{"name":"VISTAHERMOSA","price":1.382,"openingHours":"L-D: 07:00-23:00","address":"AVENIDA DENIA, 150 03016 ALICANTE\/ALACANT"}},{"type":"Feature","geometry":{"type":"Point","coordinates":[38.37,-0.446667]},"properties":{"name":"GALP","price":1.359,"openingHours":"L-D: 24H","address":"VIAL CONEXION N-332 Y A-7, S\/N 03016 ALICANTE\/ALACANT"}},{"type":"Feature","geometry":{"type":"Point","coordinates":[38.378083,-0.488194]},"properties":{"name":"CAMPSA","price":1.345,"openingHours":"L-D: 06:00-22:00","address":"CL PINTOR GASTON CASTELLO, 34 03112 ALICANTE\/ALACANT"}},{"type":"Feature","geometry":{"type":"Point","coordinates":[38.401,-0.47775]},"properties":{"name":"REPSOL","price":1.385,"openingHours":"L-D: 06:00-22:00","address":"CARRETERA A-214 KM. 5 03112 ALICANTE\/ALACANT"}},{"type":"Feature","geometry":{"type":"Point","coordinates":[38.370083,-0.486611]},"properties":{"name":"E.S. REJAS VERDES","price":1.376,"openingHours":"L-D: 06:00-22:00","address":"AVENIDA PINTOR GASTON CASTELLO, 1 03011 ALICANTE\/ALACANT"}},{"type":"Feature","geometry":{"type":"Point","coordinates":[38.385639,-0.449972]},"properties":{"name":"FEROYL","price":1.349,"openingHours":"L-D: 24H","address":"AVENIDA DE DENIA, 183 03559 SANTA FAZ"}},{"type":"Feature","geometry":{"type":"Point","coordinates":[38.38625,-0.447417]},"properties":{"name":"REPSOL","price":1.375,"openingHours":"L-D: 06:30-22:30","address":"CARRETERA 112,6 KM. N-332 03559 SANTA FAZ"}},{"type":"Feature","geometry":{"type":"Point","coordinates":[38.344611,-0.522944]},"properties":{"name":"REPSOL","price":1.389,"openingHours":"L-D: 06:30-21:30","address":"CARRETERA MADRID ESQ.RIO JUCAR KM. 19 03006 ALICANTE\/ALACANT"}},{"type":"Feature","geometry":{"type":"Point","coordinates":[38.344944,-0.523167]},"properties":{"name":"PETRONOR","price":1.389,"openingHours":"L-D: 06:30-21:00","address":"CARRETERA N-330 KM. 409 03006 ALICANTE\/ALACANT"}},{"type":"Feature","geometry":{"type":"Point","coordinates":[38.345583,-0.517889]},"properties":{"name":"SHELL","price":1.344,"openingHours":"L-D: 06:00-00:00","address":"AVDA. ORIHUELA, S\/N - ESQUINA VIA PARQUE 03006 ALICANTE\/ALACANT"}},{"type":"Feature","geometry":{"type":"Point","coordinates":[38.344,-0.524194]},"properties":{"name":"CONFORT AUTO","price":1.349,"openingHours":"L-V: 06:00-22:00; S: 08:00-15:00","address":"AVENIDA NEPTUNO, 4 03006 ALICANTE\/ALACANT"}},{"type":"Feature","geometry":{"type":"Point","coordinates":[38.34825,-0.555389]},"properties":{"name":"PETROALACANT","price":1.339,"openingHours":"L-V: 06:00-23:00; S: 06:00-21:00","address":"POLIGONO PLA VALLONGA CALLE 8, PARCELA 15 03006 ALICANTE\/ALACANT"}},{"type":"Feature","geometry":{"type":"Point","coordinates":[38.330583,-0.5135]},"properties":{"name":"GALP","price":1.369,"openingHours":"L-D: 24H","address":"AVENIDA RAM\u00d3N G\u00d3MEZ SEMPERE, 4 03008 ALICANTE\/ALACANT"}},{"type":"Feature","geometry":{"type":"Point","coordinates":[38.335861,-0.512472]},"properties":{"name":"TAMOIL","price":1.338,"openingHours":"L-D: 07:00-22:00","address":"POL. IND. BABEL C\/ ARTES GR?FICAS, 89 03008 ALICANTE\/ALACANT"}},{"type":"Feature","geometry":{"type":"Point","coordinates":[38.337778,-0.500389]},"properties":{"name":"CEPSA","price":1.354,"openingHours":"L-D: 24H","address":"AVENIDA ELCHE (N-332 P.K. 102), 16 03008 ALICANTE\/ALACANT"}},{"type":"Feature","geometry":{"type":"Point","coordinates":[38.338611,-0.516]},"properties":{"name":"CEPSA","price":1.354,"openingHours":"L-D: 06:00-22:00","address":"AVENIDA ALCALDE LORENZO CARBONELL, 71 03007 ALICANTE\/ALACANT"}},{"type":"Feature","geometry":{"type":"Point","coordinates":[38.344917,-0.518333]},"properties":{"name":"PETRO ALACANT","price":1.339,"openingHours":"L-D: 24H","address":"CARRETERA OCA\u00d1A KM. 7 03007 ALICANTE\/ALACANT"}},{"type":"Feature","geometry":{"type":"Point","coordinates":[38.337778,-0.523139]},"properties":{"name":"GALP","price":1.359,"openingHours":"L-D: 06:00-22:30","address":"Rosa de los Vientos (esq. Camino Viejo de Elche) 03007 ALICANTE\/ALACANT"}},{"type":"Feature","geometry":{"type":"Point","coordinates":[38.34525,-0.520556]},"properties":{"name":"GALP","price":1.349,"openingHours":"L-D: 06:00-22:00","address":"N-330-P.K. 409,1 P.I. El Espartal 03007 ALICANTE\/ALACANT"}},{"type":"Feature","geometry":{"type":"Point","coordinates":[38.344139,-0.538472]},"properties":{"name":"CEPSA","price":1.344,"openingHours":"L-D: 24H","address":"POLIGONO ZONA INDUSTRIAL A, POLIGONO B, S\/N 03114 BACAROT (EL)"}},{"type":"Feature","geometry":{"type":"Point","coordinates":[38.342361,-0.607083]},"properties":{"name":"PETRONOR","price":1.379,"openingHours":"L-V: 07:00-21:00; S: 08:00-14:00","address":"CARRETERA N-330 A KM. 401 03113 FONT-CALENT"}},{"type":"Feature","geometry":{"type":"Point","coordinates":[38.4115,-0.565444]},"properties":{"name":"REPSOL","price":1.369,"openingHours":"L-D: 06:00-22:00","address":"CARRETERA CV 820 KM. 1,3 03699 MORALET"}},{"type":"Feature","geometry":{"type":"Point","coordinates":[38.411,-0.565972]},"properties":{"name":"REPSOL","price":1.309,"openingHours":"L-D: 24H","address":"CARRETERA CV 820 KM. 1,4 03699 MORALET"}},{"type":"Feature","geometry":{"type":"Point","coordinates":[38.123556,-0.781806]},"properties":{"name":"CEPSA","price":1.35,"openingHours":"L: 06:00-00:00","address":"CARRETERA C-3321 KM. 38,1 03160 ALMORADI"}},{"type":"Feature","geometry":{"type":"Point","coordinates":[38.115139,-0.78875]},"properties":{"name":"GALP","price":1.339,"openingHours":"L-J: 06:00-22:00; V-S: 00:00-23:59; D: 06:00-22:00","address":"Principe De Espa\u00f1A, 10 03160 ALMORADI"}},{"type":"Feature","geometry":{"type":"Point","coordinates":[38.104778,-0.797083]},"properties":{"name":"REPSOL","price":1.389,"openingHours":"L-D: 06:00-00:00","address":"AVENIDA ORIHUELA, 17 03160 ALMORADI"}},{"type":"Feature","geometry":{"type":"Point","coordinates":[38.099361,-0.796528]},"properties":{"name":"LAS MAROMAS","price":1.339,"openingHours":"L-D: 06:30-22:30","address":"AVENIDA COMUNIDAD EUROPEA, 1 03160 ALMORADI"}},{"type":"Feature","geometry":{"type":"Point","coordinates":[38.103833,-0.781472]},"properties":{"name":"CAMPSA EXPRESS","price":1.339,"openingHours":"L-D: 24H","address":"CARRETERA DE ROJALES KM. 1 03160 ALMORADI"}},{"type":"Feature","geometry":{"type":"Point","coordinates":[38.605917,-0.078472]},"properties":{"name":"REPSOL","price":1.379,"openingHours":"L-D: 07:00-22:30","address":"CARRETERA LA NUCIA KM. 2,8 03590 ALTEA"}},{"type":"Feature","geometry":{"type":"Point","coordinates":[38.586556,-0.064694]},"properties":{"name":"REPSOL","price":1.379,"openingHours":"L-S: 06:00-22:00; D: 09:00-17:00","address":"CARRETERA N-332 KM. 155,5 03590 ALTEA"}},{"type":"Feature","geometry":{"type":"Point","coordinates":[38.604722,-0.048611]},"properties":{"name":"REPSOL","price":1.379,"openingHours":"L-D: 06:30-00:00","address":"CALLE GARGANES, 42 03590 ALTEA"}},{"type":"Feature","geometry":{"type":"Point","coordinates":[38.593222,-0.054917]},"properties":{"name":"GALP","price":1.369,"openingHours":"L-D: 07:00-23:00","address":"Carrer De La Mar, 157 03590 ALTEA"}},{"type":"Feature","geometry":{"type":"Point","coordinates":[38.62675,-0.0385]},"properties":{"name":"CEPSA ELF","price":1.374,"openingHours":"L-D: 06:00-22:00","address":"CARRETERA CV-755 KM. 9,2 03599 ALTEA LA VELLA"}},{"type":"Feature","geometry":{"type":"Point","coordinates":[38.358167,-0.770917]},"properties":{"name":"CONFORT AUTO","price":1.379,"openingHours":"L-V: 06:00-22:00; S: 08:00-15:00","address":"CARRETERA NOVELDA KM. 22 03680 ASPE"}},{"type":"Feature","geometry":{"type":"Point","coordinates":[38.336722,-0.774111]},"properties":{"name":"REPSOL","price":1.399,"openingHours":"L-D: 06:00-22:00","address":"AVENIDA 3 DE AGOSTO, 23 03680 ASPE"}},{"type":"Feature","geometry":{"type":"Point","coordinates":[38.354028,-0.772639]},"properties":{"name":"CEPSA ESPA\u00d1A S.A.","price":1.379,"openingHours":"L-J: 06:00-23:00; V-S: 06:00-23:59; D: 06:00-23:00","address":"AVD.DE NAVARRA 151 03680 ASPE"}},{"type":"Feature","geometry":{"type":"Point","coordinates":[38.325917,-0.767139]},"properties":{"name":"BP","price":1.399,"openingHours":"L-S: 06:00-22:00; D: 07:00-15:00","address":"POLIGONO TRES HERMANAS ALCOHOLERA, 11 03680 ASPE"}},{"type":"Feature","geometry":{"type":"Point","coordinates":[38.720111,-0.671194]},"properties":{"name":"BA\u00d1ERES","price":1.239,"openingHours":"L: 06:00-22:00","address":"CALLE LES MOLINES, 35, 03450 BANYERES DE MARIOLA"}},{"type":"Feature","geometry":{"type":"Point","coordinates":[38.698,-0.771194]},"properties":{"name":"ESTACIONES DE SERVICIO DIEGO S.L.","price":1.25,"openingHours":"L-D: 24H","address":"CARRETERA VILLENA-ALCUDIA KM. 10,608 03460 BENEIXAMA"}},{"type":"Feature","geometry":{"type":"Point","coordinates":[38.076944,-0.843056]},"properties":{"name":"REPSOL","price":1.339,"openingHours":"L-D: 06:00-22:00","address":"CARRETERA JACARILLA KM. S\/N 03390 BENEJUZAR"}},{"type":"Feature","geometry":{"type":"Point","coordinates":[38.544194,-0.11925]},"properties":{"name":"BP BENIDORM","price":1.411,"openingHours":"L-D: 24H","address":"AVENIDA COMUNIDAD VALENCIANA, 18 03501 BENIDORM"}},{"type":"Feature","geometry":{"type":"Point","coordinates":[38.533639,-0.16225]},"properties":{"name":"GALP","price":1.333,"openingHours":"L-D: 24H","address":"AVENIDA VILLAJOYOSA LA, 34 03501 BENIDORM"}},{"type":"Feature","geometry":{"type":"Point","coordinates":[38.557694,-0.1015]},"properties":{"name":"GALP","price":1.343,"openingHours":"L-D: 24H","address":"CARRETERA N-332 KM. 124,5 03501 BENIDORM"}},{"type":"Feature","geometry":{"type":"Point","coordinates":[38.558056,-0.101917]},"properties":{"name":"GALP","price":1.343,"openingHours":"L-D: 06:00-22:00","address":"CARRETERA N-332 KM. 124,5 03501 BENIDORM"}},{"type":"Feature","geometry":{"type":"Point","coordinates":[38.559583,-0.134444]},"properties":{"name":"REPSOL","price":1.359,"openingHours":"L-D: 24H","address":"CARRETERA CV-70 KM. 47 03501 BENIDORM"}},{"type":"Feature","geometry":{"type":"Point","coordinates":[38.543139,-0.102722]},"properties":{"name":"EUROBENIDORM","price":1.411,"openingHours":"L-D: 07:00-23:00","address":"AVENIDA DOCTOR SEVERO OCHOA, S\/N 03503 BENIDORM"}},{"type":"Feature","geometry":{"type":"Point","coordinates":[38.541722,-0.134139]},"properties":{"name":"LA ISLETA","price":1.411,"openingHours":"L-D: 24H","address":"AVENIDA JAIME I, 23 03502 BENIDORM"}},{"type":"Feature","geometry":{"type":"Point","coordinates":[38.726757,0.076579]},"properties":{"name":"MEROIL","price":1.399,"openingHours":"L: 07:00-21:00","address":"RICARDO DE LA CIERVA, 13 (POLIGONO LA PEDRERA) 03720 BENISSA"}},{"type":"Feature","geometry":{"type":"Point","coordinates":[38.718139,0.060194]},"properties":{"name":"BP","price":1.396,"openingHours":"L-D: 06:00-22:00","address":"AVENIDA EUROPA, 8 03720 BENISSA"}},{"type":"Feature","geometry":{"type":"Point","coordinates":[38.738972,0.152139]},"properties":{"name":"(SIN R\u00d3TULO)","price":1.339,"openingHours":"L-D: 07:00-22:00","address":"CARRETERA CV-740 KM. 6,800 03726 BENITACHELL"}},{"type":"Feature","geometry":{"type":"Point","coordinates":[38.630583,-0.786556]},"properties":{"name":"REPSOL","price":1.356,"openingHours":"L-S: 07:15-21:45","address":"CARRETERA ALCOY - VILLENA KM. 38,2 03410 BIAR"}},{"type":"Feature","geometry":{"type":"Point","coordinates":[38.059194,-0.885222]},"properties":{"name":"CEPSA","price":1.349,"openingHours":"L-D: 24H","address":"POLIGONO APATEL, 6 03380 BIGASTRO"}},{"type":"Feature","geometry":{"type":"Point","coordinates":[38.12775,-0.861861]},"properties":{"name":"BP OIL ESPA\u00d1A, S.A.U.","price":1.379,"openingHours":"L: 05:00-23:00","address":"CARRETERA CATRAL KM. 0,300 03360 CALLOSA DE SEGURA"}},{"type":"Feature","geometry":{"type":"Point","coordinates":[38.125694,-0.867333]},"properties":{"name":"REPSOL","price":1.359,"openingHours":"L: 06:00-22:00","address":"CARRETERA CV913 KM. 1 03360 CALLOSA DE SEGURA"}},{"type":"Feature","geometry":{"type":"Point","coordinates":[38.143139,-0.927583]},"properties":{"name":"PETRONOR","price":1.339,"openingHours":"L-D: 06:00-22:00","address":"CARRETERA N-340 KM. 692,9 03360 CALLOSA DE SEGURA"}},{"type":"Feature","geometry":{"type":"Point","coordinates":[38.6495,-0.121194]},"properties":{"name":"REPSOL","price":1.389,"openingHours":"L-D: 07:00-22:00","address":"CALLE SAN ISIDRO, 10 03510 CALLOSA D'EN SARRIA"}},{"type":"Feature","geometry":{"type":"Point","coordinates":[38.652972,0.037806]},"properties":{"name":"CALPE AUTOMOCION II","price":1.371,"openingHours":"L-D: 24H","address":"PARTIDA ESTACION II, 6 03710 CALPE"}},{"type":"Feature","geometry":{"type":"Point","coordinates":[38.653028,0.037306]},"properties":{"name":"CALPE AUTOMOCION","price":1.411,"openingHours":"L-D: 24H","address":"PARTIDA ESTACION II, 6 03710 CALPE"}},{"type":"Feature","geometry":{"type":"Point","coordinates":[38.646306,0.040556]},"properties":{"name":"SARAS ENERGIA","price":1.388,"openingHours":"L-S: 07:00-22:00; D: 08:00-22:00","address":"AV.DIPUTACI\u00d3N S\/N - C.C. CAPRABO 03710 CALPE"}},{"type":"Feature","geometry":{"type":"Point","coordinates":[38.645444,0.050278]},"properties":{"name":"REPSOL","price":1.39,"openingHours":"L-D: 24H","address":"CALLE L ESPORT, 2 03710 CALPE"}},{"type":"Feature","geometry":{"type":"Point","coordinates":[38.450167,-0.373611]},"properties":{"name":"PETRONOR","price":1.355,"openingHours":"L-D: 06:00-22:00","address":"CARRETERA N-332 KM. 122 03560 CAMPELLO (EL)"}},{"type":"Feature","geometry":{"type":"Point","coordinates":[38.450278,-0.374361]},"properties":{"name":"REPSOL","price":1.355,"openingHours":"L-D: 07:00-21:30","address":"CARRETERA N-332 KM. 122,5 03560 CAMPELLO (EL)"}},{"type":"Feature","geometry":{"type":"Point","coordinates":[38.424083,-0.401389]},"properties":{"name":"CAMPELLO-LA GOTETA 2","price":1.349,"openingHours":"L-D: 06:00-23:00","address":"CALLE INFANTA, 31 03560 CAMPELLO (EL)"}},{"type":"Feature","geometry":{"type":"Point","coordinates":[38.430639,-0.399389]},"properties":{"name":"SHELL","price":1.369,"openingHours":"L-D: 24H","address":"C\/ SAN RAMON, 109 03560 CAMPELLO (EL)"}},{"type":"Feature","geometry":{"type":"Point","coordinates":[38.418806,-0.393167]},"properties":{"name":"GALP","price":1.339,"openingHours":"L-D: 06:00-22:00","address":"CALLE SAN BARTOLOME, 33 03560 CAMPELLO (EL)"}},{"type":"Feature","geometry":{"type":"Point","coordinates":[38.57825,-0.654917]},"properties":{"name":"REPSOL","price":1.388,"openingHours":"L-D: 06:00-23:00","address":"CARRETERA CASTALLA ALICANTE, CV 815 KM. 5,7 03420 CASTALLA"}},{"type":"Feature","geometry":{"type":"Point","coordinates":[38.600944,-0.669611]},"properties":{"name":"REPSOL","price":1.395,"openingHours":"L-D: 06:00-22:00","address":"AVENIDA DE IBI, 46 03420 CASTALLA"}},{"type":"Feature","geometry":{"type":"Point","coordinates":[38.148111,-0.828444]},"properties":{"name":"SANTA AGUEDA","price":1.379,"openingHours":"L-D: 24H","address":"CARRETERA CATRAL- CALLOSA DEL SEGURA KM. 5,3 03158 CATRAL"}},{"type":"Feature","geometry":{"type":"Point","coordinates":[38.167583,-0.803306]},"properties":{"name":"BRIOGAS","price":1.339,"openingHours":"L-D: 06:00-22:00","address":"PURISIMA, 80 03158 CATRAL"}},{"type":"Feature","geometry":{"type":"Point","coordinates":[38.717889,-0.45775]},"properties":{"name":"RED ACME","price":1.399,"openingHours":"L-D: 06:00-22:00","address":"AVENIDA ALICANTE, 49 03820 COCENTAINA"}},{"type":"Feature","geometry":{"type":"Point","coordinates":[38.730639,-0.443278]},"properties":{"name":"CARREFOUR","price":1.389,"openingHours":"L-D: 24H","address":"AVENIDA AVDA. L'ALTET N\u00ba 2, 2 03820 COCENTAINA"}},{"type":"Feature","geometry":{"type":"Point","coordinates":[38.715472,-0.463639]},"properties":{"name":"GALP","price":1.343,"openingHours":"L-D: 24H","address":"AVENIDA DE ALICANTE, 87 03820 COCENTAINA"}},{"type":"Feature","geometry":{"type":"Point","coordinates":[38.738722,-0.439694]},"properties":{"name":"REPSOL","price":1.375,"openingHours":"L-D: 06:00-22:00","address":"CL AVENIDA PAIS VALENCIA, 117 03820 COCENTAINA"}},{"type":"Feature","geometry":{"type":"Point","coordinates":[38.147139,-0.889278]},"properties":{"name":"REPSOL","price":1.359,"openingHours":"L-D: 05:00-22:00","address":"AVENIDA DEL CARMEN, 94 03350 COX"}},{"type":"Feature","geometry":{"type":"Point","coordinates":[38.233111,-0.791083]},"properties":{"name":"REPSOL","price":1.329,"openingHours":"L-D: 24H","address":"CR CV-875 ,P.K. 10,5 03330 CREVILLENT"}},{"type":"Feature","geometry":{"type":"Point","coordinates":[38.196472,-0.812333]},"properties":{"name":"REPSOL","price":1.369,"openingHours":"L-D: 07:00-21:00","address":"AUTOVIA A-37 KM. 728,2 03330 CREVILLENT"}},{"type":"Feature","geometry":{"type":"Point","coordinates":[38.193028,-0.812639]},"properties":{"name":"REPSOL","price":1.369,"openingHours":"L-D: 06:00-22:00","address":"AUTOVIA A-37 KM. 728 03330 CREVILLENT"}},{"type":"Feature","geometry":{"type":"Point","coordinates":[38.227222,-0.822528]},"properties":{"name":"REPSOL","price":1.359,"openingHours":"L-D: 07:00-22:00","address":"CARRETERA NACIONAL 340 KM. 707,1 03330 CREVILLENT"}},{"type":"Feature","geometry":{"type":"Point","coordinates":[38.248694,-0.797861]},"properties":{"name":"MOSCARD\u00d3","price":1.349,"openingHours":"L-D: 24H","address":"P. DE ELCHE, N\u00ba 29-31 03330 CREVILLENT"}},{"type":"Feature","geometry":{"type":"Point","coordinates":[38.249167,-0.798056]},"properties":{"name":"MOSCARD\u00d3","price":1.349,"openingHours":"L-V: 06:00-22:00; S: 06:00-14:00","address":"P. DE ELCHE, N\u00ba 29-31 03330 CREVILLENT"}},{"type":"Feature","geometry":{"type":"Point","coordinates":[38.250861,-0.782583]},"properties":{"name":"E.S.BOCH","price":1.329,"openingHours":"L-V: 06:30-23:00; S-D: 07:00-22:00","address":"POLIGONO I7, SN 03330 CREVILLENT"}},{"type":"Feature","geometry":{"type":"Point","coordinates":[38.244333,-0.797861]},"properties":{"name":"CEPSA","price":1.339,"openingHours":"L-D: 06:00-23:00","address":"POLIGONO I PARCELA 10, S\/N 03330 CREVILLENT"}},{"type":"Feature","geometry":{"type":"Point","coordinates":[38.848333,0.099722]},"properties":{"name":"MOSCARD\u00d3","price":1.369,"openingHours":"L-D: 06:00-10:00","address":"CTRA. LAS MARINAS km 0,85 03700 DENIA"}},{"type":"Feature","geometry":{"type":"Point","coordinates":[38.832667,0.102111]},"properties":{"name":"BP","price":1.375,"openingHours":"L-D: 24H","address":"AVENIDA MONTGO, 34 03700 DENIA"}},{"type":"Feature","geometry":{"type":"Point","coordinates":[38.839,0.094417]},"properties":{"name":"GALP","price":1.379,"openingHours":"L-D: 24H","address":"CARRETERA DENIA A ONDARA C-3311 KM. 0,5 03700 DENIA"}},{"type":"Feature","geometry":{"type":"Point","coordinates":[38.836917,0.095056]},"properties":{"name":"SARAS ENERGIA","price":1.355,"openingHours":"L-S: 07:00-22:00; D: 08:00-22:00","address":"CRTA. DENIA - ONDARA, KM 1 - C.C. CAPRABO 03700 DENIA"}},{"type":"Feature","geometry":{"type":"Point","coordinates":[38.839583,0.098194]},"properties":{"name":"REPSOL","price":1.359,"openingHours":"L-D: 24H","address":"CALLE AVENIDA VALENCIA, 44 03700 DENIA"}},{"type":"Feature","geometry":{"type":"Point","coordinates":[38.140889,-0.748556]},"properties":{"name":"CEPSA","price":1.354,"openingHours":"L-V: 07:00-21:00; S: 08:00-14:00","address":"CARRETERA AP-3061 KM. 15,5 03150 DOLORES"}},{"type":"Feature","geometry":{"type":"Point","coordinates":[38.139722,-0.774889]},"properties":{"name":"REPSOL","price":1.399,"openingHours":"L-D: 06:00-22:00","address":"CALLE MAESTRO SERRANO, 1 03150 DOLORES"}},{"type":"Feature","geometry":{"type":"Point","coordinates":[38.131278,-0.775194]},"properties":{"name":"MAYAYO","price":1.329,"openingHours":"L-D: 06:00-22:00","address":"CARRETERA CV905 KM. 0,800 03150 DOLORES"}},{"type":"Feature","geometry":{"type":"Point","coordinates":[38.2725,-0.690833]},"properties":{"name":"CEPSA","price":1.429,"openingHours":"L-D: 24H","address":"AVENIDA ALCALDE VICENTE QUILES, 4 03202 ELCHE\/ELX"}},{"type":"Feature","geometry":{"type":"Point","coordinates":[38.269472,-0.682194]},"properties":{"name":"REPSOL","price":1.375,"openingHours":"L-D: 06:30-22:30","address":"CL AVENIDA DE ALICANTE, 72 03202 ELCHE\/ELX"}},{"type":"Feature","geometry":{"type":"Point","coordinates":[38.269944,-0.67075]},"properties":{"name":"BETA","price":1.379,"openingHours":"L-D: 06:00-23:00","address":"CALLE MALLORCA, 12 03203 ELCHE\/ELX"}},{"type":"Feature","geometry":{"type":"Point","coordinates":[38.296528,-0.614861]},"properties":{"name":"CONFORT AUTO","price":1.349,"openingHours":"L-V: 06:30-22:00; S: 07:30-14:30","address":"CALLE SANTIAGO RAMON Y CAJAL, 35 03203 ELCHE\/ELX"}},{"type":"Feature","geometry":{"type":"Point","coordinates":[38.298056,-0.614472]},"properties":{"name":"SHELL","price":1.369,"openingHours":"L-V: 06:30-22:30; S: 06:30-20:30; D: 08:00-16:00","address":"CALLE MIGUEL SERVET, 4 03203 ELCHE\/ELX"}},{"type":"Feature","geometry":{"type":"Point","coordinates":[38.278972,-0.719639]},"properties":{"name":"GALP","price":1.399,"openingHours":"L-D: 24H","address":"CALLE ALMANSA, 62 03291 ELCHE\/ELX"}},{"type":"Feature","geometry":{"type":"Point","coordinates":[38.29325,-0.675417]},"properties":{"name":"ABIERTO (SERVICIO ATENDIDO)","price":1.399,"openingHours":"L-D: 06:30-22:30","address":"PARTIDA ALTABIX POLIGONO 3 (CAMINO DE CASTILLA), 37 03291 ELCHE\/ELX"}},{"type":"Feature","geometry":{"type":"Point","coordinates":[38.283139,-0.684083]},"properties":{"name":"LA GALIA (HNOS AZORIN)","price":1.385,"openingHours":"L-D: 24H","address":"PARTIDA ALTABIX.POL. 1 NO 203 (AV DEL BIMILENARIO S\/N) 03291 ELCHE\/ELX"}},{"type":"Feature","geometry":{"type":"Point","coordinates":[38.264139,-0.72375]},"properties":{"name":"BP","price":1.385,"openingHours":"L-D: 07:00-23:00","address":"CALLE ECUADOR, 12 03205 ELCHE\/ELX"}},{"type":"Feature","geometry":{"type":"Point","coordinates":[38.258583,-0.73025]},"properties":{"name":"CARREFOUR","price":1.389,"openingHours":"L-D: 24H","address":"CARRETERA ALICANTE - MURCIA KM. 53 03205 ELCHE\/ELX"}},{"type":"Feature","geometry":{"type":"Point","coordinates":[38.260389,-0.71825]},"properties":{"name":"GALP","price":1.409,"openingHours":"L-D: 06:30-23:30","address":"Avda. de la Libertad - Salida N-340 (Crevillente) 03205 ELCHE\/ELX"}},{"type":"Feature","geometry":{"type":"Point","coordinates":[38.258694,-0.734333]},"properties":{"name":"CEPSA","price":1.294,"openingHours":"L-D: 24H","address":"CARRETERA N-340A KM. 716,3 03205 ELCHE\/ELX"}},{"type":"Feature","geometry":{"type":"Point","coordinates":[38.263222,-0.721917]},"properties":{"name":"EROSKI","price":1.26,"openingHours":"L-D: 24H","address":"CALLE JACARRILLA, ( C.C. L' ALJUB - EROSKI), S\/N 03205 ELCHE\/ELX"}},{"type":"Feature","geometry":{"type":"Point","coordinates":[38.251028,-0.698306]},"properties":{"name":"REPSOL","price":1.369,"openingHours":"L-D: 06:00-22:00","address":"CARRETERA CV-8500 KM. 3,6 03290 ELCHE\/ELX"}},{"type":"Feature","geometry":{"type":"Point","coordinates":[38.257917,-0.678278]},"properties":{"name":"REPSOL","price":1.369,"openingHours":"L-D: 06:00-22:00","address":"CAMINO CAMINO VIEJO ELCHE\/SANTA-POLA KM 0,200, 72 03290 ELCHE\/ELX"}},{"type":"Feature","geometry":{"type":"Point","coordinates":[38.282778,-0.721944]},"properties":{"name":"GALP","price":1.409,"openingHours":"L-D: 06:00-00:00","address":"AVENIDA NOVELDA, 188 03206 ELCHE\/ELX"}},{"type":"Feature","geometry":{"type":"Point","coordinates":[38.277806,-0.718417]},"properties":{"name":"GASOLINERA D'ELX","price":1.26,"openingHours":"L-V: 07:00-22:00; S: 08:00-19:00; D: 08:00-14:00","address":"CALLE PETRER, 7 03206 ELCHE\/ELX"}},{"type":"Feature","geometry":{"type":"Point","coordinates":[38.278306,-0.716694]},"properties":{"name":"REPSOL","price":1.369,"openingHours":"L-D: 06:00-22:00","address":"AV DE NOVELDA, 128 03206 ELCHE\/ELX"}},{"type":"Feature","geometry":{"type":"Point","coordinates":[38.261861,-0.708806]},"properties":{"name":"GALP","price":1.409,"openingHours":"L: 06:30-23:30","address":"AVENIDA ANTONIO MACHADO, 51 03204 ELCHE\/ELX"}},{"type":"Feature","geometry":{"type":"Point","coordinates":[38.2525,-0.703056]},"properties":{"name":"SHELL","price":1.364,"openingHours":"L-D: 06:00-00:00","address":"C\/ SOR JOSEFA ALCORTA 71 (ESQ.CTRA.CIRCUNVALACI\u00d3N 03204 ELCHE\/ELX"}},{"type":"Feature","geometry":{"type":"Point","coordinates":[38.307972,-0.60625]},"properties":{"name":"GALP","price":1.353,"openingHours":"L-D: 24H","address":"Autov\u00eda del Mediterr\u00e1neo (A-7) a Valencia 03320 TORRELLANO"}},{"type":"Feature","geometry":{"type":"Point","coordinates":[38.309528,-0.605694]},"properties":{"name":"GALP","price":1.353,"openingHours":"L-D: 24H","address":"Autov\u00eda del Mediterr\u00e1neo (A-7) a Murcia 03320 TORRELLANO"}},{"type":"Feature","geometry":{"type":"Point","coordinates":[38.29175,-0.592472]},"properties":{"name":"PETRONOR","price":1.379,"openingHours":"L-D: 24H","address":"AVENIDA ILLICE, 22 03320 TORRELLANO"}},{"type":"Feature","geometry":{"type":"Point","coordinates":[38.286861,-0.614667]},"properties":{"name":"REPSOL","price":1.379,"openingHours":"L-D: 06:00-22:00","address":"CARRETERA N-340, KM727 KM. 727 03320 TORRELLANO"}},{"type":"Feature","geometry":{"type":"Point","coordinates":[38.276,-0.538778]},"properties":{"name":"REPSOL","price":1.399,"openingHours":"L-D: 24H","address":"AVENIDA CARTAGENA DE, 59 03195 ALTET (EL)"}},{"type":"Feature","geometry":{"type":"Point","coordinates":[38.278861,-0.562944]},"properties":{"name":"FTH","price":1.379,"openingHours":"L-D: 06:00-23:00","address":"CARRETERA ELCHE-ALTET KM. 10,1 03195 ALTET (EL)"}},{"type":"Feature","geometry":{"type":"Point","coordinates":[38.244861,-0.644583]},"properties":{"name":"REPSOL","price":1.399,"openingHours":"L-D: 06:00-22:00","address":"CARRETERA CV-865 KM. 3,6 03295 PERLETA (LA)"}},{"type":"Feature","geometry":{"type":"Point","coordinates":[38.143611,-0.664417]},"properties":{"name":"MARINA DE LA PLANA","price":1.399,"openingHours":"L-D: 07:00-23:00","address":"PARTIDA LA MARINA, 307 03194 ELCHE\/ELX"}},{"type":"Feature","geometry":{"type":"Point","coordinates":[38.273778,-0.665417]},"properties":{"name":"SAN ANTON","price":1.385,"openingHours":"L-D: 06:00-23:00","address":"CALLE ALGORFA, 2 03207 ELCHE\/ELX"}},{"type":"Feature","geometry":{"type":"Point","coordinates":[38.289528,-0.550889]},"properties":{"name":"GALP","price":1.399,"openingHours":"L-D: 06:00-22:00","address":"CARRETERA N-338 KM. 1,55 03195 ELCHE\/ELX"}},{"type":"Feature","geometry":{"type":"Point","coordinates":[38.196,-0.678611]},"properties":{"name":"PETRONOR","price":1.359,"openingHours":"L-D: 06:00-23:00","address":"CARRETERA CARRETERA ELCHE LA MARINA KM. 6,7 03294 HOYA (LA)"}},{"type":"Feature","geometry":{"type":"Point","coordinates":[38.256778,-0.74775]},"properties":{"name":"REPSOL","price":1.369,"openingHours":"L-D: 06:00-22:00","address":"CARRETERA N-340 KM. 714,1 03293 ELCHE\/ELX"}},{"type":"Feature","geometry":{"type":"Point","coordinates":[38.491972,-0.795194]},"properties":{"name":"CEPSA","price":1.344,"openingHours":"L-D: 06:00-23:00","address":"CALLE ROMERO,2 - AVDA. LIBERTAD, S\/N 03600 ELDA"}},{"type":"Feature","geometry":{"type":"Point","coordinates":[38.484944,-0.810639]},"properties":{"name":"BP","price":1.399,"openingHours":"L-D: 06:00-22:00","address":"CALLE CONDES DE ELDA, SN 03600 ELDA"}},{"type":"Feature","geometry":{"type":"Point","coordinates":[38.460056,-0.782528]},"properties":{"name":"CEPSA","price":1.284,"openingHours":"L-D: 24H","address":"AVENIDA MEDITERRANEO, S\/N 03600 ELDA"}},{"type":"Feature","geometry":{"type":"Point","coordinates":[38.467333,-0.78775]},"properties":{"name":"SHELL","price":1.294,"openingHours":"L-D: 24H","address":"AVENIDA MEDITERRANEO, 16 03600 ELDA"}},{"type":"Feature","geometry":{"type":"Point","coordinates":[38.473944,-0.80475]},"properties":{"name":"REPSOL","price":1.379,"openingHours":"L-D: 06:00-22:00","address":"CARRETERA C-3213 KM. 15,700 03600 ELDA"}},{"type":"Feature","geometry":{"type":"Point","coordinates":[38.470083,-0.80625]},"properties":{"name":"REPSOL","price":1.379,"openingHours":"L-D: 06:30-22:30","address":"AVENIDA CENTRO EXCURSIONISTA, S\/N 03600 ELDA"}},{"type":"Feature","geometry":{"type":"Point","coordinates":[38.538722,-0.172889]},"properties":{"name":"REPSOL","price":1.379,"openingHours":"L-D: 06:00-22:00","address":"AVENIDA FEDERICO GARCIA LORCA, 21 03509 FINESTRAT"}},{"type":"Feature","geometry":{"type":"Point","coordinates":[38.533722,-0.17275]},"properties":{"name":"REPSOL","price":1.359,"openingHours":"L-D: 24H","address":"AVENIDA PICASSO, 3 03509 FINESTRAT"}},{"type":"Feature","geometry":{"type":"Point","coordinates":[38.537389,-0.175167]},"properties":{"name":"CARREFOUR","price":1.359,"openingHours":"L-D: 24H","address":"CARRETERA NUEVA FINESTRATA LA CALA KM. 5 03509 FINESTRAT"}},{"type":"Feature","geometry":{"type":"Point","coordinates":[38.536444,-0.180222]},"properties":{"name":"ZARCAR","price":1.309,"openingHours":"L-D: 07:00-23:00","address":"AVENIDA PAIS VALENCIA, 20 03509 FINESTRAT"}},{"type":"Feature","geometry":{"type":"Point","coordinates":[38.534806,-0.16975]},"properties":{"name":"CEPSA","price":1.324,"openingHours":"L-D: 06:00-22:00","address":"AVENIDA AUXIAS MARCH, SN 03509 FINESTRAT"}},{"type":"Feature","geometry":{"type":"Point","coordinates":[38.087889,-0.730694]},"properties":{"name":"BP LOS PALACIOS","price":1.395,"openingHours":"L-D: 24H","address":"CALLE ACEQUIA DEL RIO, 37 03179 FORMENTERA DEL SEGURA"}},{"type":"Feature","geometry":{"type":"Point","coordinates":[38.099472,-0.663861]},"properties":{"name":"ALETAC","price":1.379,"openingHours":"L-D: 06:30-22:30","address":"CARRETERA N-332 KM. 32,7 03140 GUARDAMAR DEL SEGURA"}},{"type":"Feature","geometry":{"type":"Point","coordinates":[38.094028,-0.66075]},"properties":{"name":"G\u00d3MEZ Y SIRVENT","price":1.409,"openingHours":"L-D: 06:00-23:00","address":"PARTIDA LA REDONDA, S\/N 03140 GUARDAMAR DEL SEGURA"}},{"type":"Feature","geometry":{"type":"Point","coordinates":[38.045,-0.659222]},"properties":{"name":"CEPSA","price":1.354,"openingHours":"L-D: 24H","address":"CARRETERA NACIONAL 332 KM. 65,968 03140 GUARDAMAR DEL SEGURA"}},{"type":"Feature","geometry":{"type":"Point","coordinates":[38.095639,-0.659111]},"properties":{"name":"REPSOL","price":1.395,"openingHours":"L-D: 06:00-23:00","address":"CL MADRID, 20-24 03140 GUARDAMAR DEL SEGURA"}},{"type":"Feature","geometry":{"type":"Point","coordinates":[38.6165,-0.585583]},"properties":{"name":"IBI","price":1.386,"openingHours":"L-D: 05:30-00:00","address":"AV DE LA PROVIDENCIA S\/N 03440 IBI"}},{"type":"Feature","geometry":{"type":"Point","coordinates":[38.615278,-0.606444]},"properties":{"name":"MAJOS GASOLEOS","price":1.36,"openingHours":"L-D: 24H","address":"CARRETERA CV-806 KM. 5,5 03440 IBI"}},{"type":"Feature","geometry":{"type":"Point","coordinates":[38.626556,-0.567917]},"properties":{"name":"REPSOL","price":1.399,"openingHours":"L: 05:00-23:00","address":"AVENIDA JUAN CARLOS I, 2 03440 IBI"}},{"type":"Feature","geometry":{"type":"Point","coordinates":[38.607972,-0.593472]},"properties":{"name":"CEPSA","price":1.361,"openingHours":"L-D: 06:00-22:00","address":"CALLE LEON (POLIGONO INDUSTRIAL L ALFA\u00c7 III, 3 03440 IBI"}},{"type":"Feature","geometry":{"type":"Point","coordinates":[38.616889,-0.585333]},"properties":{"name":"E.S. CA\u00d1IZARES","price":1.36,"openingHours":"L-D: 06:00-22:00","address":"AVENIDA LA PROVINCIA, N 03440 IBI"}},{"type":"Feature","geometry":{"type":"Point","coordinates":[38.041222,-0.855611]},"properties":{"name":"BP. JACARILLA","price":1.299,"openingHours":"L-D: 06:00-22:00","address":"CARRETERA CV-95 KM. 10 03310 JACARILLA"}},{"type":"Feature","geometry":{"type":"Point","coordinates":[38.784944,0.178667]},"properties":{"name":"CEPSA","price":1.314,"openingHours":"L-D: 07:00-23:00","address":"AVENIDA DEL PLA, 77 03730 J\u00c1VEA\/X\u00c0BIA"}},{"type":"Feature","geometry":{"type":"Point","coordinates":[38.74075,0.150944]},"properties":{"name":"BP","price":1.399,"openingHours":"L-D: 07:00-21:30","address":"CARRETERA JAVEA BENITACHELL KM. 7,093 03730 J\u00c1VEA\/X\u00c0BIA"}},{"type":"Feature","geometry":{"type":"Point","coordinates":[38.785444,0.159972]},"properties":{"name":"REPSOL","price":1.379,"openingHours":"L-D: 06:00-22:00","address":"AVENIDA VALENCIA, SN 03730 J\u00c1VEA\/X\u00c0BIA"}},{"type":"Feature","geometry":{"type":"Point","coordinates":[38.776083,0.119861]},"properties":{"name":"PETRONOR","price":1.379,"openingHours":"L-D: 06:00-22:00","address":"CARRETERA CV-734 KM. 4,6 03730 J\u00c1VEA\/X\u00c0BIA"}},{"type":"Feature","geometry":{"type":"Point","coordinates":[38.79425,0.177222]},"properties":{"name":"REPSOL","price":1.379,"openingHours":"L-D: 07:00-22:00","address":"AVENIDA DEL PUERTO, 36 03730 J\u00c1VEA\/X\u00c0BIA"}},{"type":"Feature","geometry":{"type":"Point","coordinates":[38.770556,0.186361]},"properties":{"name":"REPSOL","price":1.379,"openingHours":"L-D: 06:00-22:00","address":"CARRETERA CV-739 KM. 2,9 03730 J\u00c1VEA\/X\u00c0BIA"}},{"type":"Feature","geometry":{"type":"Point","coordinates":[38.781861,0.179444]},"properties":{"name":"REPSOL","price":1.379,"openingHours":"L-D: 24H","address":"CARRETERA CV-739 KM. 1,5 03730 J\u00c1VEA\/X\u00c0BIA"}},{"type":"Feature","geometry":{"type":"Point","coordinates":[38.534028,-0.505083]},"properties":{"name":"CEPSA","price":1.344,"openingHours":"L-D: 06:00-22:00","address":"CALLE FRANCESC NIOLAU MIRA MIRALLES, S\/N 03100 XIXONA"}},{"type":"Feature","geometry":{"type":"Point","coordinates":[38.369306,-0.704611]},"properties":{"name":"CEPSA","price":1.344,"openingHours":"L-D: 24H","address":"AUTOVIA A-31 KM. 220 03670 MONFORTE DEL CID"}},{"type":"Feature","geometry":{"type":"Point","coordinates":[38.369833,-0.704556]},"properties":{"name":"CEPSA","price":1.344,"openingHours":"L-D: 24H","address":"AUTOVIA A-31 KM. 220 03670 MONFORTE DEL CID"}},{"type":"Feature","geometry":{"type":"Point","coordinates":[38.428444,-0.838083]},"properties":{"name":"E.S. TEXAS","price":1.37,"openingHours":"L-D: 07:00-22:00","address":"CARRETERA NOVELDA-MONOVAR KM. 9,6 03640 MONOVAR"}},{"type":"Feature","geometry":{"type":"Point","coordinates":[38.434222,-0.839861]},"properties":{"name":"PETRONOR","price":1.389,"openingHours":"L-D: 24H","address":"AVENIDA COMUNIDAD VALENCIANA, SN 03640 MONOVAR"}},{"type":"Feature","geometry":{"type":"Point","coordinates":[38.424667,-0.940028]},"properties":{"name":"REPSOL","price":1.389,"openingHours":"L-D: 06:30-22:00","address":"CARRETERA CR 3213 KM. 12 03640 MONOVAR"}},{"type":"Feature","geometry":{"type":"Point","coordinates":[38.029472,-0.730944]},"properties":{"name":"REPSOL","price":1.409,"openingHours":"L-D: 24H","address":"CR CV-945 LO BLANC, 1,3 (A-340 km 1,36) 03187 MONTESINOS (LOS)"}},{"type":"Feature","geometry":{"type":"Point","coordinates":[38.781417,-0.447889]},"properties":{"name":"CEPSA","price":1.344,"openingHours":"L-D: 06:00-22:00","address":"CARRETERA N-340 KM. 808,6 03830 MURO DEL ALCOY"}},{"type":"Feature","geometry":{"type":"Point","coordinates":[38.781889,-0.448444]},"properties":{"name":"CEPSA","price":1.344,"openingHours":"L-D: 06:00-22:00","address":"CARRETERA N-340 KM. 808,6 03830 MURO DEL ALCOY"}},{"type":"Feature","geometry":{"type":"Point","coordinates":[38.426222,-0.449833]},"properties":{"name":"CEPSA","price":1.354,"openingHours":"L-D: 05:00-23:00","address":"AVENIDA ALCOY, S\/N 03110 MUTXAMEL"}},{"type":"Feature","geometry":{"type":"Point","coordinates":[38.426528,-0.450361]},"properties":{"name":"CEPSA","price":1.354,"openingHours":"L-D: 06:00-22:00","address":"AVENIDA ALCOY, S\/N 03110 MUTXAMEL"}},{"type":"Feature","geometry":{"type":"Point","coordinates":[38.4245,-0.431389]},"properties":{"name":"BP","price":1.4,"openingHours":"L-D: 24H","address":"PARTIDA SAN PERET, 26 03110 MUTXAMEL"}},{"type":"Feature","geometry":{"type":"Point","coordinates":[38.407,-0.463917]},"properties":{"name":"BP OIL ESPA\u00d1A","price":1.401,"openingHours":"L-D: 07:00-23:00","address":"CALLE OSSA MAJOR, 1 03110 MUTXAMEL"}},{"type":"Feature","geometry":{"type":"Point","coordinates":[38.381194,-0.770667]},"properties":{"name":"REPSOL","price":1.389,"openingHours":"L: 06:00-22:00","address":"AVENIDA REYES CATOLICOS, 115 03660 NOVELDA"}},{"type":"Feature","geometry":{"type":"Point","coordinates":[38.386417,-0.758389]},"properties":{"name":"REPSOL","price":1.389,"openingHours":"L-D: 06:00-22:00","address":"AVENIDA PEREZ GALDOS, 2 03660 NOVELDA"}},{"type":"Feature","geometry":{"type":"Point","coordinates":[38.38825,-0.755694]},"properties":{"name":"BP","price":1.411,"openingHours":"L-D: 06:00-23:00","address":"AVENIDA RIO VINALOPO, 1 03660 NOVELDA"}},{"type":"Feature","geometry":{"type":"Point","coordinates":[38.376333,-0.771333]},"properties":{"name":"INUBEL - NOVELDA,BP","price":1.399,"openingHours":"L-J: 06:00-22:30; V-S: 06:00-23:00; D: 06:30-22:30","address":"AVENIDA REYES CATOLICOS, 152 03360 NOVELDA"}},{"type":"Feature","geometry":{"type":"Point","coordinates":[38.589639,-0.1245]},"properties":{"name":"EL MIRADOR - LA GALIA","price":1.411,"openingHours":"L-D: 07:00-23:00","address":"CARRETERA CV-70 PARTIDA FOIA COMP KM. 5,3 03530 NUCIA (LA)"}},{"type":"Feature","geometry":{"type":"Point","coordinates":[38.603028,-0.129556]},"properties":{"name":"GALP","price":1.343,"openingHours":"L-D: 07:00-23:00","address":"P.I. La Nucia - Parcela 16 03530 NUCIA (LA)"}},{"type":"Feature","geometry":{"type":"Point","coordinates":[38.616167,-0.123944]},"properties":{"name":"REPSOL","price":1.359,"openingHours":"L-D: 06:00-22:00","address":"CL AVENIDA MARINA BAIXA, 80 03530 NUCIA (LA)"}},{"type":"Feature","geometry":{"type":"Point","coordinates":[38.82825,0.01475]},"properties":{"name":"REPSOL","price":1.389,"openingHours":"L-D: 06:00-22:00","address":"CARRETERA N-332 KM. 198 03760 ONDARA"}},{"type":"Feature","geometry":{"type":"Point","coordinates":[38.613444,-0.669667]},"properties":{"name":"BP","price":1.4,"openingHours":"L-D: 24H","address":"CALLE P.I. LA MARJAL - C\/ GREGAL, S\/N 03430 ONIL"}},{"type":"Feature","geometry":{"type":"Point","coordinates":[38.612972,-0.670417]},"properties":{"name":"T. ALBERO","price":1.379,"openingHours":"L-D: 24H","address":"CALLE POL LA MARJAL C\/LLEBEIG, 21 03430 ONIL"}},{"type":"Feature","geometry":{"type":"Point","coordinates":[38.771694,-0.06225]},"properties":{"name":"GASORBA","price":1.349,"openingHours":"L-D: 07:00-22:00","address":"CARRETERA CV-715 KM. 21,5 03790 ORBA"}},{"type":"Feature","geometry":{"type":"Point","coordinates":[38.091285,-0.953199]},"properties":{"name":"NO ROTULO","price":1.299,"openingHours":"L-D: 06:00-23:00","address":"PLAZA CAPUCHINOS, S.N. 03300 ORIHUELA"}},{"type":"Feature","geometry":{"type":"Point","coordinates":[38.106222,-0.93175]},"properties":{"name":"REPSOL","price":1.339,"openingHours":"L-D: 06:00-22:00","address":"CARRETERA N-340 KM. 688,6 03300 ORIHUELA"}},{"type":"Feature","geometry":{"type":"Point","coordinates":[38.087278,-0.936083]},"properties":{"name":"CEPSA","price":1.394,"openingHours":"L-D: 06:00-23:00","address":"CARRETERA ALMORADI KM. 0,2 03300 ORIHUELA"}},{"type":"Feature","geometry":{"type":"Point","coordinates":[38.086917,-0.936139]},"properties":{"name":"CEPSA","price":1.394,"openingHours":"L-D: 06:00-23:00","address":"CARRETERA ALMORADI KM. 0,2 03300 ORIHUELA"}},{"type":"Feature","geometry":{"type":"Point","coordinates":[38.089806,-0.848778]},"properties":{"name":"REVISOIL","price":1.289,"openingHours":"L-D: 06:00-22:00","address":"CARRETERA CV-914 KM. 8,200 03300 ORIHUELA"}},{"type":"Feature","geometry":{"type":"Point","coordinates":[38.090833,-0.878889]},"properties":{"name":"BP. SAN BARTOLOME LA CAMPANETA","price":1.299,"openingHours":"L-D: 06:00-23:00","address":"CARRETERA A-304 KM. 5,45 03300 ORIHUELA"}},{"type":"Feature","geometry":{"type":"Point","coordinates":[38.0915,-0.878611]},"properties":{"name":"BP. SAN BARTOLOME LA CAMPANETA","price":1.299,"openingHours":"L: 06:00-23:00","address":"CARRETERA A-304 KM. 5,45 03300 ORIHUELA"}},{"type":"Feature","geometry":{"type":"Point","coordinates":[38.119528,-0.954556]},"properties":{"name":"ORIGAS (MONTEPINAR)","price":1.279,"openingHours":"L-D: 24H","address":"CARRETERA AV-4141 KM. 0,9 03300 ORIHUELA"}},{"type":"Feature","geometry":{"type":"Point","coordinates":[38.090444,-0.952417]},"properties":{"name":"BP. (CAPUCHINOS)","price":1.299,"openingHours":"L-D: 06:00-23:00","address":"CALLE CAPUCHINOS, S\/N 03300 ORIHUELA"}},{"type":"Feature","geometry":{"type":"Point","coordinates":[38.081639,-0.937167]},"properties":{"name":"BP. (EL LIMONAR)","price":1.299,"openingHours":"L-D: 06:00-22:00","address":"CALLE PROLONGACION OBISPO ROCAMORA, S\/N 03300 ORIHUELA"}},{"type":"Feature","geometry":{"type":"Point","coordinates":[38.081361,-0.994056]},"properties":{"name":"BP. LA APARECIDA DE ORIHUELA","price":1.299,"openingHours":"L-D: 06:00-22:00","address":"CARRETERA NACION-340-R AB KM. 19,6 03300 ORIHUELA"}},{"type":"Feature","geometry":{"type":"Point","coordinates":[37.926694,-0.735556]},"properties":{"name":"BP","price":1.371,"openingHours":"L-D: 24H","address":"URBANIZACI\u00d3N VILLAMARTIN NORTE, S 03300 ORIHUELA"}},{"type":"Feature","geometry":{"type":"Point","coordinates":[38.063444,-0.983722]},"properties":{"name":"03\/53471","price":1.339,"openingHours":"L-V: 06:30-22:30; S-D: 07:00-22:00","address":"CARRETERA BENIEL DESAM KM. 3,7 03312 ORIHUELA"}},{"type":"Feature","geometry":{"type":"Point","coordinates":[38.055694,-0.937139]},"properties":{"name":"EL TANQUE","price":1.409,"openingHours":"L: 06:00-22:00","address":"CALLE EL PINAR, 9 03312 ARNEVA"}},{"type":"Feature","geometry":{"type":"Point","coordinates":[37.94325,-0.718028]},"properties":{"name":"CEPSA","price":1.344,"openingHours":"L-D: 06:00-22:00","address":"CARRETERA N-332 KM. 52,1 03189 ORIHUELA - COSTA (NUCLEO)"}},{"type":"Feature","geometry":{"type":"Point","coordinates":[37.902667,-0.760833]},"properties":{"name":"CEPSA","price":1.344,"openingHours":"L-D: 06:00-22:00","address":"CARRETERA N-332 KM. 46 03189 ORIHUELA - COSTA (NUCLEO)"}},{"type":"Feature","geometry":{"type":"Point","coordinates":[37.918,-0.754444]},"properties":{"name":"BP","price":1.371,"openingHours":"L-D: 07:00-00:00","address":"CALLE CABO CREUS, 2 03189 ORIHUELA - COSTA (NUCLEO)"}},{"type":"Feature","geometry":{"type":"Point","coordinates":[37.903583,-0.761083]},"properties":{"name":"CEPSA","price":1.344,"openingHours":"L-D: 06:00-22:00","address":"CARRETERA N-332 KM. 47 03189 ORIHUELA - COSTA (NUCLEO)"}},{"type":"Feature","geometry":{"type":"Point","coordinates":[38.800111,0.038889]},"properties":{"name":"REPSOL","price":1.389,"openingHours":"L-D: 06:00-22:00","address":"CL AVENIDA JAON CARLES I, 27 03750 PEDREGUER"}},{"type":"Feature","geometry":{"type":"Point","coordinates":[38.792028,0.06275]},"properties":{"name":"CEPSA","price":1.394,"openingHours":"L-D: 24H","address":"AUTOPISTA AP-7 (MRG.IZDO.) KM. 613,2 03750 PEDREGUER"}},{"type":"Feature","geometry":{"type":"Point","coordinates":[38.789861,0.063417]},"properties":{"name":"CEPSA","price":1.394,"openingHours":"L-D: 24H","address":"AUTOPISTA AP-7 (MRG.DCHO.) KM. 613,2 03750 PEDREGUER"}},{"type":"Feature","geometry":{"type":"Point","coordinates":[38.797417,0.052972]},"properties":{"name":"SHELL","price":1.394,"openingHours":"L-D: 06:00-22:00","address":"CARRETERA N-332 KM. 193 03750 PEDREGUER"}},{"type":"Feature","geometry":{"type":"Point","coordinates":[38.797667,0.054222]},"properties":{"name":"SHELL","price":1.394,"openingHours":"L-D: 06:00-22:00","address":"CARRETERA C-332 KM. 193 03750 PEDREGUER"}},{"type":"Feature","geometry":{"type":"Point","coordinates":[38.849528,-0.11275]},"properties":{"name":"BP","price":1.385,"openingHours":"L-S: 06:00-22:00; D: 07:00-22:00","address":"AVENIDA OLIVA, SN 03780 PEGO"}},{"type":"Feature","geometry":{"type":"Point","coordinates":[38.843694,-0.106778]},"properties":{"name":"COOPEGO","price":1.349,"openingHours":"L-D: 06:00-22:00","address":"CARRETERA DENIA KM. 1 03780 PEGO"}},{"type":"Feature","geometry":{"type":"Point","coordinates":[38.845278,-0.115528]},"properties":{"name":"PETRONOR","price":1.399,"openingHours":"L-V: 06:00-21:00; S: 07:00-21:00; D: 08:00-20:00","address":"AVENIDA DE VALENCIA, 21 03789 PEGO"}},{"type":"Feature","geometry":{"type":"Point","coordinates":[38.474472,-0.771]},"properties":{"name":"CEPSA","price":1.344,"openingHours":"L-D: 06:00-22:00","address":"AUTOVIA A-31 KM. 204,600 03610 PETRER"}},{"type":"Feature","geometry":{"type":"Point","coordinates":[38.493361,-0.780417]},"properties":{"name":"CEPSA","price":1.344,"openingHours":"L-V: 06:00-22:00","address":"AUTOVIA A-31 KM. 201,700 03610 PETRER"}},{"type":"Feature","geometry":{"type":"Point","coordinates":[38.488889,-0.776944]},"properties":{"name":"SHELL","price":1.319,"openingHours":"L-D: 24H","address":"AVDA. DEL GUIRNEY, N\u00ba 4 03610 PETRER"}},{"type":"Feature","geometry":{"type":"Point","coordinates":[38.462861,-0.782611]},"properties":{"name":"E.S. PETRER-ELDA","price":1.289,"openingHours":"L-D: 24H","address":"AVENIDA DEL MEDITERRANEO, 129 03610 PETRER"}},{"type":"Feature","geometry":{"type":"Point","coordinates":[37.859833,-0.782472]},"properties":{"name":"CEPSA","price":1.344,"openingHours":"L-D: 24H","address":"CARRETERA A-353 KM. 35,5 03190 PILAR DE LA HORADADA"}},{"type":"Feature","geometry":{"type":"Point","coordinates":[38.402472,-1.046806]},"properties":{"name":"REPSOL","price":1.375,"openingHours":"L-D: 06:00-22:00","address":"CARRETERA DE JUMILLA KM. 53,8 03650 PINOSO"}},{"type":"Feature","geometry":{"type":"Point","coordinates":[38.111306,-0.903333]},"properties":{"name":"REPSOL","price":1.369,"openingHours":"L-D: 06:00-22:00","address":"TRAVES\u00cdA 1 ORIHUELA, 1 03370 REDOVAN"}},{"type":"Feature","geometry":{"type":"Point","coordinates":[38.063056,-0.728778]},"properties":{"name":"GALP","price":1.403,"openingHours":"L-D: 06:00-00:00","address":"Avda. de las Naciones, S\/N 03170 ROJALES"}},{"type":"Feature","geometry":{"type":"Point","coordinates":[38.083972,-0.732722]},"properties":{"name":"BP ROJALES","price":1.395,"openingHours":"L-D: 24H","address":"CARRETERA CREVILLENTE-TORREVIEJA KM. 22,8 03170 ROJALES"}},{"type":"Feature","geometry":{"type":"Point","coordinates":[38.050444,-0.722583]},"properties":{"name":"QUESADAGAS","price":1.259,"openingHours":"L-D: 24H","address":"CALLE GUADALAJARA, S\/N 03170 ROJALES"}},{"type":"Feature","geometry":{"type":"Point","coordinates":[38.363361,-0.895056]},"properties":{"name":"SIN ROTULO","price":1.339,"openingHours":"L-S: 06:30-22:00","address":"CARRETERA ALGUE\u00d1A KM. 3 03669 ROMANA (LA)"}},{"type":"Feature","geometry":{"type":"Point","coordinates":[38.113333,-0.726389]},"properties":{"name":"GALP","price":1.356,"openingHours":"L-D: 06:30-22:30","address":"CARRETERA CV-859, DOLORES-SAN FULGENCIO KM. 4,5 03177 SAN FULGENCIO"}},{"type":"Feature","geometry":{"type":"Point","coordinates":[37.981583,-0.793111]},"properties":{"name":"REPSOL","price":1.399,"openingHours":"L-D: 06:00-22:00","address":"RONDA OESTE, S\/N 03193 SAN MIGUEL DE SALINAS"}},{"type":"Feature","geometry":{"type":"Point","coordinates":[38.40125,-0.535333]},"properties":{"name":"GALP","price":1.359,"openingHours":"L-D: 06:00-22:00","address":"CARRETERA CARRETERA DE AGOST KM. 1,000 03690 SAN VICENTE DEL RASPEIG\/SANT VICENT DEL RASPEIG"}},{"type":"Feature","geometry":{"type":"Point","coordinates":[38.398833,-0.51825]},"properties":{"name":"SHELL","price":1.369,"openingHours":"L-D: 06:30-22:30","address":"CALLE LA HUERTA, 11 03690 SAN VICENTE DEL RASPEIG\/SANT VICENT DEL RASPEIG"}},{"type":"Feature","geometry":{"type":"Point","coordinates":[38.380444,-0.503]},"properties":{"name":"CARREFOUR","price":1.359,"openingHours":"L-D: 24H","address":"CARRETERA SAN VICENTE -ALICANTE KM 3,7 KM. 3,7 03690 SAN VICENTE DEL RASPEIG\/SANT VICENT DEL RASPEIG"}},{"type":"Feature","geometry":{"type":"Point","coordinates":[38.404139,-0.544472]},"properties":{"name":"CONFORT AUTO","price":1.359,"openingHours":"L-V: 06:00-22:00; S: 08:00-15:00","address":"CALLE ARTES GRAFICAS, 1 03690 SAN VICENTE DEL RASPEIG\/SANT VICENT DEL RASPEIG"}},{"type":"Feature","geometry":{"type":"Point","coordinates":[38.390139,-0.514972]},"properties":{"name":"REPSOL","price":1.385,"openingHours":"L-D: 06:00-00:00","address":"CARRETERA AC-2203 KM. 5,1 03690 SAN VICENTE DEL RASPEIG\/SANT VICENT DEL RASPEIG"}},{"type":"Feature","geometry":{"type":"Point","coordinates":[38.401417,-0.534111]},"properties":{"name":"REPSOL","price":1.369,"openingHours":"L-D: 06:00-22:30","address":"CARRETERA AGOST KM. 68 03690 SAN VICENTE DEL RASPEIG\/SANT VICENT DEL RASPEIG"}},{"type":"Feature","geometry":{"type":"Point","coordinates":[38.416833,-0.536417]},"properties":{"name":"REPSOL","price":1.369,"openingHours":"L-S: 07:00-22:00; D: 08:00-14:00","address":"CARRETERA DE CASTALLA km 13 03690 SAN VICENTE DEL RASPEIG\/SANT VICENT DEL RASPEIG"}},{"type":"Feature","geometry":{"type":"Point","coordinates":[38.390528,-0.505611]},"properties":{"name":"REPSOL","price":1.385,"openingHours":"L-S: 07:00-22:00","address":"CARRETERA VILLAFRANQUEZA-SAN VICENTE KM. 1,5 03690 SAN VICENTE DEL RASPEIG\/SANT VICENT DEL RASPEIG"}},{"type":"Feature","geometry":{"type":"Point","coordinates":[38.388472,-0.511833]},"properties":{"name":"SAN VICENTE","price":1.401,"openingHours":"L-D: 24H","address":"CARRETERA DE ALICANTE N\u00ba79 03690 BOQUERES"}},{"type":"Feature","geometry":{"type":"Point","coordinates":[38.406944,-0.439333]},"properties":{"name":"EL SALT","price":1.399,"openingHours":"L-J: 06:00-23:00; V: 06:00-00:00; S: 07:00-00:00; D: 07:00-23:00","address":"AVENIDA MUCHAMIEL, 8 03550 SANT JOAN D'ALACANT"}},{"type":"Feature","geometry":{"type":"Point","coordinates":[38.408139,-0.424306]},"properties":{"name":"CARREFOUR","price":1.329,"openingHours":"L-D: 24H","address":"CARRETERA DE VALENCIA KM. 89 03550 SANT JOAN D'ALACANT"}},{"type":"Feature","geometry":{"type":"Point","coordinates":[38.411889,-0.421472]},"properties":{"name":"REPSOL","price":1.376,"openingHours":"L-D: 24H","address":"AVENIDA MIGUEL HERNANDEZ, S\/N 03550 SANT JOAN D'ALACANT"}},{"type":"Feature","geometry":{"type":"Point","coordinates":[38.235389,-0.549972]},"properties":{"name":"REPSOL","price":1.385,"openingHours":"L-D: 24H","address":"CR N-332, 93,5 03130 SANTA POLA"}},{"type":"Feature","geometry":{"type":"Point","coordinates":[38.199444,-0.568667]},"properties":{"name":"CEPSA","price":1.361,"openingHours":"L-D: 24H","address":"CARRETERA N-332 KM. 87,8 03130 SANTA POLA"}},{"type":"Feature","geometry":{"type":"Point","coordinates":[38.19725,-0.56225]},"properties":{"name":"EA SANTA POLA","price":1.364,"openingHours":"L-D: 24H","address":"CARRETERA ELCHE SANTA POLA CRUCE C\/LEVANTE 2 KM. S\/N 03130 SANTA POLA"}},{"type":"Feature","geometry":{"type":"Point","coordinates":[38.532667,-0.808167]},"properties":{"name":"CEPSA","price":1.344,"openingHours":"L-D: 06:00-22:00","address":"AUTOVIA A-31 KM. 196,500 03630 SAX"}},{"type":"Feature","geometry":{"type":"Point","coordinates":[38.573556,-0.83875]},"properties":{"name":"CEPSA","price":1.344,"openingHours":"L-D: 06:00-22:00","address":"AUTOVIA A-31 KM. 191,100 03630 SAX"}},{"type":"Feature","geometry":{"type":"Point","coordinates":[38.572861,-0.83975]},"properties":{"name":"CEPSA","price":1.344,"openingHours":"L-D: 06:00-22:00","address":"AUTOVIA A-31 KM. 191 03630 SAX"}},{"type":"Feature","geometry":{"type":"Point","coordinates":[38.535,-0.810722]},"properties":{"name":"REPSOL","price":1.345,"openingHours":"L-D: 06:30-22:30","address":"PASAJE DE LAS SUERTES, S.N. 03630 SAX"}},{"type":"Feature","geometry":{"type":"Point","coordinates":[38.729361,0.092111]},"properties":{"name":"REPSOL","price":1.399,"openingHours":"L-S: 06:00-22:00; D: 08:00-22:00","address":"POLIGONO C\/ ELS GREMIS, 25 03725 TEULADA"}},{"type":"Feature","geometry":{"type":"Point","coordinates":[38.689806,0.134806]},"properties":{"name":"REPSOL","price":1.399,"openingHours":"L-D: 06:00-22:00","address":"CARRETERA TEULADA-CALPE KM. 6,5 03724 MORAIRA"}},{"type":"Feature","geometry":{"type":"Point","coordinates":[38.712056,0.130194]},"properties":{"name":"CEPSA","price":1.374,"openingHours":"L-D: 07:00-23:00","address":"CARRETERA CV-743 KM. 4 03724 MORAIRA"}},{"type":"Feature","geometry":{"type":"Point","coordinates":[38.498222,-0.603167]},"properties":{"name":"BP","price":1.389,"openingHours":"L-D: 07:00-23:00","address":"A-7 km 17 03109 TIBI"}},{"type":"Feature","geometry":{"type":"Point","coordinates":[37.983333,-0.685944]},"properties":{"name":"BP OIL ESPA\u00d1A","price":1.365,"openingHours":"L-J: 06:30-22:30; V: 06:30-23:00; S: 07:00-23:00; D: 07:00-22:30","address":"CALLE ORIHUELA, 90 03182 TORREVIEJA"}},{"type":"Feature","geometry":{"type":"Point","coordinates":[37.983056,-0.679278]},"properties":{"name":"BP OIL ESPA\u00d1A","price":1.365,"openingHours":"L-D: 06:30-23:30","address":"CL APOLO 74 03182 TORREVIEJA"}},{"type":"Feature","geometry":{"type":"Point","coordinates":[37.999,-0.690111]},"properties":{"name":"SARAS ENERGIA","price":1.349,"openingHours":"L-S: 07:00-22:00; D: 08:00-22:00","address":"CRTA. CREVILLENTE S\/N - C.C. CAPRABO 03180 TORREVIEJA"}},{"type":"Feature","geometry":{"type":"Point","coordinates":[37.992194,-0.688194]},"properties":{"name":"CARREFOUR","price":1.349,"openingHours":"L-D: 24H","address":"CARRETERA CREVILLENTE KM. 34,400 03180 TORREVIEJA"}},{"type":"Feature","geometry":{"type":"Point","coordinates":[37.984694,-0.680111]},"properties":{"name":"GRUPO MARMESA","price":1.249,"openingHours":"L-D: 24H","address":"CALLE VIAL DE RONDA, S\/N 03180 TORREVIEJA"}},{"type":"Feature","geometry":{"type":"Point","coordinates":[37.996028,-0.655833]},"properties":{"name":"REPSOL","price":1.365,"openingHours":"L-D: 07:00-23:00","address":"CL AVDA. ALFREDO NOBEL, 195 03180 TORREVIEJA"}},{"type":"Feature","geometry":{"type":"Point","coordinates":[37.988333,-0.687333]},"properties":{"name":"REPSOL","price":1.375,"openingHours":"L-D: 05:00-00:00","address":"CR CV-905 P.K. 10,1 03180 TORREVIEJA"}},{"type":"Feature","geometry":{"type":"Point","coordinates":[38.023167,-0.656889]},"properties":{"name":"CEPSA","price":1.354,"openingHours":"L-D: 06:00-22:00","address":"CARRETERA N-332 KM. 63,3 03180 TORREVIEJA"}},{"type":"Feature","geometry":{"type":"Point","coordinates":[38.002056,-0.669667]},"properties":{"name":"REPSOL","price":1.389,"openingHours":"L-D: 07:30-21:30","address":"AVENIDA CORTES VALENCIANAS, SN 03180 TORREVIEJA"}},{"type":"Feature","geometry":{"type":"Point","coordinates":[37.977278,-0.687444]},"properties":{"name":"CEPSA","price":1.354,"openingHours":"L-D: 06:00-22:00","address":"AVENIDA DOCTOR GREGORIO MARA\u00d1\u00d3N, 14 03180 TORREVIEJA"}},{"type":"Feature","geometry":{"type":"Point","coordinates":[37.986917,-0.687361]},"properties":{"name":"CEPSA","price":1.354,"openingHours":"L-D: 24H","address":"CARRETERA C-3321 KM. 34,8 03180 TORREVIEJA"}},{"type":"Feature","geometry":{"type":"Point","coordinates":[37.991361,-0.674944]},"properties":{"name":"REPSOL","price":1.359,"openingHours":"L-D: 07:00-23:00","address":"AVENIDA CORTES VALENCIANAS, 60 03183 TORREVIEJA"}},{"type":"Feature","geometry":{"type":"Point","coordinates":[37.988778,-0.676583]},"properties":{"name":"SHELL","price":1.339,"openingHours":"L-V: 09:00-14:00 y 17:00-19:00; S: 09:00-14:00","address":"AVENIDA CORTES VALENCIANAS, KM.46,3 P.I.CASA GRANDE, 1 03183 TORREVIEJA"}},{"type":"Feature","geometry":{"type":"Point","coordinates":[37.953333,-0.725889]},"properties":{"name":"EROSKI","price":1.254,"openingHours":"L-D: 24H","address":"URBANIZACI\u00d3N LA CE\u00d1UELA, SN 03185 TORREVIEJA"}},{"type":"Feature","geometry":{"type":"Point","coordinates":[37.963194,-0.715222]},"properties":{"name":"REPSOL","price":1.375,"openingHours":"L-D: 24H","address":"CARRETERA CV-95 KM. 2 03186 TORREVIEJA"}},{"type":"Feature","geometry":{"type":"Point","coordinates":[38.855278,0.000306]},"properties":{"name":"BIOIL","price":1.389,"openingHours":"L-D: 24H","address":"AVENIDA VALENCIA, 50 03770 VERGER (EL)"}},{"type":"Feature","geometry":{"type":"Point","coordinates":[38.516722,-0.210694]},"properties":{"name":"CEPSA","price":1.354,"openingHours":"L-D: 24H","address":"CARRETERA N-332 KM. 139,2 03570 VILLAJOYOSA \/ VILA JOIOSA (LA)"}},{"type":"Feature","geometry":{"type":"Point","coordinates":[38.534694,-0.207083]},"properties":{"name":"CEPSA","price":1.394,"openingHours":"L-D: 24H","address":"AUTOPISTA AP-7 (MRG.IZDO.) KM. 655,4 03570 VILLAJOYOSA \/ VILA JOIOSA (LA)"}},{"type":"Feature","geometry":{"type":"Point","coordinates":[38.499028,-0.252]},"properties":{"name":"CEPSA","price":1.354,"openingHours":"L-D: 06:00-22:00","address":"CARRETERA N-332 KM. 135,5 03570 VILLAJOYOSA \/ VILA JOIOSA (LA)"}},{"type":"Feature","geometry":{"type":"Point","coordinates":[38.535972,-0.20225]},"properties":{"name":"CEPSA","price":1.394,"openingHours":"L-D: 24H","address":"AUTOPISTA AP-7 (MRG.DCHO.) KM. 655,4 03570 VILLAJOYOSA \/ VILA JOIOSA (LA)"}},{"type":"Feature","geometry":{"type":"Point","coordinates":[38.506972,-0.229222]},"properties":{"name":"REPSOL","price":1.345,"openingHours":"L-D: 06:00-22:00","address":"AVENIDA AVENIDA PAIS VALENCIA, S.N. 03570 VILLAJOYOSA \/ VILA JOIOSA (LA)"}},{"type":"Feature","geometry":{"type":"Point","coordinates":[38.618083,-0.848972]},"properties":{"name":"REPSOL","price":1.345,"openingHours":"L-S: 06:00-23:00; D: 06:00-22:00","address":"CARRETERA ALICANTE KM. 53 03400 VILLENA"}},{"type":"Feature","geometry":{"type":"Point","coordinates":[38.629806,-0.856333]},"properties":{"name":"REPSOL","price":1.345,"openingHours":"L-D: 06:00-22:00","address":"CL AVENIDA ALICANTE, 22 03400 VILLENA"}},{"type":"Feature","geometry":{"type":"Point","coordinates":[38.635861,-0.873944]},"properties":{"name":"JBM","price":1.299,"openingHours":"L-D: 06:00-22:00","address":"PARTIDA PRADO DE LA VILLA, 106 03400 VILLENA"}},{"type":"Feature","geometry":{"type":"Point","coordinates":[38.670306,-0.888056]},"properties":{"name":"STS OIL","price":1.399,"openingHours":"L-D: 06:00-22:00","address":"AUTOVIA ALICANTE-MADRID KM. 59 03400 VILLENA"}},{"type":"Feature","geometry":{"type":"Point","coordinates":[38.762444,-0.8965]},"properties":{"name":"E.S. L\u00cdMITE","price":1.369,"openingHours":"L-V: 05:30-21:30; S: 07:00-21:00; D: 08:00-14:30","address":"CARRETERA N-344 KM. 124 03400 VILLENA"}},{"type":"Feature","geometry":{"type":"Point","coordinates":[38.643528,-0.869028]},"properties":{"name":"LA MORENICA","price":1.36,"openingHours":"L-D: 24H","address":"AVENIDA CONSTITUCION DE, 206 03400 VILLENA"}},{"type":"Feature","geometry":{"type":"Point","coordinates":[38.729028,-0.93825]},"properties":{"name":"BP OIL","price":1.385,"openingHours":"L-D: 24H","address":"CARRETERA N-330 KM. 68 03400 VILLENA"}},{"type":"Feature","geometry":{"type":"Point","coordinates":[37.14475,-2.772778]},"properties":{"name":"CEPSA","price":1.369,"openingHours":"L: 06:00-10:00","address":"CARRETERA CARRETERA NACIONAL 324 KM. 268,1 04510 ABLA"}},{"type":"Feature","geometry":{"type":"Point","coordinates":[36.748056,-3.003944]},"properties":{"name":"REPSOL","price":1.349,"openingHours":"L-D: 06:00-22:00","address":"CARRETERA N-340 KM. 389,6 04770 ADRA"}},{"type":"Feature","geometry":{"type":"Point","coordinates":[37.379556,-2.1355]},"properties":{"name":"SAN JOSE","price":1.389,"openingHours":"L-D: 24H","address":"CR HUERCAL-OVERA-VILLAC. KM 70,1 04800 ALBOX"}},{"type":"Feature","geometry":{"type":"Point","coordinates":[36.949944,-2.555722]},"properties":{"name":"REPSOL","price":1.359,"openingHours":"L-D: 06:00-22:00","address":"CARRETERA A-348 KM. 138,830 04400 ALHAMA DE ALMERIA"}},{"type":"Feature","geometry":{"type":"Point","coordinates":[36.829444,-2.492667]},"properties":{"name":"CEPSA","price":1.354,"openingHours":"L-D: 07:00-23:00","address":"CARRETERA N-340A KM. 438,5 04002 ALMERIA"}},{"type":"Feature","geometry":{"type":"Point","coordinates":[36.852083,-2.467333]},"properties":{"name":"REPSOL","price":1.369,"openingHours":"L-D: 24H","address":"AVENIDA FEDERICO GARCIA LORCA, S\/N 04008 ALMERIA"}},{"type":"Feature","geometry":{"type":"Point","coordinates":[36.843083,-2.422972]},"properties":{"name":"CEPSA","price":1.384,"openingHours":"L-D: 24H","address":"CARRETERA AL-12 KM. 3.6 04120 ALMERIA"}},{"type":"Feature","geometry":{"type":"Point","coordinates":[36.840833,-2.419722]},"properties":{"name":"LOS PARTIDORES","price":1.415,"openingHours":"L-D: 24H","address":"CR ALM-CA\u00d1ADA SAN URBANO 201 (COMARCAL AL-201) 04120 ALMERIA"}},{"type":"Feature","geometry":{"type":"Point","coordinates":[36.853639,-2.420722]},"properties":{"name":"REPSOL","price":1.375,"openingHours":"L-D: 06:00-22:00","address":"CARRETERA ALP 201 KM. 1,60 04009 ALMERIA"}},{"type":"Feature","geometry":{"type":"Point","coordinates":[36.857778,-2.447278]},"properties":{"name":"CEPSA","price":1.379,"openingHours":"L-D: 06:00-23:30","address":"CARRETERA N-340A KM. 444 04009 ALMERIA"}},{"type":"Feature","geometry":{"type":"Point","coordinates":[36.865528,-2.448639]},"properties":{"name":"BP RAMBLA INIESTA","price":1.398,"openingHours":"L-D: 24H","address":"CALLE CUESTA DE LOS CALLEJONES, 0 04009 ALMERIA"}},{"type":"Feature","geometry":{"type":"Point","coordinates":[36.845861,-2.450111]},"properties":{"name":"CEPSA","price":1.364,"openingHours":"L-D: 06:00-00:00","address":"CALLE CARRETERA DE NIJAR, S\/N 04009 ALMERIA"}},{"type":"Feature","geometry":{"type":"Point","coordinates":[36.839444,-2.446722]},"properties":{"name":"REPSOL","price":1.359,"openingHours":"L-D: 07:00-23:00","address":"CL PADRE MENDEZ, S.N. 04006 ALMERIA"}},{"type":"Feature","geometry":{"type":"Point","coordinates":[36.840028,-2.445611]},"properties":{"name":"BP MONTSERRAT - ALMERIA","price":1.391,"openingHours":"L-D: 24H","address":"CALLE MONSERRAT, 0 04006 ALMERIA"}},{"type":"Feature","geometry":{"type":"Point","coordinates":[36.842167,-2.442972]},"properties":{"name":"CARREFOUR","price":1.389,"openingHours":"L-D: 24H","address":"CALLE JORGE GUILLEN, S\/N 04006 ALMERIA"}},{"type":"Feature","geometry":{"type":"Point","coordinates":[36.852444,-2.446806]},"properties":{"name":"ALCAMPO","price":1.27,"openingHours":"L-D: 07:00-02:00","address":"AVENIDA DEL MEDITERRANEO, S\/N 04006 ALMERIA"}},{"type":"Feature","geometry":{"type":"Point","coordinates":[36.816083,-2.432944]},"properties":{"name":"REPSOL","price":1.399,"openingHours":"L-D: 07:00-23:00","address":"AVENIDA CABO DE GATA, 280 04007 ALMERIA"}},{"type":"Feature","geometry":{"type":"Point","coordinates":[36.841167,-2.439472]},"properties":{"name":"SIERRA ALHAMILLA","price":1.403,"openingHours":"L-S: 06:00-22:00; D: 07:00-22:00","address":"AV SIERRA ALHAMILLA, 304 04007 ALMERIA"}},{"type":"Feature","geometry":{"type":"Point","coordinates":[36.827333,-2.445028]},"properties":{"name":"REPSOL","price":1.359,"openingHours":"L-D: 07:00-23:00","address":"AVENIDA MEDITERRANEO, S\/N 04007 ALMERIA"}},{"type":"Feature","geometry":{"type":"Point","coordinates":[36.8335,-2.462528]},"properties":{"name":"CEPSA","price":1.364,"openingHours":"L-D: 06:00-23:59","address":"AVENIDA CABO DE GATA, 4 04007 ALMERIA"}},{"type":"Feature","geometry":{"type":"Point","coordinates":[36.845,-2.390944]},"properties":{"name":"CEPSA","price":1.374,"openingHours":"L-D: 06:00-23:59","address":"CARRETERA NIJAR (ALQUIAN) KM. 6,9 04120 CA\u00d1ADA DE SAN URBANO (LA)"}},{"type":"Feature","geometry":{"type":"Point","coordinates":[36.875028,-2.336444]},"properties":{"name":"REPSOL","price":1.465,"openingHours":"L-D: 24H","address":"AUTOVIA A7 KM. 460,000 04130 ALQUIAN (EL)"}},{"type":"Feature","geometry":{"type":"Point","coordinates":[36.868389,-2.23]},"properties":{"name":"JCARRION","price":1.355,"openingHours":"L-D: 24H","address":"CARRETERA E-15\/N-340 KM. 471 04130 RETAMAR"}},{"type":"Feature","geometry":{"type":"Point","coordinates":[36.852639,-2.36075]},"properties":{"name":"GALP","price":1.378,"openingHours":"L-D: 07:00-00:00","address":"CARRETERA NIJAR A RETAMAR (DISEMINADO) (DE) KM. 14 04131 RETAMAR"}},{"type":"Feature","geometry":{"type":"Point","coordinates":[37.252583,-1.914139]},"properties":{"name":"HNOS.MARTINEZ","price":1.339,"openingHours":"L-S: 07:00-22:00","address":"POLIGONO INDUSTRIAL ALJOROQUE, 1 04628 ANTAS"}},{"type":"Feature","geometry":{"type":"Point","coordinates":[37.285833,-1.934556]},"properties":{"name":"ANTAS GAS S.L.","price":1.379,"openingHours":"L-D: 24H","address":"AUTOVIA MURCIA-ALMERIA SALIDA 537 KM. 537 04628 ANTAS"}},{"type":"Feature","geometry":{"type":"Point","coordinates":[37.260306,-1.900306]},"properties":{"name":"CEPSA","price":1.345,"openingHours":"L: 06:00-22:00","address":"POLIGONO P.I. EL REAL, S\/N 04628 ANTAS"}},{"type":"Feature","geometry":{"type":"Point","coordinates":[36.925083,-2.461611]},