{"type":"FeatureCollection","features":[{"type":"Feature","geometry":{"type":"Point","coordinates":[42.824389,-2.770694]},"properties":{"name":"GAS NATURAL FENOSA","price":0.851,"openingHours":"L-D: 24H","address":"CALLE A-1 KM 342. POL. IND. SUBILLABIDE (SUVILLAVIDE BIDEA), 2 01230 NANCLARES DE LA OCA"}},{"type":"Feature","geometry":{"type":"Point","coordinates":[42.860083,-2.703306]},"properties":{"name":"EDP","price":0.853,"openingHours":"L-D: 24H","address":"CALLE VITORIALANDA, 12 01193 ABERASTURI"}},{"type":"Feature","geometry":{"type":"Point","coordinates":[38.169806,-0.852389]},"properties":{"name":"GAS NATURAL FENOSA","price":0.913,"openingHours":"L-D: 24H","address":"CALLE ANTONIO MACHADO \/ FIDEL, POL. IND. LA GRANADINA, S\/N 03349 SAN ISIDRO"}},{"type":"Feature","geometry":{"type":"Point","coordinates":[43.517972,-5.686806]},"properties":{"name":"EDP","price":0.95,"openingHours":"L-D: 24H","address":"AVENIDA DE OVIEDO, 176 33211 GIJON"}},{"type":"Feature","geometry":{"type":"Point","coordinates":[41.515306,1.897556]},"properties":{"name":"GALP","price":0.72,"openingHours":"L-D: 24H","address":"CALLE SALVADOR SEGUI,1, 08630 ABRERA"}},{"type":"Feature","geometry":{"type":"Point","coordinates":[41.383556,2.189806]},"properties":{"name":"GAS NATURAL FENOSA","price":0.913,"openingHours":"L-D: 24H","address":"CALLE DOCTOR AIGUADER, 50 08003 BARCELONA"}},{"type":"Feature","geometry":{"type":"Point","coordinates":[41.331861,2.134861]},"properties":{"name":"GAS NATURAL FENOSA","price":0.913,"openingHours":"L-D: 24H","address":"CALLE B, ZONA FRANCA, 13 08004 BARCELONA"}},{"type":"Feature","geometry":{"type":"Point","coordinates":[41.433444,2.20275]},"properties":{"name":"GAS NATURAL FENOSA","price":0.913,"openingHours":"L-D: 24H","address":"CALLE FRA JUNIPER SERRA, 59-75 08030 BARCELONA"}},{"type":"Feature","geometry":{"type":"Point","coordinates":[41.347944,2.082028]},"properties":{"name":"HAM","price":0.72,"openingHours":"L-D: 06:00-22:00","address":"CALLE PROGRESO, 4 08940 CORNELLA DE LLOBREGAT"}},{"type":"Feature","geometry":{"type":"Point","coordinates":[41.3585,2.112944]},"properties":{"name":"GALP","price":0.72,"openingHours":"L-D: 24H","address":"Ctra. Del Mig, 36-38 Esq.C\/Miguel Romeu, 128-132 08903 HOSPITALET DE LLOBREGAT (L')"}},{"type":"Feature","geometry":{"type":"Point","coordinates":[41.349222,2.124472]},"properties":{"name":"GAS NATURAL FENOSA","price":0.913,"openingHours":"L-D: 24H","address":"CALLE BOTANICA, 114 08908 HOSPITALET DE LLOBREGAT (L')"}},{"type":"Feature","geometry":{"type":"Point","coordinates":[41.595833,1.632]},"properties":{"name":"HAM IGUALADA","price":0.72,"openingHours":"L-D: 24H","address":"AVENIDA EUROPA, 26 08700 IGUALADA"}},{"type":"Feature","geometry":{"type":"Point","coordinates":[41.435556,1.778111]},"properties":{"name":"GALP","price":0.72,"openingHours":"L-D: 24H","address":"CALLE DE FRAN\u00c7A, 5 08770 SANT SADURNI D'ANOIA"}},{"type":"Feature","geometry":{"type":"Point","coordinates":[41.538806,2.164139]},"properties":{"name":"MARIN\u00c9","price":0.884,"openingHours":"L-D: 24H","address":"CALLE GUIFRE EL PILOS, S\/N 08130 SANTA PERPETUA DE MOGODA"}},{"type":"Feature","geometry":{"type":"Point","coordinates":[41.53875,2.164111]},"properties":{"name":"GAS NATURAL FENOSA","price":0.913,"openingHours":"L-D: 24H","address":"CALLE GUIFR\u00c9 EL PIL\u00d3S, 10 08130 SANTA PERPETUA DE MOGODA"}},{"type":"Feature","geometry":{"type":"Point","coordinates":[41.318472,2.036139]},"properties":{"name":"GAS NATURAL FENOSA","price":0.913,"openingHours":"L-D: 24H","address":"AVENIDA PROGR\u00c9S, 25-27 08440 VILADECANS"}},{"type":"Feature","geometry":{"type":"Point","coordinates":[41.916222,-3.751139]},"properties":{"name":"REPSOL","price":0.914,"openingHours":"L-D: 24H","address":"CR A-1, 187,7 09349 FONTIOSO"}},{"type":"Feature","geometry":{"type":"Point","coordinates":[39.974083,-0.0755]},"properties":{"name":"MONFORT","price":0.79,"openingHours":"L-D: 24H","address":"CALLE DINAMARCA - ESQUINA C\/SABONER, S\/N 12006 CASTELLON DE LA PLANA"}},{"type":"Feature","geometry":{"type":"Point","coordinates":[39.553778,-1.902944]},"properties":{"name":"GAS NATURAL FENOSA","price":0.851,"openingHours":"L-D: 24H","address":"CARRETERA ALBACETE, N-320 KM. 72 16200 MOTILLA DEL PALANCAR"}},{"type":"Feature","geometry":{"type":"Point","coordinates":[40.595139,-3.225778]},"properties":{"name":"GAS NATURAL FENOSA","price":0.913,"openingHours":"L-D: 05:00-23:00","address":"CARRETERA A-2 KM 47,5 (SALIDA 48). CTRA. MADRID, KM47 KM. 47,5 19208 ALOVERA"}},{"type":"Feature","geometry":{"type":"Point","coordinates":[40.6555,-3.185194]},"properties":{"name":"GAS NATURAL FENOSA","price":0.913,"openingHours":"L-D: 24H","address":"CALLE GADALAJARA-JALISCO, 9 19004 GUADALAJARA"}},{"type":"Feature","geometry":{"type":"Point","coordinates":[40.972278,-2.615972]},"properties":{"name":"HAM TORREMOCHA","price":0.72,"openingHours":"L-D: 24H","address":"CARRETERA A2 KM. 117,4 19268 TORREMOCHA DEL CAMPO"}},{"type":"Feature","geometry":{"type":"Point","coordinates":[43.038889,-2.216667]},"properties":{"name":"AVIA","price":0.89,"openingHours":"L-D: 24H","address":"CARRETERA NACIONAL N-1 (IRUN-MADRID) KM. 417 20212 OLABERRIA"}},{"type":"Feature","geometry":{"type":"Point","coordinates":[38.193306,-3.671972]},"properties":{"name":"REPSOL","price":0.914,"openingHours":"L-D: 24H","address":"CARRETERA N4 KM. 280,5 23210 GUARROMAN"}},{"type":"Feature","geometry":{"type":"Point","coordinates":[40.342222,-3.805444]},"properties":{"name":"GAS NATURAL FENOSA","price":0.935,"openingHours":"L-D: 24H","address":"CALLE EBANISTAS, 2 28923 ALCORCON"}},{"type":"Feature","geometry":{"type":"Point","coordinates":[40.48525,-3.633056]},"properties":{"name":"GAS NATURAL FENOSA","price":0.935,"openingHours":"L-D: 24H","address":"AVENIDA FRANCISCO PI Y MARGALL, 5 28050 MADRID"}},{"type":"Feature","geometry":{"type":"Point","coordinates":[40.336056,-3.717944]},"properties":{"name":"GAS NATURAL FENOSA","price":0.935,"openingHours":"L-D: 24H","address":"CALLE PI\u00d1UECAR, 53 28023 MADRID"}},{"type":"Feature","geometry":{"type":"Point","coordinates":[40.463583,-3.804389]},"properties":{"name":"GAS NATURAL FENOSA","price":0.935,"openingHours":"L-D: 24H","address":"CALLE RAFAEL BOTI, 5 28021 MADRID"}},{"type":"Feature","geometry":{"type":"Point","coordinates":[40.44925,-3.573111]},"properties":{"name":"GAS NATURAL FENOSA","price":0.935,"openingHours":"L-D: 24H","address":"CALLE FUEMBELLIDA, 3 28022 MADRID"}},{"type":"Feature","geometry":{"type":"Point","coordinates":[40.363889,-3.655667]},"properties":{"name":"GAS NATURAL FENOSA","price":0.935,"openingHours":"L-D: 24H","address":"AVENIDA EJE CENTRAL, 7 28053 MADRID"}},{"type":"Feature","geometry":{"type":"Point","coordinates":[40.438611,-3.621639]},"properties":{"name":"GAS NATURAL FENOSA","price":0.935,"openingHours":"L-D: 24H","address":"CALLE SAN ROMUALDO, 13 28037 MADRID"}},{"type":"Feature","geometry":{"type":"Point","coordinates":[40.398222,-3.588917]},"properties":{"name":"GAS NATURAL FENOSA","price":0.935,"openingHours":"L-D: 24H","address":"CALLE RIVAS, 14 28052 MADRID"}},{"type":"Feature","geometry":{"type":"Point","coordinates":[40.240389,-3.753639]},"properties":{"name":"GAS NATURAL FENOSA","price":0.935,"openingHours":"L-D: 24H","address":"CARRETERA DE PARLA A PINTO M-408 KM. S\/N 28980 PARLA"}},{"type":"Feature","geometry":{"type":"Point","coordinates":[37.962333,-1.169667]},"properties":{"name":"GAS NATURAL FENOSA","price":0.913,"openingHours":"L-D: 07:00-22:00","address":"CARRETERA SAN GIN\u00c9S A ERA ALTA, POL\u00cdGONO 176, PARCELA 192 KM. S\/N 30168 ERA ALTA"}},{"type":"Feature","geometry":{"type":"Point","coordinates":[42.835194,-1.609583]},"properties":{"name":"GAS NATURAL FENOSA","price":0.913,"openingHours":"L-D: 24H","address":"CARRETERA NA2517, ARRE-ORICAIN KM. 4 31610 VILLAVA O ATARRABIA"}},{"type":"Feature","geometry":{"type":"Point","coordinates":[42.289667,-7.813833]},"properties":{"name":"GAS NATURAL FENOSA","price":0.913,"openingHours":"L-D: 24H","address":"CALLE RICARDO MART\u00cdN ESPERANZA, 12 32911 SAN CIBRAO DAS VI\u00d1AS"}},{"type":"Feature","geometry":{"type":"Point","coordinates":[37.386917,-5.946889]},"properties":{"name":"GAS NATURAL FENOSA","price":0.913,"openingHours":"L-D: 24H","address":"AVENIDA ANDALUCIA, 11 41007 SEVILLA"}},{"type":"Feature","geometry":{"type":"Point","coordinates":[41.1385,1.221806]},"properties":{"name":"HAM BIONET","price":0.72,"openingHours":"L-V: 06:00-22:00; S: 07:00-15:00","address":"CALLE SOFRE, 5 43006 TARRAGONA"}},{"type":"Feature","geometry":{"type":"Point","coordinates":[40.105139,-3.645056]},"properties":{"name":"REPSOL","price":0.914,"openingHours":"L-D: 06:00-22:00","address":"AUTOVIA A-4 KM. 36,5 45223 SESE\u00d1A"}},{"type":"Feature","geometry":{"type":"Point","coordinates":[39.862028,-4.003278]},"properties":{"name":"CEPSA","price":0.995,"openingHours":"L: 07:00-23:00","address":"PASEO DE LA ROSA, 156 45006 TOLEDO"}},{"type":"Feature","geometry":{"type":"Point","coordinates":[39.475861,-0.54825]},"properties":{"name":"GAS NATURAL FENOSA","price":0.851,"openingHours":"L-D: 24H","address":"CARRETERA DELS PEDRAPIQUERS KM. S\/N 46190 RIBA-ROJA DE TURIA"}},{"type":"Feature","geometry":{"type":"Point","coordinates":[39.457837,-0.409276]},"properties":{"name":"TAXCO","price":0.898,"openingHours":"L-D: 24H","address":"CL DELS GREMITS, 10 (POLIG.VARA DE QUART) 46014 VALENCIA"}},{"type":"Feature","geometry":{"type":"Point","coordinates":[39.458028,-0.409417]},"properties":{"name":"GAS NATURAL FENOSA","price":0.913,"openingHours":"L-D: 24H","address":"CALLE GREMIS DELS, 10 46014 VALENCIA"}},{"type":"Feature","geometry":{"type":"Point","coordinates":[43.349972,-3.07225]},"properties":{"name":"HAM BILBAO","price":0.72,"openingHours":"L-D: 24H","address":"CALLE REFRADIGAS, 1 48001 BILBAO"}},{"type":"Feature","geometry":{"type":"Point","coordinates":[41.634222,-0.923278]},"properties":{"name":"COOPERATIVA AUTO-TAXI","price":0.82,"openingHours":"L-D: 24H","address":"AVENIDA GOMEZ LAGUNA, 151 50012 ZARAGOZA"}}]}